{
    "type": "FeatureCollection",
    "features": [
        {
            "type": "Feature",
            "geometry": {
                "type": "Point",
                "coordinates": [
                    140.109046,
                    35.615299
                ]
            },
            "properties": {
                "churchId": "6d02ef22ce16526b53aee0b4c7218b12d91e3159",
                "name": "千葉バイブルバプテスト教会",
                "address": "〒260-0031 千葉県千葉市中央区新千葉３丁目１−１−２",
                "catholic": false
            }
        },
        {
            "type": "Feature",
            "geometry": {
                "type": "Point",
                "coordinates": [
                    135.511856,
                    34.701565
                ]
            },
            "properties": {
                "churchId": "dcbc249caf899da03258e2e251acaf7d43ab01c7",
                "name": "救世軍西日本連隊本部",
                "address": "〒530-0041 大阪府大阪市北区天神橋３丁目６−２０ 救世軍大阪セントラルホール",
                "catholic": false
            }
        },
        {
            "type": "Feature",
            "geometry": {
                "type": "Point",
                "coordinates": [
                    135.7647421,
                    35.0031595
                ]
            },
            "properties": {
                "churchId": "39778055a9facd74d26be41146844f6e6b506e6b",
                "name": "Salvation Army",
                "address": "富小路通四条下る37 救世軍京都小隊 徳正寺町 下京区 京都市 京都府 600-8051",
                "catholic": false
            }
        },
        {
            "type": "Feature",
            "geometry": {
                "type": "Point",
                "coordinates": [
                    135.539076,
                    34.662742
                ]
            },
            "properties": {
                "churchId": "cadd9d54158e3e804352c3ffad7d920b74368b77",
                "name": "救世軍鶴橋小隊",
                "address": "〒544-0031 大阪府大阪市生野区鶴橋５丁目１９−１３",
                "catholic": false
            }
        },
        {
            "type": "Feature",
            "geometry": {
                "type": "Point",
                "coordinates": [
                    134.041896,
                    34.346571
                ]
            },
            "properties": {
                "churchId": "0fd21bbe2f7be9c8e98154394b46dafde925675d",
                "name": "救世軍高松錦町",
                "address": "〒760-0020 香川県高松市錦町２丁目９−２６",
                "catholic": false
            }
        },
        {
            "type": "Feature",
            "geometry": {
                "type": "Point",
                "coordinates": [
                    135.473766,
                    34.662799
                ]
            },
            "properties": {
                "churchId": "105754f326c75891247fd0acf4c6b8481b89b2cf",
                "name": "救世軍泉尾小隊",
                "address": "〒551-0031 大阪府大阪市大正区泉尾１丁目１４−１６ 救世軍",
                "catholic": false
            }
        },
        {
            "type": "Feature",
            "geometry": {
                "type": "Point",
                "coordinates": [
                    135.500028,
                    34.641044
                ]
            },
            "properties": {
                "churchId": "3f86d6890fba0b6a72370e80d6e97ded7c9ff90d",
                "name": "救世軍西成小隊",
                "address": "〒557-0014 大阪府大阪市西成区天下茶屋１丁目１６−８ 救世軍 西成小隊",
                "catholic": false
            }
        },
        {
            "type": "Feature",
            "geometry": {
                "type": "Point",
                "coordinates": [
                    139.6766467,
                    35.2745696
                ]
            },
            "properties": {
                "churchId": "eaacab6169e5ebec514047cdfefafaf40a125a89",
                "name": "救世軍",
                "address": "〒238-0012 神奈川県横須賀市安浦町１丁目 横須賀小隊",
                "catholic": false
            }
        },
        {
            "type": "Feature",
            "geometry": {
                "type": "Point",
                "coordinates": [
                    135.511856,
                    34.701565
                ]
            },
            "properties": {
                "churchId": "fb250fd968b59942318705f5ba0ef6bdc789db31",
                "name": "救世軍天満小隊",
                "address": "〒530-0041 大阪府大阪市北区天神橋３丁目６−２０ 救世軍大阪セントラルホール",
                "catholic": false
            }
        },
        {
            "type": "Feature",
            "geometry": {
                "type": "Point",
                "coordinates": [
                    130.402641,
                    33.577048
                ]
            },
            "properties": {
                "churchId": "f62eee2756650686ac8d386f21801201d318251f",
                "name": "救世軍 福岡小隊",
                "address": "〒810-0014 福岡県福岡市中央区平尾１丁目８−１ 救世軍福岡小隊会館",
                "catholic": false
            }
        },
        {
            "type": "Feature",
            "geometry": {
                "type": "Point",
                "coordinates": [
                    130.4547307,
                    33.0398079
                ]
            },
            "properties": {
                "churchId": "b483bf09a16a2875f9b91c652a5b1b2cdd23ad37",
                "name": "救世軍",
                "address": "〒836-0802 福岡県大牟田市日出町２丁目２−６ 大牟田小隊",
                "catholic": false
            }
        },
        {
            "type": "Feature",
            "geometry": {
                "type": "Point",
                "coordinates": [
                    139.8166958,
                    35.7020078
                ]
            },
            "properties": {
                "churchId": "af9d59d0ba0a81e155c55f7e4b86240fc624a8ae",
                "name": "救世軍江東小隊",
                "address": "〒130-0012 東京都墨田区太平４丁目１１−３",
                "catholic": false
            }
        },
        {
            "type": "Feature",
            "geometry": {
                "type": "Point",
                "coordinates": [
                    138.0821166,
                    36.0737775
                ]
            },
            "properties": {
                "churchId": "bbd2c515bbfc3116ec05c204c4e7458a85cd6ac0",
                "name": "Lift Jesus Worldwide Ministries Japan",
                "address": "５３５７ 曙町 下諏訪町 諏訪郡 長野県 393-0066",
                "catholic": false
            }
        },
        {
            "type": "Feature",
            "geometry": {
                "type": "Point",
                "coordinates": [
                    136.9327659,
                    35.1468079
                ]
            },
            "properties": {
                "churchId": "199e89615a0e480b8342c20934ec4d6443532f6e",
                "name": "日本聖公会名古屋聖マタイ教会",
                "address": "〒466-0034 愛知県名古屋市昭和区明月町２丁目５３−１",
                "catholic": false
            }
        },
        {
            "type": "Feature",
            "geometry": {
                "type": "Point",
                "coordinates": [
                    136.8589883,
                    35.1450707
                ]
            },
            "properties": {
                "churchId": "6bb971db99c91091af28d52b38be00e845fc3a86",
                "name": "名古屋シオンチャーチ（中川）",
                "address": "〒454-0873 愛知県名古屋市中川区上高畑１丁目３１",
                "catholic": false
            }
        },
        {
            "type": "Feature",
            "geometry": {
                "type": "Point",
                "coordinates": [
                    136.9048038,
                    35.1762304
                ]
            },
            "properties": {
                "churchId": "824246eedeb3126591c5f93fa9726b32a021b3a9",
                "name": "名古屋 地の果て宣教教会",
                "address": "〒460-0002 愛知県名古屋市中区丸の内３丁目８−１６",
                "catholic": false
            }
        },
        {
            "type": "Feature",
            "geometry": {
                "type": "Point",
                "coordinates": [
                    136.861239,
                    35.15797
                ]
            },
            "properties": {
                "churchId": "73f41bdc81964c818a4157c367f1b63a47c91810",
                "name": "ホープチャーチ名古屋",
                "address": "〒453-0851 愛知県名古屋市中村区畑江通７丁目１０−１",
                "catholic": false
            }
        },
        {
            "type": "Feature",
            "geometry": {
                "type": "Point",
                "coordinates": [
                    136.995036,
                    35.12311
                ]
            },
            "properties": {
                "churchId": "ad300f033bde3edb1b826c6d46eee2490aabde9d",
                "name": "ニューライフ・チャーチ原チャペル",
                "address": "〒468-0015 愛知県名古屋市天白区原４丁目１０８",
                "catholic": false
            }
        },
        {
            "type": "Feature",
            "geometry": {
                "type": "Point",
                "coordinates": [
                    136.8655086,
                    35.1568906
                ]
            },
            "properties": {
                "churchId": "7e1123b7a9860c09e7350ca9117d8b961d6cb8c6",
                "name": "New Testament Grace Church",
                "address": "〒453-0851 愛知県名古屋市中村区畑江通４丁目18−1 803",
                "catholic": false
            }
        },
        {
            "type": "Feature",
            "geometry": {
                "type": "Point",
                "coordinates": [
                    136.875037,
                    35.182778
                ]
            },
            "properties": {
                "churchId": "72664aaf6b4f5f7fcfd2ba7b8618531e1372da89",
                "name": "愛知キリスト教会",
                "address": "〒451-0051 愛知県名古屋市西区則武新町４丁目３−１２",
                "catholic": false
            }
        },
        {
            "type": "Feature",
            "geometry": {
                "type": "Point",
                "coordinates": [
                    136.9070632,
                    35.1754551
                ]
            },
            "properties": {
                "churchId": "78db3b9967461e5e882b76d39f423f069d569df4",
                "name": "シティ リジョイス チャーチ",
                "address": "〒460-0002 愛知県名古屋市中区丸の内３丁目１８−７",
                "catholic": false
            }
        },
        {
            "type": "Feature",
            "geometry": {
                "type": "Point",
                "coordinates": [
                    136.922623,
                    35.117838
                ]
            },
            "properties": {
                "churchId": "c92a779d3c875f132dd6f74749b30ff67607c153",
                "name": "名古屋新生キリスト教会",
                "address": "〒467-0841 愛知県名古屋市瑞穂区苗代町１６−１６ 苗代コーポ",
                "catholic": false
            }
        },
        {
            "type": "Feature",
            "geometry": {
                "type": "Point",
                "coordinates": [
                    137.0383936,
                    35.1817311
                ]
            },
            "properties": {
                "churchId": "3b508290eeb2e6609f95f5fdde99ecf409059692",
                "name": "ソフィア・キリスト教会",
                "address": "〒480-1166 愛知県長久手市野田農５０２",
                "catholic": false
            }
        },
        {
            "type": "Feature",
            "geometry": {
                "type": "Point",
                "coordinates": [
                    136.8822952,
                    35.1207798
                ]
            },
            "properties": {
                "churchId": "79e0ae70acf2741d6c30db3dad3239909c7cacd0",
                "name": "恵と命キリスト教会",
                "address": "〒454-0055 愛知県名古屋市中川区十番町５丁目１０",
                "catholic": false
            }
        },
        {
            "type": "Feature",
            "geometry": {
                "type": "Point",
                "coordinates": [
                    136.831371,
                    35.141325
                ]
            },
            "properties": {
                "churchId": "0bc0ca2003b74403cddc4ecf25e3ac174de5a755",
                "name": "伏屋キリスト教会",
                "address": "〒454-0996 愛知県名古屋市中川区伏屋３丁目２０５",
                "catholic": false
            }
        },
        {
            "type": "Feature",
            "geometry": {
                "type": "Point",
                "coordinates": [
                    136.917653,
                    35.159139
                ]
            },
            "properties": {
                "churchId": "01b734137aaa7d9b1dc9c2857964d92f8f883ec3",
                "name": "名古屋愛知キリスト教会",
                "address": "〒460-0012 愛知県名古屋市中区千代田５丁目１６−１３",
                "catholic": false
            }
        },
        {
            "type": "Feature",
            "geometry": {
                "type": "Point",
                "coordinates": [
                    137.1607658,
                    34.96039
                ]
            },
            "properties": {
                "churchId": "3cc6aab5af7137836232cb681bb96e0965ad50d2",
                "name": "Assembleia de Deus Belém Okazaki",
                "address": "１丁目 魚町 岡崎市 愛知県 444-0058",
                "catholic": false
            }
        },
        {
            "type": "Feature",
            "geometry": {
                "type": "Point",
                "coordinates": [
                    135.1974097,
                    34.6949136
                ]
            },
            "properties": {
                "churchId": "8a486c3fc4096abf9a4af362971995461047bf95",
                "name": "Logos International Church",
                "address": "〒651-0096 兵庫県神戸市中央区雲井通５丁目１−２",
                "catholic": false
            }
        },
        {
            "type": "Feature",
            "geometry": {
                "type": "Point",
                "coordinates": [
                    139.6961433,
                    35.7019649
                ]
            },
            "properties": {
                "churchId": "b4b73f1bc064cf9a53755377aa003d3a3acaa7e3",
                "name": "PBWM東京教会",
                "address": "〒169-0073 東京都新宿区百人町２丁目２７−５",
                "catholic": false
            }
        },
        {
            "type": "Feature",
            "geometry": {
                "type": "Point",
                "coordinates": [
                    130.4213902,
                    33.6045144
                ]
            },
            "properties": {
                "churchId": "e42247e58b842fe075b299c739cf0bc8fb7f6a80",
                "name": "JOY CHURCH(ジョイチャーチ／ジョイ教会／カフェのある教会)",
                "address": "〒812-0045 福岡県福岡市博多区東公園４−５",
                "catholic": false
            }
        },
        {
            "type": "Feature",
            "geometry": {
                "type": "Point",
                "coordinates": [
                    130.4290909,
                    33.5928492
                ]
            },
            "properties": {
                "churchId": "e02f2ee4abdb39dd1f523aee87f1c4376c2c0eb4",
                "name": "博多ニューライフ教会",
                "address": "〒812-0007 福岡県福岡市博多区東比恵２丁目２−２４",
                "catholic": false
            }
        },
        {
            "type": "Feature",
            "geometry": {
                "type": "Point",
                "coordinates": [
                    139.7119878,
                    35.7092842
                ]
            },
            "properties": {
                "churchId": "11944c217d7b289b865ad532e93eac1274cbf2ca",
                "name": "愛の教会",
                "address": "ラ・メゾンナカジマ ２丁目-１７ 西早稲田 新宿区 東京都 169-0051",
                "catholic": false
            }
        },
        {
            "type": "Feature",
            "geometry": {
                "type": "Point",
                "coordinates": [
                    139.7046437,
                    35.7114299
                ]
            },
            "properties": {
                "churchId": "871f593fcbe05222f1eb2289bf8b80db06992e13",
                "name": "ビサイドチャーチ東京",
                "address": "〒169-0075 東京都新宿区高田馬場１丁目２８−２ コーア諏訪ビル地下1階",
                "catholic": false
            }
        },
        {
            "type": "Feature",
            "geometry": {
                "type": "Point",
                "coordinates": [
                    139.6968977,
                    35.7026572
                ]
            },
            "properties": {
                "churchId": "75bec8a8d46a7f8b5bab0189d221182caa59ce7c",
                "name": "Igreja Universal do Reino de Deus",
                "address": "〒169-0073 東京都新宿区百人町２丁目２３−４３",
                "catholic": false
            }
        },
        {
            "type": "Feature",
            "geometry": {
                "type": "Point",
                "coordinates": [
                    134.8115725,
                    34.7831186
                ]
            },
            "properties": {
                "churchId": "4d4aaa73f3f31c98bbaf0b28a60c4dd88854ab86",
                "name": "高砂国際キリスト教会",
                "address": "〒675-0054 兵庫県加古川市米田町平津４７７−１１",
                "catholic": false
            }
        },
        {
            "type": "Feature",
            "geometry": {
                "type": "Point",
                "coordinates": [
                    139.490725,
                    35.3418698
                ]
            },
            "properties": {
                "churchId": "6ff9d4a41416c1da551a23e02a273e72ae2d3a33",
                "name": "藤沢キリスト教会",
                "address": "〒251-0054 神奈川県藤沢市朝日町２０−６",
                "catholic": false
            }
        },
        {
            "type": "Feature",
            "geometry": {
                "type": "Point",
                "coordinates": [
                    139.7802744,
                    35.663906
                ]
            },
            "properties": {
                "churchId": "a4f59ea94f4a0d452b9498c4b6ece429342a6f2c",
                "name": "東京センターチャーチ",
                "address": "〒104-0052 東京都中央区月島３丁目３−１１",
                "catholic": false
            }
        },
        {
            "type": "Feature",
            "geometry": {
                "type": "Point",
                "coordinates": [
                    136.8934778,
                    35.1991206
                ]
            },
            "properties": {
                "churchId": "a6d666a079cfdd47b6c3d7be7294fef91ff362bd",
                "name": "天塚キリスト教会",
                "address": "〒451-0021 愛知県名古屋市西区天塚町３丁目７",
                "catholic": false
            }
        },
        {
            "type": "Feature",
            "geometry": {
                "type": "Point",
                "coordinates": [
                    136.9372035,
                    35.1775039
                ]
            },
            "properties": {
                "churchId": "b15819cc430c22459346091808a0e69f06e26e6c",
                "name": "グレーストゥルースチャーチ（キリスト教会）",
                "address": "〒464-0076 愛知県名古屋市千種区豊年町８−３",
                "catholic": false
            }
        },
        {
            "type": "Feature",
            "geometry": {
                "type": "Point",
                "coordinates": [
                    136.9278273,
                    35.1411841
                ]
            },
            "properties": {
                "churchId": "a9e8f12193c8e48759229bbe9b913fb0ceb1b48d",
                "name": "日本基督教団東海教会",
                "address": "〒466-0045 愛知県名古屋市昭和区丸屋町３丁目",
                "catholic": false
            }
        },
        {
            "type": "Feature",
            "geometry": {
                "type": "Point",
                "coordinates": [
                    137.165649,
                    34.966447
                ]
            },
            "properties": {
                "churchId": "c8a8f7d2ed402a2ebc7b281cf83eb79dc5579b51",
                "name": "愛宕山教会",
                "address": "〒444-0075 愛知県岡崎市伊賀町地蔵ケ入１２−３",
                "catholic": false
            }
        },
        {
            "type": "Feature",
            "geometry": {
                "type": "Point",
                "coordinates": [
                    137.0396813,
                    35.2712696
                ]
            },
            "properties": {
                "churchId": "fabc044464fac3415b89e62ac2eddda93c88e2fa",
                "name": "ホサナ・",
                "address": "〒487-0033 愛知県春日井市岩成台１丁目１５−７ ホサナキリスト教会",
                "catholic": false
            }
        },
        {
            "type": "Feature",
            "geometry": {
                "type": "Point",
                "coordinates": [
                    132.8800794,
                    33.7916647
                ]
            },
            "properties": {
                "churchId": "f0ce9be619976803d6af33843d95236fd2388783",
                "name": "インターナショナルクリスチャンチャーチ愛媛",
                "address": "〒791-0211 愛媛県東温市見奈良１１２５",
                "catholic": false
            }
        },
        {
            "type": "Feature",
            "geometry": {
                "type": "Point",
                "coordinates": [
                    139.6705329,
                    35.7042077
                ]
            },
            "properties": {
                "churchId": "1858915aab518ecc8f8861b5e3341a71450bf072",
                "name": "MARIPOSA HOUSE CHRISTIAN FELLOWSHIP",
                "address": "〒164-0001 東京都中野区中野２丁目７−２",
                "catholic": false
            }
        },
        {
            "type": "Feature",
            "geometry": {
                "type": "Point",
                "coordinates": [
                    138.4191591,
                    34.9842277
                ]
            },
            "properties": {
                "churchId": "a3917323886bab1499607b2d7728953827cd1a53",
                "name": "静岡清水キリスト教会",
                "address": "〒422-8005 静岡県静岡市駿河区池田１３５−１",
                "catholic": false
            }
        },
        {
            "type": "Feature",
            "geometry": {
                "type": "Point",
                "coordinates": [
                    139.6873029,
                    35.7153731
                ]
            },
            "properties": {
                "churchId": "29a5c416d403de6962561c820daab47d22e60aed",
                "name": "キリスト大使 新宿中井教会",
                "address": "〒161-0032 東京都新宿区中落合１丁目１８−６",
                "catholic": false
            }
        },
        {
            "type": "Feature",
            "geometry": {
                "type": "Point",
                "coordinates": [
                    132.7568674,
                    33.8512171
                ]
            },
            "properties": {
                "churchId": "0d98a05e52c085a5b34feec0366a32b2abfcf2f8",
                "name": "愛媛箱舟キリスト教会",
                "address": "〒790-0813 愛媛県松山市萱町５丁目１０−１０",
                "catholic": false
            }
        },
        {
            "type": "Feature",
            "geometry": {
                "type": "Point",
                "coordinates": [
                    132.4581587,
                    34.3936954
                ]
            },
            "properties": {
                "churchId": "26d33bc3057c375a383a9aa9660467268581d74f",
                "name": "Lifehouse Hiroshima International Church - Online Services every week. 毎週オンライン礼拝をやってます！",
                "address": "和光ダイヤモンドビル 2F ５-１１ 本通 中区 広島市 広島県 730-0035",
                "catholic": false
            }
        },
        {
            "type": "Feature",
            "geometry": {
                "type": "Point",
                "coordinates": [
                    132.5237877,
                    34.276717
                ]
            },
            "properties": {
                "churchId": "bd363762c10e291f3b262ec8ff239de9d8e6aa3d",
                "name": "セブンスデー・アドベンチスト広島南キリスト教会",
                "address": "６-１８ 大山町 呉市 広島県 737-0878",
                "catholic": false
            }
        },
        {
            "type": "Feature",
            "geometry": {
                "type": "Point",
                "coordinates": [
                    132.571046,
                    34.405319
                ]
            },
            "properties": {
                "churchId": "ee9888849b95b9a12d33727bf43f4ed7edc5b9bf",
                "name": "安芸教会",
                "address": "〒739-0322 広島県広島市安芸区中野町２１９５",
                "catholic": false
            }
        },
        {
            "type": "Feature",
            "geometry": {
                "type": "Point",
                "coordinates": [
                    132.4697733,
                    34.3960635
                ]
            },
            "properties": {
                "churchId": "327f70f2e8c46a57f1fa48a1983753ef005a67e9",
                "name": "広島キリスト集会",
                "address": "〒730-0015 広島県広島市中区橋本町１−４",
                "catholic": false
            }
        },
        {
            "type": "Feature",
            "geometry": {
                "type": "Point",
                "coordinates": [
                    132.580117,
                    34.4027948
                ]
            },
            "properties": {
                "churchId": "cfe103057ab12b8576026b3918cb1f7785ac0317",
                "name": "広島瀬野川キリスト教会",
                "address": "〒739-0321 広島県広島市安芸区中野５丁目１５−１０ 日本アライアンス教団",
                "catholic": false
            }
        },
        {
            "type": "Feature",
            "geometry": {
                "type": "Point",
                "coordinates": [
                    131.839265,
                    34.676189
                ]
            },
            "properties": {
                "churchId": "a7a5325361903dd06cf79d695deca94ab91a1acc",
                "name": "島根イエス之御霊教会",
                "address": "〒698-0024 島根県益田市駅前町１３−７",
                "catholic": false
            }
        },
        {
            "type": "Feature",
            "geometry": {
                "type": "Point",
                "coordinates": [
                    132.5171394,
                    34.4785974
                ]
            },
            "properties": {
                "churchId": "17ab1311d64689354ef3f4fd15d906aac91fe5ac",
                "name": "広島福音自由教会",
                "address": "〒739-1731 広島県広島市安佐北区１４ 安佐北区落合５丁目１４−１１",
                "catholic": false
            }
        },
        {
            "type": "Feature",
            "geometry": {
                "type": "Point",
                "coordinates": [
                    134.1792436,
                    35.5189836
                ]
            },
            "properties": {
                "churchId": "7219950e0d40d20f3f162c056a1cbf412102919f",
                "name": "日本基督教団湖山教会",
                "address": "〒680-0941 鳥取県鳥取市湖山町北1−５５",
                "catholic": false
            }
        },
        {
            "type": "Feature",
            "geometry": {
                "type": "Point",
                "coordinates": [
                    135.240875,
                    35.302991
                ]
            },
            "properties": {
                "churchId": "2d2bd9813b034282299d5e42d7d49e867ef80a3a",
                "name": "聖神めぐみ教会",
                "address": "〒623-0042 京都府綾部市岡町舘ノ内９−１",
                "catholic": false
            }
        },
        {
            "type": "Feature",
            "geometry": {
                "type": "Point",
                "coordinates": [
                    136.069548,
                    35.637018
                ]
            },
            "properties": {
                "churchId": "e873e560dd22755dc81447f623667acfc65863d1",
                "name": "敦賀宣教教会",
                "address": "〒914-0046 福井県敦賀市長沢１３−１３−２",
                "catholic": false
            }
        },
        {
            "type": "Feature",
            "geometry": {
                "type": "Point",
                "coordinates": [
                    137.364099,
                    36.703464
                ]
            },
            "properties": {
                "churchId": "3f885b747ac45a6adbaab11471dff38875de0b50",
                "name": "上市クリスチャンセンター",
                "address": "〒930-0353 富山県中新川郡上市町法音寺３１",
                "catholic": false
            }
        },
        {
            "type": "Feature",
            "geometry": {
                "type": "Point",
                "coordinates": [
                    139.5814257,
                    35.7064415
                ]
            },
            "properties": {
                "churchId": "35f491155dc9290a56e1c8a64203728accecae1a",
                "name": "Double O Cross Church",
                "address": "１丁目-６-２７ 吉祥寺東町 武蔵野市 東京都 180-0002",
                "catholic": false
            }
        },
        {
            "type": "Feature",
            "geometry": {
                "type": "Point",
                "coordinates": [
                    139.5588901,
                    35.5358932
                ]
            },
            "properties": {
                "churchId": "51e4779ba3ede6fc279d5b000721f258d875db9c",
                "name": "ニュータウンカルバリーフェローシップ",
                "address": "〒224-0065 神奈川県横浜市都筑区高山１−４７",
                "catholic": false
            }
        },
        {
            "type": "Feature",
            "geometry": {
                "type": "Point",
                "coordinates": [
                    135.674265,
                    34.798137
                ]
            },
            "properties": {
                "churchId": "87ac83613c2335d0e7ecd7e144bc63926317eb2e",
                "name": "京阪中央教会 カリスチャペル",
                "address": "〒576-0053 大阪府交野市郡津３丁目７３−５",
                "catholic": false
            }
        },
        {
            "type": "Feature",
            "geometry": {
                "type": "Point",
                "coordinates": [
                    139.824629,
                    35.6953223
                ]
            },
            "properties": {
                "churchId": "5092fdaf3988a4d3412fcd6a104f74616b7a9408",
                "name": "Tokyo Happy Presbyterian Church",
                "address": "〒136-0071 東京都江東区亀戸１丁目３３−４",
                "catholic": false
            }
        },
        {
            "type": "Feature",
            "geometry": {
                "type": "Point",
                "coordinates": [
                    135.3393127,
                    34.742771
                ]
            },
            "properties": {
                "churchId": "5144fa87a510d871f0178f5ac82699a780c296a9",
                "name": "ゴスペルチャーチみことば教会",
                "address": "〒662-0856 兵庫県西宮市城ケ堀町６−１５ ２Ｆ",
                "catholic": false
            }
        },
        {
            "type": "Feature",
            "geometry": {
                "type": "Point",
                "coordinates": [
                    134.6935993,
                    34.8196992
                ]
            },
            "properties": {
                "churchId": "414c0a7e89a6658c102f7ccc5d9ccd8457678668",
                "name": "聖イエス会姫路教会",
                "address": "〒670-0948 兵庫県姫路市北条宮の町２００",
                "catholic": false
            }
        },
        {
            "type": "Feature",
            "geometry": {
                "type": "Point",
                "coordinates": [
                    136.9230582,
                    35.1770064
                ]
            },
            "properties": {
                "churchId": "732537b6074d80b2258a0de3775ce2a8833cdb6d",
                "name": "Nagoya Union Church",
                "address": "〒461-0002 愛知県東区代官町２２−１２",
                "catholic": false
            }
        },
        {
            "type": "Feature",
            "geometry": {
                "type": "Point",
                "coordinates": [
                    139.704232,
                    35.717476
                ]
            },
            "properties": {
                "churchId": "40f6511a0b9ba97f07143521cb200bbc4822dc5d",
                "name": "東京シティチャーチ",
                "address": "〒161-0033 東京都新宿区下落合２丁目１３−３",
                "catholic": false
            }
        },
        {
            "type": "Feature",
            "geometry": {
                "type": "Point",
                "coordinates": [
                    139.7116823,
                    35.7627614
                ]
            },
            "properties": {
                "churchId": "1dedb4e08df091097831b1ad56c73bae5cb6534f",
                "name": "HIS Church Tokyo",
                "address": "〒173-0002 東京都板橋区稲荷台１９−１１",
                "catholic": false
            }
        },
        {
            "type": "Feature",
            "geometry": {
                "type": "Point",
                "coordinates": [
                    139.700641,
                    35.7167462
                ]
            },
            "properties": {
                "churchId": "1330157350dc5085e0c56e32b82050c63b955632",
                "name": "東京愛の教会",
                "address": "〒161-0033 東京都新宿区下落合２丁目６−２１",
                "catholic": false
            }
        },
        {
            "type": "Feature",
            "geometry": {
                "type": "Point",
                "coordinates": [
                    135.8035265,
                    34.9872883
                ]
            },
            "properties": {
                "churchId": "d9f0165c6519872ad03100d34f6051208594e4e4",
                "name": "KYOTO泉チャーチ",
                "address": "１０−４ 西野楳本町 山科区 京都市 京都府 607-8358",
                "catholic": false
            }
        },
        {
            "type": "Feature",
            "geometry": {
                "type": "Point",
                "coordinates": [
                    135.231204,
                    34.722683
                ]
            },
            "properties": {
                "churchId": "6e46b06bcd4c13b579b6f065a113ebe7fcd21c4f",
                "name": "神戸聖書教会",
                "address": "〒657-0068 兵庫県神戸市灘区篠原北町１丁目１−１５",
                "catholic": false
            }
        },
        {
            "type": "Feature",
            "geometry": {
                "type": "Point",
                "coordinates": [
                    139.7776614,
                    35.7329688
                ]
            },
            "properties": {
                "churchId": "631f0931d22adf99be039ae210b8ffd9df8f570a",
                "name": "イエス教日本世界宣教会",
                "address": "〒116-0014 東京都荒川区東日暮里６丁目２４−１９",
                "catholic": false
            }
        },
        {
            "type": "Feature",
            "geometry": {
                "type": "Point",
                "coordinates": [
                    139.7396944,
                    35.6687248
                ]
            },
            "properties": {
                "churchId": "794a7a78e785e9dabbd3ad0d4dd067b3c355e14c",
                "name": "若松イエス之御霊教会東京教会",
                "address": "〒107-0052 東京都港区赤坂２丁目１８−１０",
                "catholic": false
            }
        },
        {
            "type": "Feature",
            "geometry": {
                "type": "Point",
                "coordinates": [
                    135.5137279,
                    34.6113883
                ]
            },
            "properties": {
                "churchId": "2d129d669c8b8077797d0603c0e0f6a045c3f5f5",
                "name": "Abide-Osaka",
                "address": "3rd Floor Room C ４丁目-２-3 長居東 ２ 住吉区 大阪市 大阪府 558-0004",
                "catholic": false
            }
        },
        {
            "type": "Feature",
            "geometry": {
                "type": "Point",
                "coordinates": [
                    139.9274627,
                    35.7137167
                ]
            },
            "properties": {
                "churchId": "414340a015ecfa78fb77497cb6fe9aa566d14e73",
                "name": "ロードオブザハーベスト市川教会",
                "address": "〒272-0023 千葉県市川市南八幡２丁目２０−１",
                "catholic": false
            }
        },
        {
            "type": "Feature",
            "geometry": {
                "type": "Point",
                "coordinates": [
                    139.2017398,
                    36.3148179
                ]
            },
            "properties": {
                "churchId": "0f8c35438cdc6870393f2548876b8b313525f115",
                "name": "ロードオブザハーベスト群馬教会",
                "address": "〒372-0031 群馬県伊勢崎市今泉町２丁目９３４−６",
                "catholic": false
            }
        },
        {
            "type": "Feature",
            "geometry": {
                "type": "Point",
                "coordinates": [
                    140.0015102,
                    35.799729
                ]
            },
            "properties": {
                "churchId": "f749c6eec97a27a2aaaa31f0d1598d645c2f5172",
                "name": "LORD OF THE HARVEST GLOBAL MINISTRIES",
                "address": "〒273-0135 千葉県鎌ケ谷市中佐津間２丁目５",
                "catholic": false
            }
        },
        {
            "type": "Feature",
            "geometry": {
                "type": "Point",
                "coordinates": [
                    138.9528777,
                    34.9788256
                ]
            },
            "properties": {
                "churchId": "d42df48d83e23c1a17f69f2c1f0776a072a269d9",
                "name": "Every Nation Church Izu",
                "address": "６１６−１ 柏久保 伊豆市 静岡県 410-2407",
                "catholic": false
            }
        },
        {
            "type": "Feature",
            "geometry": {
                "type": "Point",
                "coordinates": [
                    139.7846324,
                    35.732691
                ]
            },
            "properties": {
                "churchId": "328ed1fb017039d685e3baf3f3ec1f506d7dee91",
                "name": "Christian Fellowship",
                "address": "１丁目-５８-６ 荒川 荒川区 東京都 116-0002",
                "catholic": false
            }
        },
        {
            "type": "Feature",
            "geometry": {
                "type": "Point",
                "coordinates": [
                    139.8797727,
                    35.7322998
                ]
            },
            "properties": {
                "churchId": "dc6441ce54f947ad3e451b17df68e010c5bc9ab4",
                "name": "LIGHT Church Int'l. Tokyo Japan",
                "address": "〒133-0057 東京都江戸川区西小岩１丁目１９−３３",
                "catholic": false
            }
        },
        {
            "type": "Feature",
            "geometry": {
                "type": "Point",
                "coordinates": [
                    130.4138827,
                    33.6005603
                ]
            },
            "properties": {
                "churchId": "f18aae82d112c4c236c45197a8a9028ac8d1c89e",
                "name": "LIBERATION ASSEMBLY",
                "address": "２丁目-１８-４ 千代 博多区 福岡市 福岡県 812-0044",
                "catholic": false
            }
        },
        {
            "type": "Feature",
            "geometry": {
                "type": "Point",
                "coordinates": [
                    139.6713644,
                    35.2747952
                ]
            },
            "properties": {
                "churchId": "efe636513f90f0a26a6a7a56840b8af12dd1b545",
                "name": "Cadence Light House",
                "address": "〒238-0016 神奈川県横須賀市深田台４５−１",
                "catholic": false
            }
        },
        {
            "type": "Feature",
            "geometry": {
                "type": "Point",
                "coordinates": [
                    139.8166598,
                    35.6929322
                ]
            },
            "properties": {
                "churchId": "fbbed12cb0abcacd59fdf55bcb971e2de96bac1f",
                "name": "Connect Church",
                "address": "〒135-0001 東京都江東区毛利２丁目１０−１４",
                "catholic": false
            }
        },
        {
            "type": "Feature",
            "geometry": {
                "type": "Point",
                "coordinates": [
                    127.6978274,
                    26.2364263
                ]
            },
            "properties": {
                "churchId": "bd71c5222ca271d44e14ed089327516818bd95be",
                "name": "グローバル インパクト センター (Global Impact Center)",
                "address": "〒900-0004 沖縄県那覇市銘苅",
                "catholic": false
            }
        },
        {
            "type": "Feature",
            "geometry": {
                "type": "Point",
                "coordinates": [
                    135.5472733,
                    34.6548068
                ]
            },
            "properties": {
                "churchId": "37e39df78b867a6d9170fa78bc6682e5eb921cec",
                "name": "イエス教長老会 平安教会",
                "address": "〒544-0004 大阪府大阪市生野区巽北１丁目２２−１６",
                "catholic": false
            }
        },
        {
            "type": "Feature",
            "geometry": {
                "type": "Point",
                "coordinates": [
                    135.6441474,
                    34.6741536
                ]
            },
            "properties": {
                "churchId": "606a915a701eb03d3346525428b96e542397136a",
                "name": "大韓キリスト教会枚岡教会",
                "address": "〒579-8024 大阪府東大阪市南荘町９−１８",
                "catholic": false
            }
        },
        {
            "type": "Feature",
            "geometry": {
                "type": "Point",
                "coordinates": [
                    135.6349488,
                    34.6628871
                ]
            },
            "properties": {
                "churchId": "148eec31eab3634a454a1bf1ce3ca5cf47b26375",
                "name": "クロスプレイス",
                "address": "〒579-8046 大阪府東大阪市昭和町２２−１２ HSKビル４F",
                "catholic": false
            }
        },
        {
            "type": "Feature",
            "geometry": {
                "type": "Point",
                "coordinates": [
                    135.6383419,
                    34.6617978
                ]
            },
            "properties": {
                "churchId": "e6b51f3cee76c51f6f11378cb43b73c070cf54e0",
                "name": "レムエル キリスト 教会 Lemuel Christ Church",
                "address": "６-６−２１ 神田町 東大阪市 大阪府 579-8058",
                "catholic": false
            }
        },
        {
            "type": "Feature",
            "geometry": {
                "type": "Point",
                "coordinates": [
                    135.6052919,
                    34.6682814
                ]
            },
            "properties": {
                "churchId": "878e8dbcb9eebd70e82768c9a012267141f55c25",
                "name": "大阪シオン教会",
                "address": "〒578-0941 大阪府東大阪市岩田町５丁目１５−２８",
                "catholic": false
            }
        },
        {
            "type": "Feature",
            "geometry": {
                "type": "Point",
                "coordinates": [
                    135.6304439,
                    34.6634009
                ]
            },
            "properties": {
                "churchId": "5a728dcffe026ec7c0f2d21124051bfe584da46e",
                "name": "キリスト兄弟団東花園教会",
                "address": "〒578-0924 大阪府東大阪市吉田８丁目１−５",
                "catholic": false
            }
        },
        {
            "type": "Feature",
            "geometry": {
                "type": "Point",
                "coordinates": [
                    135.6422587,
                    34.6751451
                ]
            },
            "properties": {
                "churchId": "39940a7a3d6be23fd7afea3874d5de82dc361901",
                "name": "日本基督教団 東大阪教会",
                "address": "〒579-8024 大阪府東大阪市南荘町３−１９",
                "catholic": false
            }
        },
        {
            "type": "Feature",
            "geometry": {
                "type": "Point",
                "coordinates": [
                    135.6194418,
                    34.6622624
                ]
            },
            "properties": {
                "churchId": "5520501f080f2a1378581ec177cc35dda2b03727",
                "name": "花園キリスト教会",
                "address": "〒578-0937 大阪府東大阪市花園本町１丁目２−８",
                "catholic": false
            }
        },
        {
            "type": "Feature",
            "geometry": {
                "type": "Point",
                "coordinates": [
                    136.855583,
                    35.1654878
                ]
            },
            "properties": {
                "churchId": "c278b8bd4e3c4b0ef21d2d6fde87fd3a9d58d26c",
                "name": "名古屋シオンチャーチ",
                "address": "〒453-0832 愛知県名古屋市中村区乾出町３丁目３４",
                "catholic": false
            }
        },
        {
            "type": "Feature",
            "geometry": {
                "type": "Point",
                "coordinates": [
                    135.2944152,
                    34.7412624
                ]
            },
            "properties": {
                "churchId": "ed4b10dd7be1a73e08eac9429fbb50d1f85bdf19",
                "name": "Grapevine Christian Church",
                "address": "２４-１３ 山芦屋町 芦屋市 兵庫県 659-0082",
                "catholic": false
            }
        },
        {
            "type": "Feature",
            "geometry": {
                "type": "Point",
                "coordinates": [
                    135.5978511,
                    34.8360698
                ]
            },
            "properties": {
                "churchId": "ee6afed117c16b35c72af43f0af8c8d57df98b44",
                "name": "アッセンブリー教団高槻キリスト教会",
                "address": "〒569-0818 大阪府高槻市桜ケ丘南町２２",
                "catholic": false
            }
        },
        {
            "type": "Feature",
            "geometry": {
                "type": "Point",
                "coordinates": [
                    135.599168,
                    34.838187
                ]
            },
            "properties": {
                "churchId": "2b818fe6e16cdf67c0c100199fa6e44db7feb281",
                "name": "高槻キリスト集会",
                "address": "〒569-0811 大阪府高槻市東五百住町３丁目１−２",
                "catholic": false
            }
        },
        {
            "type": "Feature",
            "geometry": {
                "type": "Point",
                "coordinates": [
                    135.5896972,
                    34.8419431
                ]
            },
            "properties": {
                "churchId": "e5d58b67688fa1198438868595ca2ebd82b4f49b",
                "name": "Ｓ・Ｄ・Ａ摂津富田集会所",
                "address": "〒569-1142 大阪府高槻市宮田町２丁目９−２０",
                "catholic": false
            }
        },
        {
            "type": "Feature",
            "geometry": {
                "type": "Point",
                "coordinates": [
                    140.8758396,
                    38.2572462
                ]
            },
            "properties": {
                "churchId": "629f8e3afd78cc74669b707229d18283069a41c0",
                "name": "Grace Center Church Sendai",
                "address": "〒980-0811 宮城県仙台市青葉区一番町１丁目８−３４",
                "catholic": false
            }
        },
        {
            "type": "Feature",
            "geometry": {
                "type": "Point",
                "coordinates": [
                    139.3396686,
                    35.7178104
                ]
            },
            "properties": {
                "churchId": "76e1ba6e233d341b2b0df314f6d3a6ffde9cae58",
                "name": "ジャパンキングダム教会",
                "address": "〒196-0003 東京都昭島市松原町５丁目２３−５",
                "catholic": false
            }
        },
        {
            "type": "Feature",
            "geometry": {
                "type": "Point",
                "coordinates": [
                    135.5071728,
                    34.6990873
                ]
            },
            "properties": {
                "churchId": "c2e6eba9514f88a7ab4598aae3d090133494cc2c",
                "name": "Ｊ・ｈｏｕｓｅ",
                "address": "〒530-0047 大阪府大阪市北区１１ 5丁目11−9",
                "catholic": false
            }
        },
        {
            "type": "Feature",
            "geometry": {
                "type": "Point",
                "coordinates": [
                    139.707883,
                    35.701407
                ]
            },
            "properties": {
                "churchId": "7138d1b7512c1f25c1a7a3e0bec74c86be312f45",
                "name": "ライトハウス新宿チャーチ",
                "address": "〒169-0072 東京都新宿区大久保２丁目６−１６ 平安 ビル 8A（8 階",
                "catholic": false
            }
        },
        {
            "type": "Feature",
            "geometry": {
                "type": "Point",
                "coordinates": [
                    135.4924285,
                    34.7093978
                ]
            },
            "properties": {
                "churchId": "9cd3b2eef6b4d0e70b64c9c740bde9014f01fbf0",
                "name": "MUSTARD SEEDクリスチャン教会",
                "address": "〒531-0071 大阪府大阪市北区中津６丁目１−１３ 中津ビル 3F",
                "catholic": false
            }
        },
        {
            "type": "Feature",
            "geometry": {
                "type": "Point",
                "coordinates": [
                    135.5003037,
                    34.7599958
                ]
            },
            "properties": {
                "churchId": "94ac278a293b21d804431abfd197599c0f345656",
                "name": "ライフチャーチ",
                "address": "江坂 パーク サイド スクエア 2 階 １丁目-１８-8 江坂町 吹田市 大阪府 564-0063",
                "catholic": false
            }
        },
        {
            "type": "Feature",
            "geometry": {
                "type": "Point",
                "coordinates": [
                    135.5017542,
                    34.7601576
                ]
            },
            "properties": {
                "churchId": "7324b48be3e0052c04d9ad1879121fc27c33f6a4",
                "name": "ゴスペルセンター",
                "address": "〒564-0062 大阪府吹田市垂水町３丁目２４−１２",
                "catholic": false
            }
        },
        {
            "type": "Feature",
            "geometry": {
                "type": "Point",
                "coordinates": [
                    130.361307,
                    33.5823862
                ]
            },
            "properties": {
                "churchId": "be735aaa6dda5ae317ab837d1891de1b3ee13acd",
                "name": "Lifetree Christ Church",
                "address": "〒814-0003 福岡県福岡市早良区城西１丁目８−３６",
                "catholic": false
            }
        },
        {
            "type": "Feature",
            "geometry": {
                "type": "Point",
                "coordinates": [
                    135.4822235,
                    34.6820908
                ]
            },
            "properties": {
                "churchId": "3b927ef8e1f031657ede8c5e4a83895e418bf11f",
                "name": "日本聖公会 川口基督教会",
                "address": "〒550-0021 大阪府大阪市西区川口１丁目３−８ 川口教会",
                "catholic": false
            }
        },
        {
            "type": "Feature",
            "geometry": {
                "type": "Point",
                "coordinates": [
                    135.5037795,
                    34.6895124
                ]
            },
            "properties": {
                "churchId": "eaa24ed2c18a870cc4028f886507ac6f629d325e",
                "name": "日本基督教団浪花教会",
                "address": "〒541-0043 大阪府大阪市中央区高麗橋２丁目６−２",
                "catholic": false
            }
        },
        {
            "type": "Feature",
            "geometry": {
                "type": "Point",
                "coordinates": [
                    135.49045,
                    34.67767
                ]
            },
            "properties": {
                "churchId": "3a15b656c14c383a818bb825daf79055763b2b94",
                "name": "日本キリスト教会大阪西教会",
                "address": "〒550-0013 大阪府大阪市西区新町３丁目１−１２ 日本基督協会大阪西協会",
                "catholic": false
            }
        },
        {
            "type": "Feature",
            "geometry": {
                "type": "Point",
                "coordinates": [
                    135.4908467,
                    34.6916435
                ]
            },
            "properties": {
                "churchId": "4102a37e00c4c68e00e7bdcb1af4ce5d23a039ed",
                "name": "日本キリスト教会大阪北教会",
                "address": "〒530-0005 大阪府大阪市北区中之島４丁目３−１３",
                "catholic": false
            }
        },
        {
            "type": "Feature",
            "geometry": {
                "type": "Point",
                "coordinates": [
                    135.513996,
                    34.68959
                ]
            },
            "properties": {
                "churchId": "303b63ab01b7c562485993659a8aa516b1b82f2c",
                "name": "大阪天満橋キリスト教会",
                "address": "〒540-0033 大阪府大阪市中央区中央区石町２丁目２−１",
                "catholic": false
            }
        },
        {
            "type": "Feature",
            "geometry": {
                "type": "Point",
                "coordinates": [
                    135.515955,
                    34.692413
                ]
            },
            "properties": {
                "churchId": "d9b6edf68b3784ef1712fc6d4f89db9bad3d886f",
                "name": "SDA大阪センター 教会",
                "address": "〒530-0043 大阪府大阪市北区天満２丁目２−１０ ＳＤＡ大阪センタービル",
                "catholic": false
            }
        },
        {
            "type": "Feature",
            "geometry": {
                "type": "Point",
                "coordinates": [
                    135.5266844,
                    34.6759187
                ]
            },
            "properties": {
                "churchId": "a0431bbac9e7ffdc70dfc50363c7a1f2d409ef15",
                "name": "大阪インターナショナルチャーチ",
                "address": "〒540-0004 大阪府大阪市中央区玉造２丁目２６−４７",
                "catholic": false
            }
        },
        {
            "type": "Feature",
            "geometry": {
                "type": "Point",
                "coordinates": [
                    135.5091351,
                    34.6770828
                ]
            },
            "properties": {
                "churchId": "556ccaf8fc286d709793accffecacaef7e40afbe",
                "name": "ニュー・ホープ大阪インタナショナル・チャーチ",
                "address": "〒542-0081 大阪府大阪市中央区南船場１丁目８−５ 南船場SKビル 7F",
                "catholic": false
            }
        },
        {
            "type": "Feature",
            "geometry": {
                "type": "Point",
                "coordinates": [
                    133.907359,
                    34.650025
                ]
            },
            "properties": {
                "churchId": "353b52c6f48891e820daafbd51f7201e731ce876",
                "name": "岡山ジョイフル プレイズチャーチ",
                "address": "〒700-0927 岡山県岡山市北区西古松１丁目２４−６",
                "catholic": false
            }
        },
        {
            "type": "Feature",
            "geometry": {
                "type": "Point",
                "coordinates": [
                    139.381242,
                    35.448116
                ]
            },
            "properties": {
                "churchId": "4dbd3912695c7829743a0640fa320fd7baa130fc",
                "name": "グレース ガーデン チャーチ",
                "address": "〒243-0421 神奈川県海老名市さつき町５１",
                "catholic": false
            }
        },
        {
            "type": "Feature",
            "geometry": {
                "type": "Point",
                "coordinates": [
                    139.7067954,
                    35.7306396
                ]
            },
            "properties": {
                "churchId": "f9b057ff5281ccc6be0c4f99a2f21afe9f573b61",
                "name": "池袋マナ教会",
                "address": "〒171-0021 東京都豊島区西池袋３丁目３０ フェリース西池袋 2階",
                "catholic": false
            }
        },
        {
            "type": "Feature",
            "geometry": {
                "type": "Point",
                "coordinates": [
                    139.9481572,
                    35.8067832
                ]
            },
            "properties": {
                "churchId": "9c82c3f5160c2402635b95addbff02661e97ea42",
                "name": "松戸聖パウロ教会・日本聖公会",
                "address": "〒270-2251 千葉県松戸市金ケ作２１４",
                "catholic": false
            }
        },
        {
            "type": "Feature",
            "geometry": {
                "type": "Point",
                "coordinates": [
                    139.5193549,
                    35.7684149
                ]
            },
            "properties": {
                "churchId": "4a2c54c40cc49b1e37de936f6f3ea2b1e6f07303",
                "name": "清瀬グレースチャペル",
                "address": "〒352-0032 埼玉県新座市新堀３丁目９−３１",
                "catholic": false
            }
        },
        {
            "type": "Feature",
            "geometry": {
                "type": "Point",
                "coordinates": [
                    134.051874,
                    34.337313
                ]
            },
            "properties": {
                "churchId": "f9acbbbb6f4e42b36ae610630a1f99f422b86887",
                "name": "高松コミュニティチャーチ",
                "address": "〒760-0054 香川県高松市常磐町２丁目５−１５",
                "catholic": false
            }
        },
        {
            "type": "Feature",
            "geometry": {
                "type": "Point",
                "coordinates": [
                    134.0459542,
                    34.3332097
                ]
            },
            "properties": {
                "churchId": "790e2b25e71fc2634e63288616940ae00ea1bf6b",
                "name": "グローリーチャーチ高松・ＪＥＣＡ",
                "address": "〒760-0008 香川県高松市中野町２９−１８",
                "catholic": false
            }
        },
        {
            "type": "Feature",
            "geometry": {
                "type": "Point",
                "coordinates": [
                    140.8898163,
                    38.2541177
                ]
            },
            "properties": {
                "churchId": "aa4a8403833e87a2b5ef82829521b415f8019d71",
                "name": "仙台あいのひかり教会",
                "address": "〒984-0051 宮城県仙台市若林区新寺３丁目１３−３０",
                "catholic": false
            }
        },
        {
            "type": "Feature",
            "geometry": {
                "type": "Point",
                "coordinates": [
                    130.380077,
                    33.5788624
                ]
            },
            "properties": {
                "churchId": "b84c76330ad3d3c39cc016ba15ffec3223bf8ebb",
                "name": "愛多キリスト教会",
                "address": "〒810-0044 福岡県福岡市中央区六本松３丁目１０−３０",
                "catholic": false
            }
        },
        {
            "type": "Feature",
            "geometry": {
                "type": "Point",
                "coordinates": [
                    135.4005986,
                    34.5021836
                ]
            },
            "properties": {
                "churchId": "a75974b91374013d54b6133cc8ef7fdd4c0cfc94",
                "name": "オアシスチャーチ",
                "address": "〒595-0046 大阪府泉大津市上之町１−２２",
                "catholic": false
            }
        },
        {
            "type": "Feature",
            "geometry": {
                "type": "Point",
                "coordinates": [
                    135.4909368,
                    34.6531083
                ]
            },
            "properties": {
                "churchId": "269f08bf7eca78454000fd18469fb714971a0919",
                "name": "エペソキリスト教会",
                "address": "〒557-0021 大阪府大阪市西成区北開１丁目３−２４",
                "catholic": false
            }
        },
        {
            "type": "Feature",
            "geometry": {
                "type": "Point",
                "coordinates": [
                    135.5020465,
                    34.6823345
                ]
            },
            "properties": {
                "churchId": "f2a80f786cbed3667eba77e416d458d9ca41008e",
                "name": "Be One Osaka ビーワン大阪キリスト教会",
                "address": "〒541-0054 大阪府大阪市中央区南本町３丁目３−２２ 本町エイトビル4階",
                "catholic": false
            }
        },
        {
            "type": "Feature",
            "geometry": {
                "type": "Point",
                "coordinates": [
                    141.3656371,
                    38.4181847
                ]
            },
            "properties": {
                "churchId": "fa682540210f979bccf3d7cdbad3b54f6b5fbee9",
                "name": "カルバリーチャペル石巻",
                "address": "〒986-2121 宮城県石巻市渡波町１丁目９−２",
                "catholic": false
            }
        },
        {
            "type": "Feature",
            "geometry": {
                "type": "Point",
                "coordinates": [
                    135.5306604,
                    34.7491045
                ]
            },
            "properties": {
                "churchId": "ee327f7fbb867c45ed32934ebd4d066bb1a926ab",
                "name": "大阪聖書教会",
                "address": "〒533-0006 大阪府大阪市東淀川区上新庄２丁目１４−１８",
                "catholic": false
            }
        },
        {
            "type": "Feature",
            "geometry": {
                "type": "Point",
                "coordinates": [
                    139.9097372,
                    35.7296851
                ]
            },
            "properties": {
                "churchId": "c46ca8860b9484e53b73b7162895384e16e88981",
                "name": "ニュー・クリエイション・チャーチ",
                "address": "〒272-0034 千葉県市川市市川１丁目３−１８",
                "catholic": false
            }
        },
        {
            "type": "Feature",
            "geometry": {
                "type": "Point",
                "coordinates": [
                    140.0894892,
                    35.7013718
                ]
            },
            "properties": {
                "churchId": "66f27984fc71d3691d6e90ec8bbcd303dae6b4fd",
                "name": "GFCF Yachiyodai",
                "address": "〒276-0034 千葉県八千代市八千代台西１丁目６−２",
                "catholic": false
            }
        },
        {
            "type": "Feature",
            "geometry": {
                "type": "Point",
                "coordinates": [
                    139.7131973,
                    35.7324776
                ]
            },
            "properties": {
                "churchId": "ae266ec896ef27dcea25fa417c14bbebaf1fddf9",
                "name": "Tokyo Life Church",
                "address": "２８山京ビル １丁目-４２-１４ 東池袋 豊島区 東京都 170-0013",
                "catholic": false
            }
        },
        {
            "type": "Feature",
            "geometry": {
                "type": "Point",
                "coordinates": [
                    138.9153636,
                    35.110693
                ]
            },
            "properties": {
                "churchId": "c0e7420bf90b3e38c95744faebeeee5eee74a6e8",
                "name": "JCOB Mishima",
                "address": "3-19 ３ 南田町 三島市 静岡県 411-0837",
                "catholic": false
            }
        },
        {
            "type": "Feature",
            "geometry": {
                "type": "Point",
                "coordinates": [
                    139.9064096,
                    35.807537
                ]
            },
            "properties": {
                "churchId": "8c7734066d6ce6483c7d8cd100b0dd98eb7f18a1",
                "name": "JCOB Matsudo",
                "address": "６丁目-４４３−１７ 栄町 松戸市 千葉県 271-0062",
                "catholic": false
            }
        },
        {
            "type": "Feature",
            "geometry": {
                "type": "Point",
                "coordinates": [
                    139.4911358,
                    35.8931164
                ]
            },
            "properties": {
                "churchId": "2cb34a8e27e22aab68aab7d9ed1dcdf7d6cd513a",
                "name": "JCOB川越教会",
                "address": "〒350-1137 埼玉県川越市砂新田１４３−５",
                "catholic": false
            }
        },
        {
            "type": "Feature",
            "geometry": {
                "type": "Point",
                "coordinates": [
                    139.7778801,
                    35.9004266
                ]
            },
            "properties": {
                "churchId": "5a8bcc13bd675a6e562456d5ae21f4ae4d67ff62",
                "name": "JCOB Koshigaya",
                "address": "２丁目-２４-２２ 北越谷 越谷市 埼玉県 343-0026",
                "catholic": false
            }
        },
        {
            "type": "Feature",
            "geometry": {
                "type": "Point",
                "coordinates": [
                    139.8291892,
                    35.7100947
                ]
            },
            "properties": {
                "churchId": "a25d13c89a4df16a14d519f8477603d100f3ff05",
                "name": "JCOB Sumida Church / JCOB Japan Tokyo Office",
                "address": "４丁目-４-５ 立花 墨田区 東京都 131-0043",
                "catholic": false
            }
        },
        {
            "type": "Feature",
            "geometry": {
                "type": "Point",
                "coordinates": [
                    139.4509436,
                    35.8070163
                ]
            },
            "properties": {
                "churchId": "f6db5d674e840fbe133deb2e4c5f9d917272c5fe",
                "name": "JCOB Tokorozawa",
                "address": "〒359-1111 埼玉県所沢市緑町４丁目７−１３ Excel Midori Bldg 3F",
                "catholic": false
            }
        },
        {
            "type": "Feature",
            "geometry": {
                "type": "Point",
                "coordinates": [
                    138.9409058,
                    34.994372
                ]
            },
            "properties": {
                "churchId": "8be96fdf8626ea0dc5f50190af6057050c95c103",
                "name": "大仁キリスト教会",
                "address": "〒410-2323 静岡県伊豆の国市大仁１４１−１５",
                "catholic": false
            }
        },
        {
            "type": "Feature",
            "geometry": {
                "type": "Point",
                "coordinates": [
                    135.6405441,
                    34.6661248
                ]
            },
            "properties": {
                "churchId": "8a0f72dd87a0ed2c6f3d90faa2272c37a0214b44",
                "name": "アドラム キリスト教会",
                "address": "〒579-8041 大阪府東大阪市喜里川町２−１８",
                "catholic": false
            }
        },
        {
            "type": "Feature",
            "geometry": {
                "type": "Point",
                "coordinates": [
                    133.7505745,
                    34.6769193
                ]
            },
            "properties": {
                "churchId": "15cf764e1472528118502ce73eb78f57a77931a3",
                "name": "日本基督教団総社教会",
                "address": "〒719-1126 岡山県総社市総社２丁目２０−６",
                "catholic": false
            }
        },
        {
            "type": "Feature",
            "geometry": {
                "type": "Point",
                "coordinates": [
                    135.7974856,
                    34.7409251
                ]
            },
            "properties": {
                "churchId": "e6171c9b4b37c1f822e7bc31117f4e17c6474280",
                "name": "カリスチャペル木津川",
                "address": "〒619-0221 京都府木津川市吐師松葉３５−１",
                "catholic": false
            }
        },
        {
            "type": "Feature",
            "geometry": {
                "type": "Point",
                "coordinates": [
                    135.7189096,
                    34.7207433
                ]
            },
            "properties": {
                "churchId": "62751d6326fb15eba9707358b59adf1ff77a5b79",
                "name": "カリスチャペル白庭台",
                "address": "〒630-0131 奈良県生駒市上町２２２６",
                "catholic": false
            }
        },
        {
            "type": "Feature",
            "geometry": {
                "type": "Point",
                "coordinates": [
                    141.309293,
                    43.085452
                ]
            },
            "properties": {
                "churchId": "4025ecf689dace2cf1dc7029935577372e422b40",
                "name": "札幌八軒キリスト教会",
                "address": "〒063-0843 北海道札幌市西区八軒３条西２丁目２−１３",
                "catholic": false
            }
        },
        {
            "type": "Feature",
            "geometry": {
                "type": "Point",
                "coordinates": [
                    141.0157984,
                    38.3103378
                ]
            },
            "properties": {
                "churchId": "8bcf7b026d9a73ec89fd768774f6987d550f50a4",
                "name": "塩釜恵みキリスト教会",
                "address": "〒985-0025 宮城県塩竈市佐浦町１４−１４−６",
                "catholic": false
            }
        },
        {
            "type": "Feature",
            "geometry": {
                "type": "Point",
                "coordinates": [
                    138.5659466,
                    35.6719945
                ]
            },
            "properties": {
                "churchId": "b39c7f1ff8bf37503fca890c16b2c8f83d64b5f2",
                "name": "ニューライフインターナショナルチャーチ＆スクール",
                "address": "〒400-0025 山梨県甲府市朝日５丁目４−１６",
                "catholic": false
            }
        },
        {
            "type": "Feature",
            "geometry": {
                "type": "Point",
                "coordinates": [
                    139.0700402,
                    36.3937249
                ]
            },
            "properties": {
                "churchId": "5448b86e60c81b077fd7fab8e6b8fa5494f607e4",
                "name": "救世軍前橋小隊",
                "address": "〒371-0022 群馬県前橋市千代田町３丁目５−１６",
                "catholic": false
            }
        },
        {
            "type": "Feature",
            "geometry": {
                "type": "Point",
                "coordinates": [
                    139.1995669,
                    36.3203946
                ]
            },
            "properties": {
                "churchId": "0a52b8da91200f7945297bcf4c131dd1144ba49a",
                "name": "Igreja Universal Do Reino de Deus",
                "address": "１０-１６ 本町 伊勢崎市 群馬県 372-0047",
                "catholic": false
            }
        },
        {
            "type": "Feature",
            "geometry": {
                "type": "Point",
                "coordinates": [
                    138.855677,
                    36.589482
                ]
            },
            "properties": {
                "churchId": "1bec9491fb9ac5e936336dc714913145af1b9d28",
                "name": "中之条キリスト集会所",
                "address": "〒377-0423 群馬県吾妻郡中之条町伊勢町１３１１−２",
                "catholic": false
            }
        },
        {
            "type": "Feature",
            "geometry": {
                "type": "Point",
                "coordinates": [
                    139.0995347,
                    36.3665577
                ]
            },
            "properties": {
                "churchId": "89a6d692bed9905ca1854f8cc514bbba56ca0ee5",
                "name": "朝倉町キリスト集会所",
                "address": "〒371-0811 群馬県前橋市朝倉町４丁目６−３",
                "catholic": false
            }
        },
        {
            "type": "Feature",
            "geometry": {
                "type": "Point",
                "coordinates": [
                    139.0158482,
                    36.3207728
                ]
            },
            "properties": {
                "churchId": "92c66f823722b7b818e91b118f425e29729c71d7",
                "name": "高崎東キリストチャペル",
                "address": "〒370-0841 群馬県高崎市栄町１８",
                "catholic": false
            }
        },
        {
            "type": "Feature",
            "geometry": {
                "type": "Point",
                "coordinates": [
                    138.802324,
                    36.310806
                ]
            },
            "properties": {
                "churchId": "fe7305f3e53801a3e35930eb405499281a709bb5",
                "name": "松井田キリスト集会所",
                "address": "〒379-0222 群馬県安中市松井田町松井田３０８−３",
                "catholic": false
            }
        },
        {
            "type": "Feature",
            "geometry": {
                "type": "Point",
                "coordinates": [
                    138.9652866,
                    36.3365329
                ]
            },
            "properties": {
                "churchId": "870868f7a8d2a63d43b3f79583a1929e22327ddf",
                "name": "Pentecostal Missionary CHURCH of CHRIST (4th Watch) GUNMA JAPAN",
                "address": "Takasaki Shi ５５５−３ 上豊岡町 群馬県 370-0871",
                "catholic": false
            }
        },
        {
            "type": "Feature",
            "geometry": {
                "type": "Point",
                "coordinates": [
                    138.842897,
                    36.588015
                ]
            },
            "properties": {
                "churchId": "1e8ded70541cd7c6ed24543e4200b950314be597",
                "name": "中之条キリスト教会",
                "address": "〒377-0424 群馬県吾妻郡中之条町９４６−２",
                "catholic": false
            }
        },
        {
            "type": "Feature",
            "geometry": {
                "type": "Point",
                "coordinates": [
                    139.3312746,
                    36.4073944
                ]
            },
            "properties": {
                "churchId": "65d6dc0c15b24c6be697bcc6582d49a4476067cd",
                "name": "桐生キリストチャペル",
                "address": "〒376-0022 群馬県桐生市稲荷町４−２３",
                "catholic": false
            }
        },
        {
            "type": "Feature",
            "geometry": {
                "type": "Point",
                "coordinates": [
                    139.341814,
                    36.411365
                ]
            },
            "properties": {
                "churchId": "f39acb179e08de6e193fcdf974f0216e06c9225f",
                "name": "泉町教会",
                "address": "〒376-0035 群馬県桐生市仲町２丁目２−１３",
                "catholic": false
            }
        },
        {
            "type": "Feature",
            "geometry": {
                "type": "Point",
                "coordinates": [
                    139.8019783,
                    36.3115747
                ]
            },
            "properties": {
                "churchId": "7abc0361979f909a39a54e20741de0ef7e1cabba",
                "name": "日本キリスト教会 小山伝道所",
                "address": "〒323-0024 栃木県小山市宮本町２丁目２−２−１６",
                "catholic": false
            }
        },
        {
            "type": "Feature",
            "geometry": {
                "type": "Point",
                "coordinates": [
                    139.871759,
                    36.2941685
                ]
            },
            "properties": {
                "churchId": "e1f6c9403071b71a325b596d7a1504b7be73c495",
                "name": "Assembleia de Deus",
                "address": "〒307-0052 茨城県結城市中央町１丁目４−３",
                "catholic": false
            }
        },
        {
            "type": "Feature",
            "geometry": {
                "type": "Point",
                "coordinates": [
                    140.543478,
                    35.70362
                ]
            },
            "properties": {
                "churchId": "4e2127b9b9654f33037428990926c00439cff541",
                "name": "若潮教会",
                "address": "〒289-2145 千葉県匝瑳市若潮町１４−７",
                "catholic": false
            }
        },
        {
            "type": "Feature",
            "geometry": {
                "type": "Point",
                "coordinates": [
                    140.1232082,
                    35.6158667
                ]
            },
            "properties": {
                "churchId": "1e1feb396a48fe7c790787c9f7d4aa16bc561fc8",
                "name": "千葉グレイスチャーチ",
                "address": "〒260-0017 千葉県千葉市中央区要町１０−２",
                "catholic": false
            }
        },
        {
            "type": "Feature",
            "geometry": {
                "type": "Point",
                "coordinates": [
                    140.123722,
                    35.614072
                ]
            },
            "properties": {
                "churchId": "9efba575c50726206cf1403609cfe34fb1e94eed",
                "name": "千葉栄光教会",
                "address": "〒260-0018 千葉県千葉市中央区院内１丁目２−６",
                "catholic": false
            }
        },
        {
            "type": "Feature",
            "geometry": {
                "type": "Point",
                "coordinates": [
                    140.0271943,
                    35.6812072
                ]
            },
            "properties": {
                "churchId": "5739434e7fc5e3e1c670825e9b9c6e831f95c43f",
                "name": "習志野教会",
                "address": "〒275-0026 千葉県習志野市谷津２丁目８−１９",
                "catholic": false
            }
        },
        {
            "type": "Feature",
            "geometry": {
                "type": "Point",
                "coordinates": [
                    140.097929,
                    35.708251
                ]
            },
            "properties": {
                "churchId": "a8502ff259683342ca442c800f3665f8e4b9f6c8",
                "name": "八千代聖書教会",
                "address": "〒276-0031 千葉県八千代市八千代台北１２丁目１０−１３",
                "catholic": false
            }
        },
        {
            "type": "Feature",
            "geometry": {
                "type": "Point",
                "coordinates": [
                    140.021573,
                    35.740162
                ]
            },
            "properties": {
                "churchId": "d69ba4745361bf5e692520827f58a5b7b999cc69",
                "name": "基督兄弟団南三咲キリスト教会",
                "address": "〒274-0813 千葉県船橋市南三咲２丁目１７−５",
                "catholic": false
            }
        },
        {
            "type": "Feature",
            "geometry": {
                "type": "Point",
                "coordinates": [
                    139.9877814,
                    35.698819
                ]
            },
            "properties": {
                "churchId": "89160fe8a2da4632dcb87f1ffec17d3f5b43814d",
                "name": "ＴＬＣＣＣ船橋キリスト教会",
                "address": "〒273-0005 千葉県船橋市本町４丁目１９",
                "catholic": false
            }
        },
        {
            "type": "Feature",
            "geometry": {
                "type": "Point",
                "coordinates": [
                    139.885415,
                    35.737653
                ]
            },
            "properties": {
                "churchId": "bcadce03afbb4b2996c69bff17ede244ca7af7af",
                "name": "小岩 愛泉教会",
                "address": "〒133-0051 東京都江戸川区北小岩２丁目２０−１８",
                "catholic": false
            }
        },
        {
            "type": "Feature",
            "geometry": {
                "type": "Point",
                "coordinates": [
                    139.786492,
                    35.724934
                ]
            },
            "properties": {
                "churchId": "2c219bbd4166ad18f0f0684c2222cc55ad56af51",
                "name": "救世軍上野小隊",
                "address": "〒110-0004 東京都台東区下谷３丁目８−１２ 会館",
                "catholic": false
            }
        },
        {
            "type": "Feature",
            "geometry": {
                "type": "Point",
                "coordinates": [
                    139.785141,
                    35.6816491
                ]
            },
            "properties": {
                "churchId": "abe8ac2297f3b88aa2763a10ec4eb2036a80ec74",
                "name": "小さい者達の宣教団　日本橋教会",
                "address": "〒103-0014 東京都中央区日本橋蛎殻町１丁目３４",
                "catholic": false
            }
        },
        {
            "type": "Feature",
            "geometry": {
                "type": "Point",
                "coordinates": [
                    139.8165449,
                    35.7019995
                ]
            },
            "properties": {
                "churchId": "426d56da8b45cb077041ea084914341c241905b5",
                "name": "救世軍江東小隊",
                "address": "〒130-0012 東京都墨田区太平４丁目１１−４",
                "catholic": false
            }
        },
        {
            "type": "Feature",
            "geometry": {
                "type": "Point",
                "coordinates": [
                    139.8843554,
                    35.7330404
                ]
            },
            "properties": {
                "churchId": "c5b196d9b0e1ad097a25a50579e7a0e093f31501",
                "name": "和平キリスト教会",
                "address": "〒133-0056 東京都江戸川区南小岩８丁目１１−８",
                "catholic": false
            }
        },
        {
            "type": "Feature",
            "geometry": {
                "type": "Point",
                "coordinates": [
                    139.9132542,
                    35.6840055
                ]
            },
            "properties": {
                "churchId": "d86d827d178fe8592f8935ef1b0f984d64dd5349",
                "name": "インマヌエル行徳駅前キリスト教会",
                "address": "〒272-0133 千葉県市川市行徳駅前２丁目１−１９ Ａ２Ｆ",
                "catholic": false
            }
        },
        {
            "type": "Feature",
            "geometry": {
                "type": "Point",
                "coordinates": [
                    139.913833,
                    35.819131
                ]
            },
            "properties": {
                "churchId": "7422cb392732dc3908c18156a0e31e5680467091",
                "name": "ジョイチャペル",
                "address": "〒270-0035 千葉県松戸市新松戸南１丁目３８２",
                "catholic": false
            }
        },
        {
            "type": "Feature",
            "geometry": {
                "type": "Point",
                "coordinates": [
                    139.9133922,
                    35.7891967
                ]
            },
            "properties": {
                "churchId": "73ec26699087bd202b438e4228759bbfc297d286",
                "name": "松戸キリストの教会",
                "address": "〒271-0065 千葉県松戸市南花島３丁目４８−５",
                "catholic": false
            }
        },
        {
            "type": "Feature",
            "geometry": {
                "type": "Point",
                "coordinates": [
                    139.9027184,
                    35.7852624
                ]
            },
            "properties": {
                "churchId": "af91d773a4b4a80b6a69a4f6df6b41a62dc89b0e",
                "name": "松戸キリスト教会",
                "address": "〒271-0073 千葉県松戸市小根本２０−４６",
                "catholic": false
            }
        },
        {
            "type": "Feature",
            "geometry": {
                "type": "Point",
                "coordinates": [
                    139.8198494,
                    35.7810286
                ]
            },
            "properties": {
                "churchId": "ad6c89ddde17af89331cbf79d3b16ba0154790a0",
                "name": "セブンスデー・アドベンチスト足立キリスト教会",
                "address": "〒121-0074 東京都足立区西加平２丁目８−３２",
                "catholic": false
            }
        },
        {
            "type": "Feature",
            "geometry": {
                "type": "Point",
                "coordinates": [
                    139.672209,
                    35.814866
                ]
            },
            "properties": {
                "churchId": "68c5dcb66f6faca330cdf91f369392c10e511877",
                "name": "戸田キリスト教会",
                "address": "〒335-0021 埼玉県戸田市新曽２４５",
                "catholic": false
            }
        },
        {
            "type": "Feature",
            "geometry": {
                "type": "Point",
                "coordinates": [
                    139.4685967,
                    35.7829323
                ]
            },
            "properties": {
                "churchId": "2e65ea3ec86d224efb5bd3fa57e95a5c9b78f1bf",
                "name": "ホープチャペル所沢",
                "address": "〒359-1125 埼玉県所沢市南住吉１０−８ ホープチャペル",
                "catholic": false
            }
        },
        {
            "type": "Feature",
            "geometry": {
                "type": "Point",
                "coordinates": [
                    139.4640194,
                    35.7950619
                ]
            },
            "properties": {
                "churchId": "52e00ddf0c4d8dd79ab1e1b9ccafad7c25b9ace7",
                "name": "埼玉ペンテコステ教会/バイブルフェローシップ所沢/Saitama Pentecostal Church",
                "address": "〒359-1143 埼玉県所沢市宮本町１丁目３−１８ 2F",
                "catholic": false
            }
        },
        {
            "type": "Feature",
            "geometry": {
                "type": "Point",
                "coordinates": [
                    139.4442595,
                    35.8046167
                ]
            },
            "properties": {
                "churchId": "81b3b15df615401dcec2cc202eea0dac48fa1516",
                "name": "International Church Tokorozawa (ICCS)",
                "address": "６-１６ 榎町 所沢市 埼玉県 359-1104",
                "catholic": false
            }
        },
        {
            "type": "Feature",
            "geometry": {
                "type": "Point",
                "coordinates": [
                    139.470782,
                    35.786476
                ]
            },
            "properties": {
                "churchId": "38ba3a8e79b618a1ceb3d2a205ead4ddce9cba9e",
                "name": "ヴィンヤードクリスチャンフェローシップ所沢",
                "address": "〒359-1124 埼玉県所沢市東住吉１１−９",
                "catholic": false
            }
        },
        {
            "type": "Feature",
            "geometry": {
                "type": "Point",
                "coordinates": [
                    139.4493657,
                    35.7898443
                ]
            },
            "properties": {
                "churchId": "5b42cb9d3daa5bce2cb36eb4f35357e80d0a65c5",
                "name": "キリスト教西所沢教会",
                "address": "〒359-1142 埼玉県所沢市上新井１丁目３２−２２",
                "catholic": false
            }
        },
        {
            "type": "Feature",
            "geometry": {
                "type": "Point",
                "coordinates": [
                    139.488473,
                    35.781914
                ]
            },
            "properties": {
                "churchId": "c04bc5b5a5f7bd352ead3f0d7417890b82fa35da",
                "name": "真イエス教会東京教会",
                "address": "〒359-0025 埼玉県所沢市上安松３４１−１",
                "catholic": false
            }
        },
        {
            "type": "Feature",
            "geometry": {
                "type": "Point",
                "coordinates": [
                    139.4639693,
                    35.7951026
                ]
            },
            "properties": {
                "churchId": "5a0ed1a65f371ceb1127307fdcf7ac6a8cfe063c",
                "name": "パイブル　フェローシップ所沢",
                "address": "〒359-1143 埼玉県所沢市宮本町１丁目３",
                "catholic": false
            }
        },
        {
            "type": "Feature",
            "geometry": {
                "type": "Point",
                "coordinates": [
                    139.4215624,
                    35.811752
                ]
            },
            "properties": {
                "churchId": "6da96f8ed04ab955138e336f32ce055beac9031a",
                "name": "狭山ヶ丘チャペル",
                "address": "〒359-1106 埼玉県所沢市東狭山ケ丘３丁目６６９−１",
                "catholic": false
            }
        },
        {
            "type": "Feature",
            "geometry": {
                "type": "Point",
                "coordinates": [
                    139.359232,
                    35.837473
                ]
            },
            "properties": {
                "churchId": "989b0c9d72c8b8f23e55d554df81b38a8a535713",
                "name": "入間チャペル",
                "address": "〒358-0053 埼玉県入間市仏子８７１−１３",
                "catholic": false
            }
        },
        {
            "type": "Feature",
            "geometry": {
                "type": "Point",
                "coordinates": [
                    139.4605431,
                    35.8100282
                ]
            },
            "properties": {
                "churchId": "66e22a2edafa0b75c391102b813461af416acc29",
                "name": "所沢教会福音センター",
                "address": "〒359-0045 埼玉県所沢市美原町１丁目２９２７−２ ファインライフ新所沢 ２０５",
                "catholic": false
            }
        },
        {
            "type": "Feature",
            "geometry": {
                "type": "Point",
                "coordinates": [
                    139.3390833,
                    35.713607
                ]
            },
            "properties": {
                "churchId": "617e796c14359180faebb04aee8f3a3e0fe24129",
                "name": "西東京イエス中心教会",
                "address": "〒196-0004 東京都昭島市緑町５丁目９−３",
                "catholic": false
            }
        },
        {
            "type": "Feature",
            "geometry": {
                "type": "Point",
                "coordinates": [
                    139.316133,
                    35.7609591
                ]
            },
            "properties": {
                "churchId": "b929e475ab77fd2610bd1e54a910ba72dc413e6e",
                "name": "PMCC4W",
                "address": "東洋第５ビル ４丁目-６-９ 五ノ神 羽村市 東京都 205-0011",
                "catholic": false
            }
        },
        {
            "type": "Feature",
            "geometry": {
                "type": "Point",
                "coordinates": [
                    139.4107978,
                    35.7354034
                ]
            },
            "properties": {
                "churchId": "14fb6ee50c51d3999fe9f9051b6a55f173d55398",
                "name": "武蔵村山バイブルチャーチ",
                "address": "〒208-0013 東京都武蔵村山市大南５丁目３０−１５",
                "catholic": false
            }
        },
        {
            "type": "Feature",
            "geometry": {
                "type": "Point",
                "coordinates": [
                    139.472542,
                    35.74329
                ]
            },
            "properties": {
                "churchId": "e8a4e9c2798416456ca5707e51a1613d74138b4f",
                "name": "萩山神の教会",
                "address": "〒189-0012 東京都東村山市萩山町３丁目２６−１２ 神の教会",
                "catholic": false
            }
        },
        {
            "type": "Feature",
            "geometry": {
                "type": "Point",
                "coordinates": [
                    139.342793,
                    35.726305
                ]
            },
            "properties": {
                "churchId": "abec27a873a71f56dad181da50f4037b29af1670",
                "name": "横田クリスチャンセンター",
                "address": "〒197-0003 東京都福生市熊川１４３７−１",
                "catholic": false
            }
        },
        {
            "type": "Feature",
            "geometry": {
                "type": "Point",
                "coordinates": [
                    139.471953,
                    35.748042
                ]
            },
            "properties": {
                "churchId": "3640c0446b2ce326a8b9137bf90ddd8b0088d875",
                "name": "聖書キリスト久米川教会",
                "address": "〒189-0013 東京都東村山市栄町２丁目２５−４６",
                "catholic": false
            }
        },
        {
            "type": "Feature",
            "geometry": {
                "type": "Point",
                "coordinates": [
                    139.418689,
                    35.719889
                ]
            },
            "properties": {
                "churchId": "d5c285082444b31b8253c91478573530db42659d",
                "name": "立川キリストの教会",
                "address": "〒190-0004 東京都立川市柏町１丁目１−１−９",
                "catholic": false
            }
        },
        {
            "type": "Feature",
            "geometry": {
                "type": "Point",
                "coordinates": [
                    139.415954,
                    35.637745
                ]
            },
            "properties": {
                "churchId": "37d90fcd69bcea769278b5dad6dc24a614904723",
                "name": "日本ユナイテッド・ペンテコステ教団 東京ユナイト ペンテコステ教会",
                "address": "〒192-0352 東京都八王子市大塚１２５",
                "catholic": false
            }
        },
        {
            "type": "Feature",
            "geometry": {
                "type": "Point",
                "coordinates": [
                    139.3591638,
                    35.6387327
                ]
            },
            "properties": {
                "churchId": "4f7eb52836cb64eaa0e50d474ea4961939ebc698",
                "name": "ICBF八王子チャーチ",
                "address": "〒192-0912 東京都八王子市絹ケ丘２丁目２−１９",
                "catholic": false
            }
        },
        {
            "type": "Feature",
            "geometry": {
                "type": "Point",
                "coordinates": [
                    139.4107474,
                    35.642357
                ]
            },
            "properties": {
                "churchId": "0eee0af1bfa8efe61454ec788757284f90a2adbd",
                "name": "日本アッセンブリーズ・オブ・ゴッド 多摩ヒルサイドチャーチ教会",
                "address": "〒192-0351 東京都八王子市東中野 228",
                "catholic": false
            }
        },
        {
            "type": "Feature",
            "geometry": {
                "type": "Point",
                "coordinates": [
                    139.36562,
                    35.677106
                ]
            },
            "properties": {
                "churchId": "3751d70274a350e7d343ee46b529e29de43ad84c",
                "name": "八王子キリスト告白教会",
                "address": "〒192-0032 東京都八王子市石川町２６０５−３",
                "catholic": false
            }
        },
        {
            "type": "Feature",
            "geometry": {
                "type": "Point",
                "coordinates": [
                    139.3953232,
                    35.4503141
                ]
            },
            "properties": {
                "churchId": "1c735420b7165f84e63c17fe5987d36e48d28967",
                "name": "Lifehouse International Church Atsugi",
                "address": "２丁目-９-５０ 中央 海老名市 神奈川県 243-0432",
                "catholic": false
            }
        },
        {
            "type": "Feature",
            "geometry": {
                "type": "Point",
                "coordinates": [
                    139.439507,
                    35.470485
                ]
            },
            "properties": {
                "churchId": "4b3a7ce45773748d3b3825628d3e203447e7bf96",
                "name": "エオバニシ教会",
                "address": "〒242-0028 神奈川県大和市桜森２丁目１０−１",
                "catholic": false
            }
        },
        {
            "type": "Feature",
            "geometry": {
                "type": "Point",
                "coordinates": [
                    139.3636444,
                    35.4372194
                ]
            },
            "properties": {
                "churchId": "07e792ab8277fd35c1298ed679f9ca9a71dbe6d8",
                "name": "厚木聖書キリスト教会",
                "address": "〒243-0014 神奈川県厚木市旭町１丁目２２−２３ 宝栄ビル 2F",
                "catholic": false
            }
        },
        {
            "type": "Feature",
            "geometry": {
                "type": "Point",
                "coordinates": [
                    139.36087,
                    35.43773
                ]
            },
            "properties": {
                "churchId": "aafb08a46428c28c98226aee1c7d9d1f5c5c7664",
                "name": "恵みと平安の教会",
                "address": "〒243-0018 神奈川県厚木市中町４丁目１０−４",
                "catholic": false
            }
        },
        {
            "type": "Feature",
            "geometry": {
                "type": "Point",
                "coordinates": [
                    139.4900076,
                    35.4707501
                ]
            },
            "properties": {
                "churchId": "65a9e56e3d1a907835e84a7bf61151ecb0f82fc4",
                "name": "Ariseキリスト教会",
                "address": "〒246-0013 神奈川県横浜市瀬谷区相沢１丁目３７−１７",
                "catholic": false
            }
        },
        {
            "type": "Feature",
            "geometry": {
                "type": "Point",
                "coordinates": [
                    139.465688,
                    35.398337
                ]
            },
            "properties": {
                "churchId": "3c9e13f6d6666810c7c55b4940633f7701b12cba",
                "name": "湘南セントラルチャーチ",
                "address": "〒252-0804 神奈川県藤沢市湘南台４丁目１−１１",
                "catholic": false
            }
        },
        {
            "type": "Feature",
            "geometry": {
                "type": "Point",
                "coordinates": [
                    139.632187,
                    35.442372
                ]
            },
            "properties": {
                "churchId": "b3fd7c7d18f6122da6579057eb3f33325eedf473",
                "name": "エブリネイションチャーチ横浜",
                "address": "〒231-0033 神奈川県横浜市中区長者町５−８５",
                "catholic": false
            }
        },
        {
            "type": "Feature",
            "geometry": {
                "type": "Point",
                "coordinates": [
                    139.7294981,
                    35.5848932
                ]
            },
            "properties": {
                "churchId": "970be15e60832460563e387130c31f3450e325c9",
                "name": "救世軍大森小隊",
                "address": "〒143-0016 東京都大田区大森北１丁目２６−９ 会館",
                "catholic": false
            }
        },
        {
            "type": "Feature",
            "geometry": {
                "type": "Point",
                "coordinates": [
                    139.704299,
                    35.565351
                ]
            },
            "properties": {
                "churchId": "2b2b18b7ed05df0c7317048cf5f7e2ed16dfeb93",
                "name": "蒲田新生教会",
                "address": "〒146-0094 東京都大田区東矢口１丁目１４−１１",
                "catholic": false
            }
        },
        {
            "type": "Feature",
            "geometry": {
                "type": "Point",
                "coordinates": [
                    139.6896571,
                    35.5220214
                ]
            },
            "properties": {
                "churchId": "d97a3c04c39c78fad1d698742f3d9713bd82d2b5",
                "name": "チャーチ・オブ・ゴッド 川崎南部キリスト教会",
                "address": "〒210-0025 神奈川県川崎市川崎区下並木６６",
                "catholic": false
            }
        },