{
    "type": "FeatureCollection",
    "features": [
        {
            "type": "Feature",
            "geometry": {
                "type": "Point",
                "coordinates": [
                    141.3415462,
                    43.0887218
                ]
            },
            "properties": {
                "churchId": "7a6c4e3df96300769aabef8e000832ddefdaa431",
                "name": "Sapporo Glory Church 札幌グロリアチャーチ",
                "address": "〒001-0023 北海道札幌市北区北２３条西６丁目１−４５",
                "catholic": false
            }
        },
        {
            "type": "Feature",
            "geometry": {
                "type": "Point",
                "coordinates": [
                    140.5643352,
                    39.3118021
                ]
            },
            "properties": {
                "churchId": "183d23183d8dec61d62710dc3aad1dc71a56b6ff",
                "name": "カトリック横手教会",
                "address": "〒013-0025 秋田県横手市寿町７−２５",
                "catholic": true
            }
        },
        {
            "type": "Feature",
            "geometry": {
                "type": "Point",
                "coordinates": [
                    141.1131806,
                    39.2844766
                ]
            },
            "properties": {
                "churchId": "832e20d88fff52172d09d6de14400ffac3dd3248",
                "name": "기타카미벧엘교회",
                "address": "〒024-0061 岩手県北上市大通り３丁目５−１６",
                "catholic": false
            }
        },
        {
            "type": "Feature",
            "geometry": {
                "type": "Point",
                "coordinates": [
                    141.1219271,
                    39.394299
                ]
            },
            "properties": {
                "churchId": "0781c60b3fd1443ad1900c6027a6f9ea4e48d8dd",
                "name": "花巻まぶねキリスト教会",
                "address": "〒025-0063 岩手県花巻市下小舟渡４６−１",
                "catholic": false
            }
        },
        {
            "type": "Feature",
            "geometry": {
                "type": "Point",
                "coordinates": [
                    141.4896162,
                    40.5144369
                ]
            },
            "properties": {
                "churchId": "80f57e0df999a15a22933baab92e6d72e83e17b7",
                "name": "キリスト集会所",
                "address": "〒031-0075 青森県八戸市内丸１丁目３−２０",
                "catholic": false
            }
        },
        {
            "type": "Feature",
            "geometry": {
                "type": "Point",
                "coordinates": [
                    140.7456273,
                    41.8040111
                ]
            },
            "properties": {
                "churchId": "991a6f7a28f42e104c3814073e27e0499b6d5905",
                "name": "キリストめぐみ 函館教会",
                "address": "〒041-0811 北海道函館市富岡町1丁目28−14",
                "catholic": false
            }
        },
        {
            "type": "Feature",
            "geometry": {
                "type": "Point",
                "coordinates": [
                    140.7780541,
                    41.7833858
                ]
            },
            "properties": {
                "churchId": "6c84832e37a466827f4f60c995dd3e7c1fb8c195",
                "name": "カトリック教会湯川教会",
                "address": "〒042-0935 北海道函館市駒場町１４−１１",
                "catholic": true
            }
        },
        {
            "type": "Feature",
            "geometry": {
                "type": "Point",
                "coordinates": [
                    141.3541708,
                    43.0535416
                ]
            },
            "properties": {
                "churchId": "2875723084913cb560e607fd17e8103b6388dd2e",
                "name": "Iglesia Ni Cristo Locale of Hokkaido",
                "address": "〒064-0806 北海道札幌市中央区南６条西３丁目１１−３",
                "catholic": false
            }
        },
        {
            "type": "Feature",
            "geometry": {
                "type": "Point",
                "coordinates": [
                    141.3473055,
                    43.0505521
                ]
            },
            "properties": {
                "churchId": "454067daccde235dfe6bc7de066e35fb445fe877",
                "name": "シロアム・キリスト教会",
                "address": "〒064-0807 北海道札幌市中央区南７条西８丁目",
                "catholic": false
            }
        },
        {
            "type": "Feature",
            "geometry": {
                "type": "Point",
                "coordinates": [
                    139.7420414,
                    35.6287234
                ]
            },
            "properties": {
                "churchId": "b44cf7f33daaf788bb7ea8f70baa4f0b7675a11b",
                "name": "ニュー・コミュニティ・チャーチ",
                "address": "〒108-0075 東京都港区港南２丁目１４−１４ 品川駅前港南ビル 4F ビル",
                "catholic": false
            }
        },
        {
            "type": "Feature",
            "geometry": {
                "type": "Point",
                "coordinates": [
                    139.7907391,
                    35.714358
                ]
            },
            "properties": {
                "churchId": "e67ed93c6435bfcc2824453e1e021bcebc4677e2",
                "name": "日本基督教団浅草教会",
                "address": "〒111-0035 東京都台東区西浅草３丁目４−５",
                "catholic": false
            }
        },
        {
            "type": "Feature",
            "geometry": {
                "type": "Point",
                "coordinates": [
                    139.7763059,
                    35.7401211
                ]
            },
            "properties": {
                "churchId": "d802b1e91c19a21ba0de98021209083afb6d2f87",
                "name": "日本基督教団東京カルバリ教会",
                "address": "〒116-0002 東京都荒川区荒川５丁目４７−４",
                "catholic": false
            }
        },
        {
            "type": "Feature",
            "geometry": {
                "type": "Point",
                "coordinates": [
                    139.7645375,
                    35.7317489
                ]
            },
            "properties": {
                "churchId": "98e670d3c7747ab1ec88569dcffad8e644550c57",
                "name": "Calvary Chapel Logos Tokyo",
                "address": "〒116-0013 東京都荒川区西日暮里４丁目２１−７",
                "catholic": false
            }
        },
        {
            "type": "Feature",
            "geometry": {
                "type": "Point",
                "coordinates": [
                    139.8354328,
                    35.7723809
                ]
            },
            "properties": {
                "churchId": "b96e99d0e1ca5f6be9cf880df93fd6d0fa8b464e",
                "name": "東京教会",
                "address": "〒120-0004 東京都足立区東綾瀬３丁目１５−１１",
                "catholic": false
            }
        },
        {
            "type": "Feature",
            "geometry": {
                "type": "Point",
                "coordinates": [
                    139.8000803,
                    35.7697824
                ]
            },
            "properties": {
                "churchId": "b3b8531a6f35ae9d9a2f87cbf63f0fe64219d1a3",
                "name": "カトリック梅田教会",
                "address": "〒123-0851 東京都足立区梅田７丁目１９−２２",
                "catholic": true
            }
        },
        {
            "type": "Feature",
            "geometry": {
                "type": "Point",
                "coordinates": [
                    139.8371045,
                    35.7483147
                ]
            },
            "properties": {
                "churchId": "5efc3b842c02c687c9f0ae4f966fa9aa8f691812",
                "name": "日本基督教団江東伝導所",
                "address": "〒124-0003 東京都葛飾区お花茶屋１丁目４−８",
                "catholic": false
            }
        },
        {
            "type": "Feature",
            "geometry": {
                "type": "Point",
                "coordinates": [
                    139.8561144,
                    35.7235585
                ]
            },
            "properties": {
                "churchId": "7021ec64c33f1c5d39c092e540b33c15d7bc027a",
                "name": "愛の教会",
                "address": "〒124-0023 東京都葛飾区東新小岩７丁目２８−２６ 2階",
                "catholic": false
            }
        },
        {
            "type": "Feature",
            "geometry": {
                "type": "Point",
                "coordinates": [
                    139.7313905,
                    35.6036284
                ]
            },
            "properties": {
                "churchId": "3da3c9718a54eb6639e86d0673a2f47ed5ed1019",
                "name": "在日大韓基督教会品川教会",
                "address": "〒140-0014 東京都品川区大井３丁目３−４",
                "catholic": false
            }
        },
        {
            "type": "Feature",
            "geometry": {
                "type": "Point",
                "coordinates": [
                    139.7026656,
                    35.6066019
                ]
            },
            "properties": {
                "churchId": "7d278518d1da8eb2362aee6ba101dc8e285418af",
                "name": "日本基督教団洗足教会",
                "address": "〒142-0064 東京都品川区旗の台２丁目８−３",
                "catholic": false
            }
        },
        {
            "type": "Feature",
            "geometry": {
                "type": "Point",
                "coordinates": [
                    139.7108507,
                    35.5869835
                ]
            },
            "properties": {
                "churchId": "ba2cf5dbd95c1e0d4c76334b198a345a84818c05",
                "name": "日本基督教団馬込教会",
                "address": "〒143-0025 東京都大田区南馬込４丁目３−５",
                "catholic": false
            }
        },
        {
            "type": "Feature",
            "geometry": {
                "type": "Point",
                "coordinates": [
                    139.7337287,
                    35.5568964
                ]
            },
            "properties": {
                "churchId": "34f6879812848d05bee500ec9248d840eca3c5ea",
                "name": "キリストの福音羽田ハンナ教会",
                "address": "〒144-0034 東京都大田区西糀谷３丁目１−３",
                "catholic": false
            }
        },
        {
            "type": "Feature",
            "geometry": {
                "type": "Point",
                "coordinates": [
                    139.6917847,
                    35.6717823
                ]
            },
            "properties": {
                "churchId": "40c1b308bfaaaf9b68db97435acdfcf7236c9711",
                "name": "通路チャペル",
                "address": "〒151-0052 東京都渋谷区代々木神園町２−1",
                "catholic": false
            }
        },
        {
            "type": "Feature",
            "geometry": {
                "type": "Point",
                "coordinates": [
                    139.6036636,
                    35.6773274
                ]
            },
            "properties": {
                "churchId": "ea045ec4a8c58d698ba5cc6eef57ae7dedadbf3a",
                "name": "日本キリスト教会東京告白教会",
                "address": "〒157-0061 東京都世田谷区北烏山１丁目５１−１２",
                "catholic": false
            }
        },
        {
            "type": "Feature",
            "geometry": {
                "type": "Point",
                "coordinates": [
                    139.5967916,
                    35.6439903
                ]
            },
            "properties": {
                "churchId": "3852b9a801ec1b9ea8b2d5d263b201b775116c53",
                "name": "復元イエスキリスト教会",
                "address": "〒157-0066 東京都世田谷区成城６丁目２６−７",
                "catholic": false
            }
        },
        {
            "type": "Feature",
            "geometry": {
                "type": "Point",
                "coordinates": [
                    139.7406858,
                    35.6991012
                ]
            },
            "properties": {
                "churchId": "76c08265975b85e52de813ddd7d082813678fd7c",
                "name": "東京教会",
                "address": "〒162-0827 東京都新宿区若宮町２４",
                "catholic": false
            }
        },
        {
            "type": "Feature",
            "geometry": {
                "type": "Point",
                "coordinates": [
                    139.6705329,
                    35.7042077
                ]
            },
            "properties": {
                "churchId": "e4d6f186c92cfba43ed2fb6cbf9a116891c686a1",
                "name": "MARIPOSA HOUSE CHRISTIAN FELLOWSHIP",
                "address": "〒164-0001 東京都中野区中野２丁目７−２",
                "catholic": false
            }
        },
        {
            "type": "Feature",
            "geometry": {
                "type": "Point",
                "coordinates": [
                    139.6753549,
                    35.7090902
                ]
            },
            "properties": {
                "churchId": "3bf5784d3835084b96b87dc669db8d2a19a8a314",
                "name": "日本基督教団中野教会",
                "address": "〒164-0002 東京都中野区上高田１丁目３５−２９",
                "catholic": false
            }
        },
        {
            "type": "Feature",
            "geometry": {
                "type": "Point",
                "coordinates": [
                    139.6428779,
                    35.7250518
                ]
            },
            "properties": {
                "churchId": "4476d85362dd790ca1af7c74ed795a202ce25447",
                "name": "東京カチンバプテスト教会",
                "address": "〒165-0032 東京都中野区鷺宮３丁目９−１４",
                "catholic": false
            }
        },
        {
            "type": "Feature",
            "geometry": {
                "type": "Point",
                "coordinates": [
                    139.6032297,
                    35.7105813
                ]
            },
            "properties": {
                "churchId": "882d48a409d9d2cad265f351a6b3f62aa263c2e0",
                "name": "日本キリスト教団本郷教会",
                "address": "〒167-0043 東京都杉並区上荻４丁目２４−５",
                "catholic": false
            }
        },
        {
            "type": "Feature",
            "geometry": {
                "type": "Point",
                "coordinates": [
                    139.7209181,
                    35.7114432
                ]
            },
            "properties": {
                "churchId": "9bf2d6e1182dbd1490d3074d0888d4fe68677aa6",
                "name": "Tokyo Sophia International Church",
                "address": "〒169-0051 東京都新宿区西早稲田１丁目１３−５ ウチヤ早稲田ビル 1F",
                "catholic": false
            }
        },
        {
            "type": "Feature",
            "geometry": {
                "type": "Point",
                "coordinates": [
                    139.7170563,
                    35.7082838
                ]
            },
            "properties": {
                "churchId": "4c726b61afb914424b81f8022e4712f2900b5dd8",
                "name": "東京あいのひかり教会",
                "address": "〒169-0051 東京都新宿区西早稲田２丁目３−２２",
                "catholic": false
            }
        },
        {
            "type": "Feature",
            "geometry": {
                "type": "Point",
                "coordinates": [
                    139.7121208,
                    35.7143759
                ]
            },
            "properties": {
                "churchId": "c8e376f6e0728d4897a4ae6f72f5ceb05e050d1b",
                "name": "アガペ・チャーチ",
                "address": "〒169-0051 東京都新宿区西早稲田３丁目３１−１１",
                "catholic": false
            }
        },
        {
            "type": "Feature",
            "geometry": {
                "type": "Point",
                "coordinates": [
                    139.707186,
                    35.7041866
                ]
            },
            "properties": {
                "churchId": "85e036687963be4e10940ec661da8ef0cd15fb28",
                "name": "동경은혜교회",
                "address": "〒169-0072 東京都新宿区大久保２丁目１０−８",
                "catholic": false
            }
        },
        {
            "type": "Feature",
            "geometry": {
                "type": "Point",
                "coordinates": [
                    139.706375,
                    35.7025364
                ]
            },
            "properties": {
                "churchId": "f8a1455b640875504e3d5550f5e6a81b4cd138e5",
                "name": "Iglesia IPUJ",
                "address": "〒169-0072 東京都新宿区大久保２丁目１４",
                "catholic": false
            }
        },
        {
            "type": "Feature",
            "geometry": {
                "type": "Point",
                "coordinates": [
                    139.7051178,
                    35.708575
                ]
            },
            "properties": {
                "churchId": "e44c9ce4fd3bc73d56f07c55967705ff230128be",
                "name": "日本基督教団シロアム教会",
                "address": "〒169-0072 東京都新宿区大久保３丁目１０−１",
                "catholic": false
            }
        },
        {
            "type": "Feature",
            "geometry": {
                "type": "Point",
                "coordinates": [
                    139.6969887,
                    35.6990904
                ]
            },
            "properties": {
                "churchId": "7577e8934d593db1a5d78605a949782852693cbd",
                "name": "ナオス国際キリスト教会",
                "address": "〒169-0073 東京都新宿区百人町１丁目２２−１",
                "catholic": false
            }
        },
        {
            "type": "Feature",
            "geometry": {
                "type": "Point",
                "coordinates": [
                    139.6906987,
                    35.7018626
                ]
            },
            "properties": {
                "churchId": "fb85bda3e3855d0b879d377df142efc08cc0fbd3",
                "name": "central gloria church",
                "address": "〒169-0074 東京都新宿区北新宿３丁目１０−５",
                "catholic": false
            }
        },
        {
            "type": "Feature",
            "geometry": {
                "type": "Point",
                "coordinates": [
                    139.6979779,
                    35.7089995
                ]
            },
            "properties": {
                "churchId": "72fe30ca9000db0ee814ad42af1c7518012ba1a5",
                "name": "Megumi Church",
                "address": "〒169-0075 東京都新宿区高田馬場４丁目３２−６ グレイスハウス",
                "catholic": false
            }
        },
        {
            "type": "Feature",
            "geometry": {
                "type": "Point",
                "coordinates": [
                    139.7105842,
                    35.7141368
                ]
            },
            "properties": {
                "churchId": "1901f24db76efc921b298172a196f3f99d1cc067",
                "name": "大韓基督教 東京中央教会",
                "address": "〒171-0033 東京都豊島区高田３丁目２−１６",
                "catholic": false
            }
        },
        {
            "type": "Feature",
            "geometry": {
                "type": "Point",
                "coordinates": [
                    139.7102437,
                    35.7137693
                ]
            },
            "properties": {
                "churchId": "caa1b227980546480bc82f5cf0df5e264ebb1545",
                "name": "喜ぶ教会",
                "address": "〒171-0033 東京都豊島区高田３丁目３−２２ 開成館ビル２Ｆ",
                "catholic": false
            }
        },
        {
            "type": "Feature",
            "geometry": {
                "type": "Point",
                "coordinates": [
                    139.5606722,
                    35.699141
                ]
            },
            "properties": {
                "churchId": "b3440cfba37523473a6bbd59150645029cbd399d",
                "name": "ライフチャーチ",
                "address": "〒181-0013 東京都三鷹市下連雀３丁目３２−１５ CCC学生会館 2階",
                "catholic": false
            }
        },
        {
            "type": "Feature",
            "geometry": {
                "type": "Point",
                "coordinates": [
                    139.5397538,
                    35.6431335
                ]
            },
            "properties": {
                "churchId": "ea1f543c870169553c4b0f3e5fc6aa31a569658d",
                "name": "多摩川キリスト教会",
                "address": "〒182-0025 東京都調布市多摩川７丁目２−４",
                "catholic": false
            }
        },
        {
            "type": "Feature",
            "geometry": {
                "type": "Point",
                "coordinates": [
                    139.4804145,
                    35.7218755
                ]
            },
            "properties": {
                "churchId": "45d936659c638f00e41f974cb32dc4966964e519",
                "name": "小平教会",
                "address": "〒187-0043 東京都小平市学園東町１丁目２−番４１号",
                "catholic": false
            }
        },
        {
            "type": "Feature",
            "geometry": {
                "type": "Point",
                "coordinates": [
                    139.3406104,
                    35.7343719
                ]
            },
            "properties": {
                "churchId": "4b374725e225c49360f5edfc91496a80753d941e",
                "name": "DESTINY CHRISTIAN CENTER",
                "address": "〒197-0011 東京都福生市福生２４９９−４",
                "catholic": false
            }
        },
        {
            "type": "Feature",
            "geometry": {
                "type": "Point",
                "coordinates": [
                    139.5360586,
                    35.7632746
                ]
            },
            "properties": {
                "churchId": "34f1881ac69607cdb79f778afd167ef85f719b6a",
                "name": "久留米聖書教会",
                "address": "〒203-0011 東京都東久留米市大門町１丁目２−３５",
                "catholic": false
            }
        },
        {
            "type": "Feature",
            "geometry": {
                "type": "Point",
                "coordinates": [
                    139.5343698,
                    35.7611455
                ]
            },
            "properties": {
                "churchId": "57a0a3549ba045b19d9b6b5054e1bac35ff290f6",
                "name": "光キリスト教会",
                "address": "〒203-0014 東京都東久留米市東本町２−６",
                "catholic": false
            }
        },
        {
            "type": "Feature",
            "geometry": {
                "type": "Point",
                "coordinates": [
                    139.5343338,
                    35.7583457
                ]
            },
            "properties": {
                "churchId": "b74325924bbc6da1cfca565d79936a21398b5f8e",
                "name": "水場コミュニティーチャーチ",
                "address": "〒203-0053 東京都東久留米市本町１丁目１３−７",
                "catholic": false
            }
        },
        {
            "type": "Feature",
            "geometry": {
                "type": "Point",
                "coordinates": [
                    139.6169555,
                    35.4646804
                ]
            },
            "properties": {
                "churchId": "35012c31e0bbed7b7ded87514bbfa23dc7a9e9ac",
                "name": "フェイス＆ビクトリー国際教会",
                "address": "〒220-0005 神奈川県横浜市西区南幸２丁目１６−２０",
                "catholic": false
            }
        },
        {
            "type": "Feature",
            "geometry": {
                "type": "Point",
                "coordinates": [
                    139.6463803,
                    35.4841113
                ]
            },
            "properties": {
                "churchId": "39d5a21440d16444ad349f69c97bfa1c2a9f0f80",
                "name": "横浜恵み教会",
                "address": "〒221-0021 神奈川県横浜市神奈川区子安通１丁目１２８",
                "catholic": false
            }
        },
        {
            "type": "Feature",
            "geometry": {
                "type": "Point",
                "coordinates": [
                    139.6272675,
                    35.4756969
                ]
            },
            "properties": {
                "churchId": "c8b8fd312da9bd79272c8059fe3854848971c66b",
                "name": "Yokohama Holy Spirit Community Church (#Yhscc)",
                "address": "〒221-0825 神奈川県横浜市神奈川区反町２丁目１４−４",
                "catholic": false
            }
        },
        {
            "type": "Feature",
            "geometry": {
                "type": "Point",
                "coordinates": [
                    139.625995,
                    35.4741277
                ]
            },
            "properties": {
                "churchId": "73049330f2dd60db736b53709ed26b4eeb6724f2",
                "name": "日本キリスト教団神奈川教会",
                "address": "〒221-0832 神奈川県横浜市神奈川区桐畑１７−８",
                "catholic": false
            }
        },
        {
            "type": "Feature",
            "geometry": {
                "type": "Point",
                "coordinates": [
                    139.5398636,
                    35.5508726
                ]
            },
            "properties": {
                "churchId": "a73612b39f18a5019322c5054248f2875cd2adc3",
                "name": "Jesus is Lord Central Yokohama Chapter",
                "address": "〒225-0024 神奈川県横浜市青葉区市ケ尾町1153-2",
                "catholic": false
            }
        },
        {
            "type": "Feature",
            "geometry": {
                "type": "Point",
                "coordinates": [
                    139.6828427,
                    35.5110243
                ]
            },
            "properties": {
                "churchId": "d6342f54b57233275e82bf4e40e3febaaf52ad31",
                "name": "Assembleia de Deus Missao Shekinah",
                "address": "〒230-0051 神奈川県横浜市鶴見区鶴見中央３丁目４−１３",
                "catholic": false
            }
        },
        {
            "type": "Feature",
            "geometry": {
                "type": "Point",
                "coordinates": [
                    139.6387538,
                    35.4417047
                ]
            },
            "properties": {
                "churchId": "86353f4e2ed00776bd952e7718663d5c9d007a9a",
                "name": "영광교회",
                "address": "〒231-0027 神奈川県横浜市中区扇町１丁目１−２５",
                "catholic": false
            }
        },
        {
            "type": "Feature",
            "geometry": {
                "type": "Point",
                "coordinates": [
                    139.6373539,
                    35.4407202
                ]
            },
            "properties": {
                "churchId": "bba2e421d87addc3ae17fdb68c7eead04fbe6c6a",
                "name": "旭福音キリスト教会",
                "address": "〒231-0028 神奈川県横浜市中区翁町2−７−１０ 関内フレックスビル 3階",
                "catholic": false
            }
        },
        {
            "type": "Feature",
            "geometry": {
                "type": "Point",
                "coordinates": [
                    139.5672387,
                    35.401746
                ]
            },
            "properties": {
                "churchId": "9eeba7df7771290617c979d78ed7d2ee94c3e432",
                "name": "地の塩港南キリスト教会",
                "address": "〒233-0012 神奈川県横浜市港南区上永谷５丁目２２−２",
                "catholic": false
            }
        },
        {
            "type": "Feature",
            "geometry": {
                "type": "Point",
                "coordinates": [
                    139.6246687,
                    35.3427244
                ]
            },
            "properties": {
                "churchId": "5c1793101149e827f8533af93e578ce9343b8c4d",
                "name": "カトリック金沢教会",
                "address": "〒236-0015 神奈川県横浜市金沢区金沢町４８",
                "catholic": true
            }
        },
        {
            "type": "Feature",
            "geometry": {
                "type": "Point",
                "coordinates": [
                    139.6245492,
                    35.311062
                ]
            },
            "properties": {
                "churchId": "13a059ce872a0cdb48fa4a950513c27f210d8a10",
                "name": "Movimiento Misionero Mundial",
                "address": "〒237-0064 神奈川県横須賀市追浜町２丁目７３−１",
                "catholic": false
            }
        },
        {
            "type": "Feature",
            "geometry": {
                "type": "Point",
                "coordinates": [
                    139.6714904,
                    35.2829969
                ]
            },
            "properties": {
                "churchId": "c565d80c33a5caaf3613420e3e1a7288083523ca",
                "name": "Cross Church Yokosuka",
                "address": "〒238-0004 神奈川県横須賀市小川町２１−８",
                "catholic": false
            }
        },
        {
            "type": "Feature",
            "geometry": {
                "type": "Point",
                "coordinates": [
                    139.6697935,
                    35.2722835
                ]
            },
            "properties": {
                "churchId": "ff1e3968c4dde66c4ddc1154c8b3bf6d83d1b699",
                "name": "日本キリスト教団横須賀上町教会",
                "address": "〒238-0017 神奈川県横須賀市上町２丁目４３",
                "catholic": false
            }
        },
        {
            "type": "Feature",
            "geometry": {
                "type": "Point",
                "coordinates": [
                    139.6666735,
                    35.2827502
                ]
            },
            "properties": {
                "churchId": "b4627e1310ae097d8bcc2a87546391d687f1e6c1",
                "name": "Iglesia Ni Cristo Locale of Yokosuka",
                "address": "〒238-0041 神奈川県横須賀市本町１丁目１９",
                "catholic": false
            }
        },
        {
            "type": "Feature",
            "geometry": {
                "type": "Point",
                "coordinates": [
                    139.4535347,
                    35.4947622
                ]
            },
            "properties": {
                "churchId": "9739b48a89e59d36d2130da01ce2c9b7c9483dce",
                "name": "Lighthouse Baptist Church",
                "address": "〒242-0003 神奈川県大和市林間１丁目１５−３２",
                "catholic": false
            }
        },
        {
            "type": "Feature",
            "geometry": {
                "type": "Point",
                "coordinates": [
                    139.4846676,
                    35.421364
                ]
            },
            "properties": {
                "churchId": "509691f9c0c7a6f6a682ccf5acc35f4e84dd01dc",
                "name": "泉中央キリスト教会",
                "address": "〒245-0018 神奈川県横浜市泉区上飯田町２０４９−１２",
                "catholic": false
            }
        },
        {
            "type": "Feature",
            "geometry": {
                "type": "Point",
                "coordinates": [
                    139.4955414,
                    35.4205594
                ]
            },
            "properties": {
                "churchId": "4613623dcbedcd9128ee9d20a44024abbed51a06",
                "name": "いずみ教会",
                "address": "〒245-0024 神奈川県横浜市泉区和泉中央北３丁目４３−１５",
                "catholic": false
            }
        },
        {
            "type": "Feature",
            "geometry": {
                "type": "Point",
                "coordinates": [
                    139.4879218,
                    35.33583
                ]
            },
            "properties": {
                "churchId": "a6587fd999d47fce0cfe994242669b6c19e8eb69",
                "name": "カトリック教会",
                "address": "〒251-0025 神奈川県藤沢市鵠沼石上１丁目１",
                "catholic": true
            }
        },
        {
            "type": "Feature",
            "geometry": {
                "type": "Point",
                "coordinates": [
                    139.4739364,
                    35.3285461
                ]
            },
            "properties": {
                "churchId": "1cd5622b4d70886a20e028e37344fa85f587f5e8",
                "name": "湘南教会",
                "address": "〒251-0027 神奈川県藤沢市鵠沼桜が岡３丁目１８−３",
                "catholic": false
            }
        },
        {
            "type": "Feature",
            "geometry": {
                "type": "Point",
                "coordinates": [
                    139.490725,
                    35.3418698
                ]
            },
            "properties": {
                "churchId": "97bfddb078e939bd8481f1776a638ad3dc433a5e",
                "name": "藤沢キリスト教会",
                "address": "〒251-0054 神奈川県藤沢市朝日町２０−６",
                "catholic": false
            }
        },
        {
            "type": "Feature",
            "geometry": {
                "type": "Point",
                "coordinates": [
                    139.357026,
                    35.5835596
                ]
            },
            "properties": {
                "churchId": "ab069ed47f386020852357daab4ded375ea4c880",
                "name": "緑の牧場キリスト教会",
                "address": "〒252-0205 神奈川県相模原市中央区小山３丁目１３−３",
                "catholic": false
            }
        },
        {
            "type": "Feature",
            "geometry": {
                "type": "Point",
                "coordinates": [
                    139.4693832,
                    35.392957
                ]
            },
            "properties": {
                "churchId": "699e4647c52109b96a63f97b58f19005fea36ef1",
                "name": "純福音東京教会 藤沢支聖殿",
                "address": "〒252-0804 神奈川県藤沢市湘南台１丁目３０−４",
                "catholic": false
            }
        },
        {
            "type": "Feature",
            "geometry": {
                "type": "Point",
                "coordinates": [
                    139.4028902,
                    35.5667328
                ]
            },
            "properties": {
                "churchId": "cc144cab944259c4b770345a33bfa3d140038d4a",
                "name": "ウエスレー・チャペル",
                "address": "〒252-5258 神奈川県相模原市中央区淵野辺５丁目１０−1",
                "catholic": false
            }
        },
        {
            "type": "Feature",
            "geometry": {
                "type": "Point",
                "coordinates": [
                    139.2804201,
                    35.3758995
                ]
            },
            "properties": {
                "churchId": "bbc03e30b2ec5517d0fc734ed3b0e7bfffac2af8",
                "name": "おおねバプテスト教会",
                "address": "〒257-0002 神奈川県秦野市鶴巻南２丁目１７",
                "catholic": false
            }
        },
        {
            "type": "Feature",
            "geometry": {
                "type": "Point",
                "coordinates": [
                    139.954472,
                    35.7090985
                ]
            },
            "properties": {
                "churchId": "c5405bf0ab0725c9263c516b19b2034d4631d40c",
                "name": "ＨＯＰＥ・ＣＨＵＲＣＨ",
                "address": "〒273-0033 千葉県船橋市本郷町４６５−１",
                "catholic": false
            }
        },
        {
            "type": "Feature",
            "geometry": {
                "type": "Point",
                "coordinates": [
                    139.9484685,
                    35.7095027
                ]
            },
            "properties": {
                "churchId": "98c98c726d3bcb94fef651ae443574b13d91522f",
                "name": "中山キリスト教会",
                "address": "〒273-0034 千葉県船橋市二子町６０４−１",
                "catholic": false
            }
        },
        {
            "type": "Feature",
            "geometry": {
                "type": "Point",
                "coordinates": [
                    139.8961374,
                    35.6644847
                ]
            },
            "properties": {
                "churchId": "9e50f0eb695f829d29dce58e102040b34c704150",
                "name": "ビクトリークリスチャンセンター",
                "address": "〒279-0002 千葉県浦安市北栄１丁目１−４",
                "catholic": false
            }
        },
        {
            "type": "Feature",
            "geometry": {
                "type": "Point",
                "coordinates": [
                    140.1625883,
                    35.6669208
                ]
            },
            "properties": {
                "churchId": "5109453517295c3600f1f30f1347b627cb0dff6a",
                "name": "日本キリスト教団四街道教会",
                "address": "〒284-0005 千葉県四街道市四街道１５２２−６５",
                "catholic": false
            }
        },
        {
            "type": "Feature",
            "geometry": {
                "type": "Point",
                "coordinates": [
                    140.2743803,
                    35.7364354
                ]
            },
            "properties": {
                "churchId": "2cafde05c53bcb4a0190dc8167b8e78ea6dad090",
                "name": "酒々井キリスト教会",
                "address": "〒285-0922 千葉県印旛郡印旛郡酒々井町中央台１丁目１７−２",
                "catholic": false
            }
        },
        {
            "type": "Feature",
            "geometry": {
                "type": "Point",
                "coordinates": [
                    140.2772209,
                    35.728525
                ]
            },
            "properties": {
                "churchId": "fbd058e608caf16610e35eabda4c9487bab3f86a",
                "name": "酒々井聖書キリスト教会",
                "address": "〒285-0923 千葉県印旛郡酒々井町東酒々井３丁目３−３８",
                "catholic": false
            }
        },
        {
            "type": "Feature",
            "geometry": {
                "type": "Point",
                "coordinates": [
                    140.2879133,
                    35.6837568
                ]
            },
            "properties": {
                "churchId": "900878720fbb77ae8399cd23fde5863fd03e53ce",
                "name": "八街キリスト教会",
                "address": "〒289-1106 千葉県八街市榎戸９２４−１５",
                "catholic": false
            }
        },
        {
            "type": "Feature",
            "geometry": {
                "type": "Point",
                "coordinates": [
                    139.8642761,
                    34.9921747
                ]
            },
            "properties": {
                "churchId": "e8bb65e893f2b6372e5bfd9693f7777684ff01d2",
                "name": "日本聖公会館山聖アンデレ教会",
                "address": "〒294-0045 千葉県館山市北条１６７７",
                "catholic": false
            }
        },
        {
            "type": "Feature",
            "geometry": {
                "type": "Point",
                "coordinates": [
                    140.3222425,
                    35.5223947
                ]
            },
            "properties": {
                "churchId": "2c878199245c9d5b214ea8e7bdb0654770cb98a1",
                "name": "日本キリスト教団 大網教会",
                "address": "〒299-3237 千葉県大網白里市仏島７４",
                "catholic": false
            }
        },
        {
            "type": "Feature",
            "geometry": {
                "type": "Point",
                "coordinates": [
                    139.9904638,
                    36.0256212
                ]
            },
            "properties": {
                "churchId": "126740347a6a530f987722c17fb47983257a2a7a",
                "name": "Igreja Universal do Reino de Deus",
                "address": "〒303-0003 茨城県常総市水海道橋本町３４７５−９",
                "catholic": false
            }
        },
        {
            "type": "Feature",
            "geometry": {
                "type": "Point",
                "coordinates": [
                    140.564491,
                    36.3116179
                ]
            },
            "properties": {
                "churchId": "795765bc9102dc710f5a83aee1cb07561387d849",
                "name": "大洗インドネシア福音教会",
                "address": "〒311-1311 茨城県東茨城郡大洗町大貫町５３７−１",
                "catholic": false
            }
        },
        {
            "type": "Feature",
            "geometry": {
                "type": "Point",
                "coordinates": [
                    139.6834404,
                    36.7290102
                ]
            },
            "properties": {
                "churchId": "8800da534001639f379e3d0c9e6099ba7fcc4718",
                "name": "カトリック今市教会",
                "address": "〒321-1263 栃木県日光市瀬川１９９",
                "catholic": true
            }
        },
        {
            "type": "Feature",
            "geometry": {
                "type": "Point",
                "coordinates": [
                    139.4598578,
                    36.3320164
                ]
            },
            "properties": {
                "churchId": "526426119b23a70b47215ddf5ef1c90631d7d905",
                "name": "足利キリスト教会",
                "address": "〒326-0053 栃木県足利市伊勢町２丁目９−３５",
                "catholic": false
            }
        },
        {
            "type": "Feature",
            "geometry": {
                "type": "Point",
                "coordinates": [
                    140.019778,
                    36.926962
                ]
            },
            "properties": {
                "churchId": "ffc47e23865ebd6123f7ac31283577150aad50fc",
                "name": "那須塩原教会 Nasushiobara Church",
                "address": "〒329-3153 栃木県那須塩原市大原間１９７",
                "catholic": false
            }
        },
        {
            "type": "Feature",
            "geometry": {
                "type": "Point",
                "coordinates": [
                    139.7327708,
                    35.8166172
                ]
            },
            "properties": {
                "churchId": "de1533017f86b0a6bcf5f1d7813731e5b06f8661",
                "name": "｢罪人の友｣主イエスキリスト教会",
                "address": "〒334-0013 埼玉県川口市南鳩ヶ谷５丁目１６−１８",
                "catholic": false
            }
        },
        {
            "type": "Feature",
            "geometry": {
                "type": "Point",
                "coordinates": [
                    139.695553,
                    35.8200038
                ]
            },
            "properties": {
                "churchId": "f0b2f0af9b19021e26e3792df41119ba78b6bcb7",
                "name": "シオンキリスト教会",
                "address": "〒335-0003 埼玉県蕨市南町２丁目１６−３ 五月ビル１F",
                "catholic": false
            }
        },
        {
            "type": "Feature",
            "geometry": {
                "type": "Point",
                "coordinates": [
                    139.708496,
                    35.8693084
                ]
            },
            "properties": {
                "churchId": "47eaf0a9a695c7eac0abe65a83d004403d14a6e1",
                "name": "聖母被昇天修道院",
                "address": "〒336-0926 埼玉県さいたま市緑区 東浦和6丁目4−11",
                "catholic": true
            }
        },
        {
            "type": "Feature",
            "geometry": {
                "type": "Point",
                "coordinates": [
                    139.4139019,
                    35.9050412
                ]
            },
            "properties": {
                "churchId": "e5d3c71a3da3c6d96277658aa1241088b4695565",
                "name": "川越キリスト教会",
                "address": "〒350-1175 埼玉県川越市笠幡４９２２−６",
                "catholic": false
            }
        },
        {
            "type": "Feature",
            "geometry": {
                "type": "Point",
                "coordinates": [
                    139.5603442,
                    35.9976976
                ]
            },
            "properties": {
                "churchId": "f170073f6c2655518de169c393ab151af0825c7b",
                "name": "桶川聖書教会",
                "address": "〒363-0022 埼玉県桶川市若宮１丁目８−１７",
                "catholic": false
            }
        },
        {
            "type": "Feature",
            "geometry": {
                "type": "Point",
                "coordinates": [
                    139.407261,
                    36.2569499
                ]
            },
            "properties": {
                "churchId": "cd87ea2c255da78ccc979271ae72f88cb1536f49",
                "name": "Avivamento Japão - Oizumi",
                "address": "〒370-0532 群馬県邑楽郡大泉町坂田２丁目１−２１３７−３２７",
                "catholic": false
            }
        },
        {
            "type": "Feature",
            "geometry": {
                "type": "Point",
                "coordinates": [
                    139.406638,
                    36.2610479
                ]
            },
            "properties": {
                "churchId": "975efd04e75e0b035aea5a1017c1bef963411784",
                "name": "キリストの救い国際教会",
                "address": "〒370-0532 群馬県邑楽郡大泉町坂田７丁目１−２",
                "catholic": false
            }
        },
        {
            "type": "Feature",
            "geometry": {
                "type": "Point",
                "coordinates": [
                    139.2046869,
                    36.3258817
                ]
            },
            "properties": {
                "churchId": "364227aadb2ddf3534524a648539d49b1819e802",
                "name": "Assembleia de Deus - Belem",
                "address": "〒372-0014 群馬県伊勢崎市昭和町１６４９−１",
                "catholic": false
            }
        },
        {
            "type": "Feature",
            "geometry": {
                "type": "Point",
                "coordinates": [
                    138.5060449,
                    36.3181603
                ]
            },
            "properties": {
                "churchId": "968d3c18a8d6c10a7d279c047fd0b627a52bd3cc",
                "name": "信州コミュニティー教会 Shinshu Community Church",
                "address": "〒389-0206 長野県北佐久郡御代田町御代田２４２２−５５",
                "catholic": false
            }
        },
        {
            "type": "Feature",
            "geometry": {
                "type": "Point",
                "coordinates": [
                    137.9792153,
                    36.209498
                ]
            },
            "properties": {
                "churchId": "3425e596f8ac1d5fbdc8ca9abf58b894be60a5b3",
                "name": "松本さくら福音教会",
                "address": "〒390-0825 長野県松本市並柳１丁目２６−１４",
                "catholic": false
            }
        },
        {
            "type": "Feature",
            "geometry": {
                "type": "Point",
                "coordinates": [
                    138.0946578,
                    36.0728979
                ]
            },
            "properties": {
                "churchId": "b6f1169d4eeb56b87adac100fd39f0b7632c4792",
                "name": "日本福音ルーテル諏訪教会",
                "address": "〒393-0025 長野県諏訪郡下諏訪町本郷６５９５",
                "catholic": false
            }
        },
        {
            "type": "Feature",
            "geometry": {
                "type": "Point",
                "coordinates": [
                    138.484054,
                    35.6845621
                ]
            },
            "properties": {
                "churchId": "9de3931b3b194fce656b149402df63577e8868cd",
                "name": "Iglesia Ni Cristo Locale of Yamanashi",
                "address": "〒400-0107 山梨県甲斐市志田６４５−１",
                "catholic": false
            }
        },
        {
            "type": "Feature",
            "geometry": {
                "type": "Point",
                "coordinates": [
                    138.3940501,
                    34.9799085
                ]
            },
            "properties": {
                "churchId": "2487d89d8198c31dc7c00346588565dd448dd061",
                "name": "日本福音ルーテル静岡教会",
                "address": "〒420-0834 静岡県静岡市葵区音羽町８−１６",
                "catholic": false
            }
        },
        {
            "type": "Feature",
            "geometry": {
                "type": "Point",
                "coordinates": [
                    137.7315573,
                    34.7006473
                ]
            },
            "properties": {
                "churchId": "976a51cc148a0b5aef98ea2297dfb8ab51ac539b",
                "name": "ニューホープチャーチ",
                "address": "〒432-8033 静岡県浜松市中区海老塚１丁目３−６",
                "catholic": false
            }
        },
        {
            "type": "Feature",
            "geometry": {
                "type": "Point",
                "coordinates": [
                    137.7396396,
                    34.7435305
                ]
            },
            "properties": {
                "churchId": "fe71d9f56309613fa4908bfbc34187ed7760b48a",
                "name": "IGREJA PENTECOSTAL DEUS É AMOR",
                "address": "〒433-8122 静岡県浜松市中区上島６丁目３３−１１",
                "catholic": false
            }
        },
        {
            "type": "Feature",
            "geometry": {
                "type": "Point",
                "coordinates": [
                    138.0179059,
                    34.7650917
                ]
            },
            "properties": {
                "churchId": "17929a6887c85a15862d628571b685ee61ae63c8",
                "name": "Assembléia de Deus Missão Vida Nova",
                "address": "〒436-0029 静岡県掛川市南２丁目１３",
                "catholic": false
            }
        },
        {
            "type": "Feature",
            "geometry": {
                "type": "Point",
                "coordinates": [
                    138.0176542,
                    34.7649678
                ]
            },
            "properties": {
                "churchId": "8e96f825f93cdf6c458c2df2452d41174a176dff",
                "name": "アセンプレイアデデウス．ミショーンヴィダノヴァ福音教会",
                "address": "〒436-0029 静岡県掛川市南２丁目１３−１６",
                "catholic": false
            }
        },
        {
            "type": "Feature",
            "geometry": {
                "type": "Point",
                "coordinates": [
                    137.2678197,
                    34.6718211
                ]
            },
            "properties": {
                "churchId": "652e5cd5d4ab3488e420947ffc4efeb0444cd136",
                "name": "ルーテルみのり教会田原礼拝所",
                "address": "〒441-3421 愛知県田原市田原町殿町４５−２",
                "catholic": false
            }
        },
        {
            "type": "Feature",
            "geometry": {
                "type": "Point",
                "coordinates": [
                    136.9147386,
                    35.1534525
                ]
            },
            "properties": {
                "churchId": "f939de2569fb9da6f8318504dfa668c15eb81e94",
                "name": "グレイスシティチャーチ・名古屋 GraceCity Church - Nagoya",
                "address": "〒460-0012 愛知県名古屋市中区千代田３丁目２８",
                "catholic": false
            }
        },
        {
            "type": "Feature",
            "geometry": {
                "type": "Point",
                "coordinates": [
                    136.9385636,
                    35.1684463
                ]
            },
            "properties": {
                "churchId": "09f2e48af209d5ef3c8aeb2566afacad4a3924b6",
                "name": "MUSTARD SEED クリスチャン教会",
                "address": "〒464-0850 愛知県名古屋市千種区今池５丁目３−２",
                "catholic": false
            }
        },
        {
            "type": "Feature",
            "geometry": {
                "type": "Point",
                "coordinates": [
                    136.9825295,
                    35.1329329
                ]
            },
            "properties": {
                "churchId": "c9a14917265b984484c72ac1ed97c1d5cee9ff80",
                "name": "キリスト聖協団名古屋グローリアスチャペル",
                "address": "〒468-0058 愛知県名古屋市天白区植田西２丁目８０５",
                "catholic": false
            }
        },
        {
            "type": "Feature",
            "geometry": {
                "type": "Point",
                "coordinates": [
                    137.0396694,
                    35.2712682
                ]
            },
            "properties": {
                "churchId": "c0cd06b4989e0c00a8bb9784444b5f60fd9e94bb",
                "name": "宗教法人　ホサナ・キリスト教会",
                "address": "〒487-0033 愛知県春日井市岩成台１丁目１５−７",
                "catholic": false
            }
        },
        {
            "type": "Feature",
            "geometry": {
                "type": "Point",
                "coordinates": [
                    136.6240283,
                    34.962951
                ]
            },
            "properties": {
                "churchId": "b7b1b5ffbd21f5555dcb73e4cdecc23315d00057",
                "name": "日本キリスト教団 幸町教会",
                "address": "〒510-0068 三重県四日市市三栄町５−３",
                "catholic": false
            }
        },
        {
            "type": "Feature",
            "geometry": {
                "type": "Point",
                "coordinates": [
                    136.563122,
                    34.8044444
                ]
            },
            "properties": {
                "churchId": "de3c1123254176c5bd0ffa9c090ff2e832849349",
                "name": "ベサニーキリスト教会三重",
                "address": "〒510-0303 三重県津市河芸町東千里９９０−１",
                "catholic": false
            }
        },
        {
            "type": "Feature",
            "geometry": {
                "type": "Point",
                "coordinates": [
                    136.522975,
                    34.7492113
                ]
            },
            "properties": {
                "churchId": "fdff78359370b717161dc92d03128a7051936cd1",
                "name": "Comunidade Evangelica Internacional Hikari",
                "address": "〒514-0102 三重県津市栗真町屋町５２１−１０",
                "catholic": false
            }
        },
        {
            "type": "Feature",
            "geometry": {
                "type": "Point",
                "coordinates": [
                    136.1306816,
                    34.7763322
                ]
            },
            "properties": {
                "churchId": "1df480f3b1fdb20fe37788801c4a7d2d5c178e0e",
                "name": "ベテル福音教会",
                "address": "〒518-0828 三重県伊賀市平野中川原５８７−１",
                "catholic": false
            }
        },
        {
            "type": "Feature",
            "geometry": {
                "type": "Point",
                "coordinates": [
                    136.0352432,
                    35.4028071
                ]
            },
            "properties": {
                "churchId": "9379a6f096235431f58d12d95fd14cfc80277bf8",
                "name": "日本キリスト教団今津教会",
                "address": "〒520-1621 滋賀県高島市今津町今津１６５０−１",
                "catholic": false
            }
        },
        {
            "type": "Feature",
            "geometry": {
                "type": "Point",
                "coordinates": [
                    136.0451103,
                    35.0231173
                ]
            },
            "properties": {
                "churchId": "018a5bbbbf073041b616aad9d92709c03846da9d",
                "name": "Igreja Presbiteriana Renovada de Shiga",
                "address": "〒520-3113 滋賀県湖南市石部北４丁目１−１２",
                "catholic": false
            }
        },
        {
            "type": "Feature",
            "geometry": {
                "type": "Point",
                "coordinates": [
                    136.2157886,
                    34.8994615
                ]
            },
            "properties": {
                "churchId": "88a3ceb2e4e793292cc3effa3ff6465c0000f799",
                "name": "Igreja Evangélica Aliança Eterna das Nações",
                "address": "〒520-3433 滋賀県甲賀市甲賀町大原市場１−２１",
                "catholic": false
            }
        },
        {
            "type": "Feature",
            "geometry": {
                "type": "Point",
                "coordinates": [
                    136.2525422,
                    35.2431396
                ]
            },
            "properties": {
                "churchId": "e9a98595e3e3e23f960edfdb8519124ca1b9f794",
                "name": "彦根キリスト教会",
                "address": "〒522-0201 滋賀県彦根市高宮町１３３４",
                "catholic": false
            }
        },
        {
            "type": "Feature",
            "geometry": {
                "type": "Point",
                "coordinates": [
                    136.2039416,
                    35.1158371
                ]
            },
            "properties": {
                "churchId": "55a3a71d83b1ef7be7dd5b7ea6d3e3c3ddac06c5",
                "name": "Igreja Evangélica Aliança Eterna das Nações",
                "address": "〒527-0004 滋賀県東近江市建部堺町２７０−６",
                "catholic": false
            }
        },
        {
            "type": "Feature",
            "geometry": {
                "type": "Point",
                "coordinates": [
                    136.1991028,
                    35.1132531
                ]
            },
            "properties": {
                "churchId": "a40ce287fcffef9e0b2457073bded192d5761fc9",
                "name": "日本キリスト教団八日市教会",
                "address": "〒527-0029 滋賀県東近江市八日市町３−２３",
                "catholic": false
            }
        },
        {
            "type": "Feature",
            "geometry": {
                "type": "Point",
                "coordinates": [
                    136.2276758,
                    35.5021208
                ]
            },
            "properties": {
                "churchId": "2206b0a1294708615097430809f36fb2d849889f",
                "name": "木之本キリスト教会",
                "address": "〒529-0425 滋賀県長浜市木之本町木之本８４６",
                "catholic": false
            }
        },
        {
            "type": "Feature",
            "geometry": {
                "type": "Point",
                "coordinates": [
                    135.4958598,
                    34.7406503
                ]
            },
            "properties": {
                "churchId": "d18e76c69f648f89deaae5b84bbd1b9a2bdd1d2f",
                "name": "聖ピオ十世会 聖母の汚れなき御心聖堂",
                "address": "〒532-0002 大阪府大阪市淀川区東三国４丁目１０−２",
                "catholic": true
            }
        },
        {
            "type": "Feature",
            "geometry": {
                "type": "Point",
                "coordinates": [
                    135.559168,
                    34.6626501
                ]
            },
            "properties": {
                "churchId": "3d4a32643526a6999157472d074fb5dab2c1450c",
                "name": "聖ガブリエル教会",
                "address": "〒544-0003 大阪府大阪市生野区小路東１丁目１７−２８",
                "catholic": false
            }
        },
        {
            "type": "Feature",
            "geometry": {
                "type": "Point",
                "coordinates": [
                    135.472947,
                    34.6969555
                ]
            },
            "properties": {
                "churchId": "06d7e5332f595858c1de63b4716e73b0409d1de6",
                "name": "大阪キリスト教会",
                "address": "〒553-0001 大阪府大阪市福島区海老江２丁目６−５",
                "catholic": false
            }
        },
        {
            "type": "Feature",
            "geometry": {
                "type": "Point",
                "coordinates": [
                    135.4912239,
                    34.6058905
                ]
            },
            "properties": {
                "churchId": "070dc2a74e57400f261619f0fbe0cd74bfef6c5d",
                "name": "住吉教会",
                "address": "〒558-0033 大阪府大阪市住吉区清水丘１丁目３３−９",
                "catholic": false
            }
        },
        {
            "type": "Feature",
            "geometry": {
                "type": "Point",
                "coordinates": [
                    135.4264619,
                    34.8151884
                ]
            },
            "properties": {
                "churchId": "7322dd2e9a723ff59fd043bb4e83e7b1be0729fb",
                "name": "池田キリスト教会",
                "address": "〒563-0043 大阪府池田市神田１丁目７−１",
                "catholic": false
            }
        },
        {
            "type": "Feature",
            "geometry": {
                "type": "Point",
                "coordinates": [
                    135.4251905,
                    34.8209788
                ]
            },
            "properties": {
                "churchId": "f47d0607e5cead43fdd8bbd27534471f044ef3b3",
                "name": "日本キリスト教会池田",
                "address": "〒563-0048 大阪府池田市呉服町２−６",
                "catholic": false
            }
        },
        {
            "type": "Feature",
            "geometry": {
                "type": "Point",
                "coordinates": [
                    135.2586514,
                    34.3733243
                ]
            },
            "properties": {
                "churchId": "700c91e4b7c0e5a5a0c68aecd35814d446cc37f3",
                "name": "ＪＴＪ泉南バイブルセンター",
                "address": "〒590-0521 大阪府泉南市樽井４丁目３８−７",
                "catholic": false
            }
        },
        {
            "type": "Feature",
            "geometry": {
                "type": "Point",
                "coordinates": [
                    135.4590905,
                    34.5643621
                ]
            },
            "properties": {
                "churchId": "8ffd0b90ba45e826c30cbde67b50c1b290fa6332",
                "name": "くすのきキリスト教会",
                "address": "〒590-0836 大阪府堺市堺区楠町３丁４−３",
                "catholic": false
            }
        },
        {
            "type": "Feature",
            "geometry": {
                "type": "Point",
                "coordinates": [
                    135.4952728,
                    34.5627626
                ]
            },
            "properties": {
                "churchId": "1a8594f29709a75bb35ce290166e35f4f0edbcba",
                "name": "ホサナ・キリスト教会",
                "address": "〒591-8031 大阪府堺市北区百舌鳥梅北町１丁５５−４",
                "catholic": false
            }
        },
        {
            "type": "Feature",
            "geometry": {
                "type": "Point",
                "coordinates": [
                    135.4579939,
                    34.5346288
                ]
            },
            "properties": {
                "churchId": "0e33c47db9066f2f56c7278e7645aeee13ebd6f1",
                "name": "Sakai Ikubaku Christian Church",
                "address": "〒593-8327 大阪府堺市西区鳳中町２丁３４−４",
                "catholic": false
            }
        },
        {
            "type": "Feature",
            "geometry": {
                "type": "Point",
                "coordinates": [
                    135.8125524,
                    34.9482196
                ]
            },
            "properties": {
                "churchId": "1941043919ba88f093ccd3f616a8e869ab9aa3e9",
                "name": "みたまキリスト教会",
                "address": "〒601-1361 京都府京都市伏見区醍醐御霊ケ下町３８−１１",
                "catholic": false
            }
        },
        {
            "type": "Feature",
            "geometry": {
                "type": "Point",
                "coordinates": [
                    135.7677786,
                    35.0184381
                ]
            },
            "properties": {
                "churchId": "90d63ff12566dcd40f8a2d2e8ec4296a0c6982c8",
                "name": "京都インターナショナルチャーチ",
                "address": "〒602-0867 京都市上京区寺町通丸太町上ル松蔭町140-4",
                "catholic": false
            }
        },
        {
            "type": "Feature",
            "geometry": {
                "type": "Point",
                "coordinates": [
                    135.7543806,
                    35.047979
                ]
            },
            "properties": {
                "churchId": "d8dfaf573f7d87d1b829a3dc55b5355381fd799b",
                "name": "カトリック小山教会",
                "address": "〒603-8171 京都府京都市北区小山上初音町１２−１",
                "catholic": true
            }
        },
        {
            "type": "Feature",
            "geometry": {
                "type": "Point",
                "coordinates": [
                    135.7669581,
                    35.0039396
                ]
            },
            "properties": {
                "churchId": "ddd8a78ca14535bee30d6fe3cb14fc51cc05cf91",
                "name": "MUSTARD SEED クリスチャン教会 京都",
                "address": "〒604-8042 京都府京都市中京区中之町寺町通四条上る５５９",
                "catholic": false
            }
        },
        {
            "type": "Feature",
            "geometry": {
                "type": "Point",
                "coordinates": [
                    135.7906922,
                    35.0411146
                ]
            },
            "properties": {
                "churchId": "f5af462b73251035cf4d5621ca9d25db01f3ffe6",
                "name": "クリスチャン・フェロシップセンター",
                "address": "〒606-8161 京都府京都市左京区一乗寺木ノ本町２０",
                "catholic": false
            }
        },
        {
            "type": "Feature",
            "geometry": {
                "type": "Point",
                "coordinates": [
                    135.7767687,
                    35.0341562
                ]
            },
            "properties": {
                "churchId": "eeeabf02eb70a979ebe96ec3a4dd4c005b742a39",
                "name": "在日大韓基督教会 京都東山教会",
                "address": "〒606-8216 京都府京都市左京区田中南西浦町９０−３",
                "catholic": false
            }
        },
        {
            "type": "Feature",
            "geometry": {
                "type": "Point",
                "coordinates": [
                    135.7793324,
                    34.8746257
                ]
            },
            "properties": {
                "churchId": "b578026b23e31895949dc03470ff20e89f737d24",
                "name": "東方典礼カトリック教会",
                "address": "〒611-0031 京都府宇治市広野町西裏７７",
                "catholic": true
            }
        },
        {
            "type": "Feature",
            "geometry": {
                "type": "Point",
                "coordinates": [
                    135.7731608,
                    34.9549125
                ]
            },
            "properties": {
                "churchId": "4093aceac3bbc0dafa69f9829c5734a83a0662e7",
                "name": "Jesus Life Church",
                "address": "〒612-0876 京都府京都市伏見区伏見区 深草西伊達町87番地70",
                "catholic": false
            }
        },
        {
            "type": "Feature",
            "geometry": {
                "type": "Point",
                "coordinates": [
                    135.702285,
                    34.8841685
                ]
            },
            "properties": {
                "churchId": "8aa5d98f547baa4ab451cf0867f2ea130d814678",
                "name": "カトリック八幡教会",
                "address": "〒614-8002 京都府八幡市八幡５４",
                "catholic": true
            }
        },
        {
            "type": "Feature",
            "geometry": {
                "type": "Point",
                "coordinates": [
                    135.7322791,
                    34.6960401
                ]
            },
            "properties": {
                "churchId": "04875746765148d28d570b157e9f94bde7c55001",
                "name": "ホープチャペル",
                "address": "〒631-0077 奈良県奈良市富雄川西２−２−２０",
                "catholic": false
            }
        },
        {
            "type": "Feature",
            "geometry": {
                "type": "Point",
                "coordinates": [
                    135.7436812,
                    34.5113511
                ]
            },
            "properties": {
                "churchId": "eff9e3a309e59209cab3189b41f57f41e9eeea92",
                "name": "活けるキリスト高田一麦教会",
                "address": "〒635-0083 奈良県大和高田市永和町９−３３",
                "catholic": false
            }
        },
        {
            "type": "Feature",
            "geometry": {
                "type": "Point",
                "coordinates": [
                    135.7588588,
                    34.6301229
                ]
            },
            "properties": {
                "churchId": "fe8c10e851c0799a1ff7c9493171ab3c1df2f72e",
                "name": "大和郡山聖書キリスト教会",
                "address": "〒639-1042 奈良県大和郡山市小泉町９１８",
                "catholic": false
            }
        },
        {
            "type": "Feature",
            "geometry": {
                "type": "Point",
                "coordinates": [
                    135.3094701,
                    34.2157097
                ]
            },
            "properties": {
                "churchId": "7908837e4e2be80ac5976f7384eb7497c8456793",
                "name": "貴志川基督教会",
                "address": "〒640-0412 和歌山県紀の川市貴志川町上野山３０２−１",
                "catholic": false
            }
        },
        {
            "type": "Feature",
            "geometry": {
                "type": "Point",
                "coordinates": [
                    135.2082022,
                    34.2651775
                ]
            },
            "properties": {
                "churchId": "8c5735134ee7b1d959678774d8528e1680baed71",
                "name": "聖イエス会聖徒教会",
                "address": "〒640-8482 和歌山県和歌山市六十谷５４５−１",
                "catholic": false
            }
        },
        {
            "type": "Feature",
            "geometry": {
                "type": "Point",
                "coordinates": [
                    135.1784395,
                    34.6856279
                ]
            },
            "properties": {
                "churchId": "519d13345c7eea12be0de96a322bada81f1f0e98",
                "name": "山手教会",
                "address": "〒650-0011 兵庫県神戸市中央区下山手通８−５−１５",
                "catholic": false
            }
        },
        {
            "type": "Feature",
            "geometry": {
                "type": "Point",
                "coordinates": [
                    135.1586594,
                    34.6631794
                ]
            },
            "properties": {
                "churchId": "4d7b85c861df6af88dd8743aaa4e1ca55457e7f9",
                "name": "神戸教会",
                "address": "〒653-0021 兵庫県神戸市長田区梅ケ香町１丁目２",
                "catholic": false
            }
        },
        {
            "type": "Feature",
            "geometry": {
                "type": "Point",
                "coordinates": [
                    135.1533059,
                    34.6609309
                ]
            },
            "properties": {
                "churchId": "5112a23c11ba4a2c2e0cd4616614a89690315528",
                "name": "神戸キリスト教会",
                "address": "〒653-0025 兵庫県神戸市長田区真野町７−４",
                "catholic": false
            }
        },
        {
            "type": "Feature",
            "geometry": {
                "type": "Point",
                "coordinates": [
                    135.145367,
                    34.65212
                ]
            },
            "properties": {
                "churchId": "5b84d37e4d2868a0edfc9bef4b1068c98b1ec75e",
                "name": "新神戸教会",
                "address": "〒653-0041 兵庫県神戸市長田区久保町７丁目４−５",
                "catholic": false
            }
        },
        {
            "type": "Feature",
            "geometry": {
                "type": "Point",
                "coordinates": [
                    135.1222103,
                    34.6550531
                ]
            },
            "properties": {
                "churchId": "808b4bcd8f6bb269bed1a58d3447318330c98794",
                "name": "聖ヨハネ病院 修道会",
                "address": "〒654-0015 兵庫県神戸市須磨区奥山畑町２",
                "catholic": true
            }
        },
        {
            "type": "Feature",
            "geometry": {
                "type": "Point",
                "coordinates": [
                    135.1089425,
                    34.6807358
                ]
            },
            "properties": {
                "churchId": "fafdca0a617d72352679803f760421210ea068dc",
                "name": "アガペ聖書教会",
                "address": "〒654-0121 兵庫県神戸市須磨区妙法寺トン松４−２０",
                "catholic": false
            }
        },
        {
            "type": "Feature",
            "geometry": {
                "type": "Point",
                "coordinates": [
                    135.4347096,
                    34.7277078
                ]
            },
            "properties": {
                "churchId": "b1854dae2ab73875b4f5647b336cd7b44ff945a9",
                "name": "復活イエスキリスト教会",
                "address": "〒660-0802 兵庫県尼崎市長洲中通１丁目１２−38",
                "catholic": false
            }
        },
        {
            "type": "Feature",
            "geometry": {
                "type": "Point",
                "coordinates": [
                    134.821666,
                    35.5442085
                ]
            },
            "properties": {
                "churchId": "9208db222beeeda6d9a4dfcefa7962e1094a8e40",
                "name": "日本キリスト教団豊岡教会",
                "address": "〒668-0033 兵庫県豊岡市中央町４−３",
                "catholic": false
            }
        },
        {
            "type": "Feature",
            "geometry": {
                "type": "Point",
                "coordinates": [
                    134.8123875,
                    35.6243621
                ]
            },
            "properties": {
                "churchId": "ad8b2d0c98a94bf28abb729ede2cf6fdd255758c",
                "name": "日本キリスト教団城崎教会",
                "address": "〒669-6101 兵庫県豊岡市城崎町湯島３００",
                "catholic": false
            }
        },
        {
            "type": "Feature",
            "geometry": {
                "type": "Point",
                "coordinates": [
                    134.9534575,
                    34.6561986
                ]
            },
            "properties": {
                "churchId": "58a2faf434b40bc34f84a85e3baa7185f67fc886",
                "name": "明石キリストの教会",
                "address": "〒673-0044 兵庫県明石市藤江２０７",
                "catholic": false
            }
        },
        {
            "type": "Feature",
            "geometry": {
                "type": "Point",
                "coordinates": [
                    134.9487723,
                    34.6758952
                ]
            },
            "properties": {
                "churchId": "e1f4c3e280d4990afda1ef62f0a82e08a37c4c5e",
                "name": "泉キリスト教会",
                "address": "〒674-0067 兵庫県明石市大久保町７４７−２",
                "catholic": false
            }
        },
        {
            "type": "Feature",
            "geometry": {
                "type": "Point",
                "coordinates": [
                    134.8988249,
                    34.7213256
                ]
            },
            "properties": {
                "churchId": "e6bc495c27c66a5818917b934eb54ec7bf6bd8bf",
                "name": "日本キリスト教団ベテル清水教会",
                "address": "〒674-0074 兵庫県明石市魚住町清水２４２７−２",
                "catholic": false
            }
        },
        {
            "type": "Feature",
            "geometry": {
                "type": "Point",
                "coordinates": [
                    134.8115725,
                    34.7831186
                ]
            },
            "properties": {
                "churchId": "382caf788046d7679be5396e2f811b4abf099fec",
                "name": "高砂国際キリスト教会",
                "address": "〒675-0054 兵庫県加古川市米田町平津４７７−１１",
                "catholic": false
            }
        },
        {
            "type": "Feature",
            "geometry": {
                "type": "Point",
                "coordinates": [
                    132.0858407,
                    34.8989337
                ]
            },
            "properties": {
                "churchId": "9f4670c92755be4692dda18bc8ec7a955a3e0416",
                "name": "浜田キリスト教会",
                "address": "〒697-0033 島根県浜田市朝日町４２−１",
                "catholic": false
            }
        },
        {
            "type": "Feature",
            "geometry": {
                "type": "Point",
                "coordinates": [
                    134.1554335,
                    34.7993526
                ]
            },
            "properties": {
                "churchId": "3b1dac973dc7a2ef84d6ad7292efda2a6f599622",
                "name": "和気教会",
                "address": "〒709-0441 岡山県和気郡和気町衣笠９６８−５",
                "catholic": false
            }
        },
        {
            "type": "Feature",
            "geometry": {
                "type": "Point",
                "coordinates": [
                    133.7453951,
                    34.5363044
                ]
            },
            "properties": {
                "churchId": "362c4b9f220cdb58ec03f22397d2af9dec0bb51b",
                "name": "水島聖約キリスト教会",
                "address": "〒712-8032 岡山県倉敷市北畝１丁目１２−３０",
                "catholic": false
            }
        },
        {
            "type": "Feature",
            "geometry": {
                "type": "Point",
                "coordinates": [
                    133.1952207,
                    34.3981493
                ]
            },
            "properties": {
                "churchId": "728847269de38bdbd1a4985eea32f805c43bcf9c",
                "name": "向島キリスト教会",
                "address": "〒722-0073 広島県尾道市向島町１６０５８−２２",
                "catholic": false
            }
        },
        {
            "type": "Feature",
            "geometry": {
                "type": "Point",
                "coordinates": [
                    132.9114115,
                    34.3421094
                ]
            },
            "properties": {
                "churchId": "9738be686d9ee53a7b1325c3c79540fa59e37b85",
                "name": "竹原キリスト教会",
                "address": "〒725-0026 広島県竹原市中央２丁目１７−１１",
                "catholic": false
            }
        },
        {
            "type": "Feature",
            "geometry": {
                "type": "Point",
                "coordinates": [
                    133.2359969,
                    34.57538
                ]
            },
            "properties": {
                "churchId": "36c69eb81c3466166ee2f765bbd36194dc5d0284",
                "name": "日本アライアンス教団府中キリスト教会",
                "address": "〒726-0003 広島県府中市元町５４１",
                "catholic": false
            }
        },
        {
            "type": "Feature",
            "geometry": {
                "type": "Point",
                "coordinates": [
                    132.4442423,
                    34.3887894
                ]
            },
            "properties": {
                "churchId": "6a2a491628bd91a08695ad7124143681ab722e61",
                "name": "日本バプテスト広島キリスト教会",
                "address": "〒730-0841 広島県広島市中区舟入町１２−７",
                "catholic": false
            }
        },
        {
            "type": "Feature",
            "geometry": {
                "type": "Point",
                "coordinates": [
                    132.4729373,
                    34.4648519
                ]
            },
            "properties": {
                "churchId": "058c7f5abcd2595c094a6b1ed01cc9c5d965f01b",
                "name": "広島キリスト教会",
                "address": "〒731-0103 広島県広島市安佐南区緑井２丁目２１−２１",
                "catholic": false
            }
        },
        {
            "type": "Feature",
            "geometry": {
                "type": "Point",
                "coordinates": [
                    132.5061463,
                    34.5168826
                ]
            },
            "properties": {
                "churchId": "4eb34a05f195831ef622561b80e86ceb86a717b0",
                "name": "広島可部キリスト教会",
                "address": "〒731-0221 広島県広島市安佐北区可部４丁目１９−６",
                "catholic": false
            }
        },
        {
            "type": "Feature",
            "geometry": {
                "type": "Point",
                "coordinates": [
                    132.1974367,
                    34.1198327
                ]
            },
            "properties": {
                "churchId": "18daf3edae8c2223e1b572b1a66e6d2704d0ec8b",
                "name": "Iglesia Ni Cristo / Church of Christ",
                "address": "〒740-0034 山口県岩国市南岩国町５丁目５７−１０",
                "catholic": false
            }
        },
        {
            "type": "Feature",
            "geometry": {
                "type": "Point",
                "coordinates": [
                    131.9619178,
                    33.9900473
                ]
            },
            "properties": {
                "churchId": "497c17b8c91a46751311d6c2242e8302927609a3",
                "name": "光キリスト教会",
                "address": "〒743-0065 山口県光市上島田３丁目１−２８",
                "catholic": false
            }
        },
        {
            "type": "Feature",
            "geometry": {
                "type": "Point",
                "coordinates": [
                    131.1882928,
                    34.0163467
                ]
            },
            "properties": {
                "churchId": "8ed01a38d2a8d4d196c4096172de4c5ecdaa99ce",
                "name": "カトリック・キリストイエズス宣教会",
                "address": "〒756-0080 山口県山陽小野田市楴山３丁目５−３",
                "catholic": true
            }
        },
        {
            "type": "Feature",
            "geometry": {
                "type": "Point",
                "coordinates": [
                    134.6601515,
                    33.9188241
                ]
            },
            "properties": {
                "churchId": "b725a65b3afbaaa3e7a8ab8e57feca4f8ba9e13c",
                "name": "富岡キリスト教会",
                "address": "〒774-0030 徳島県阿南市富岡町あ石１−２",
                "catholic": false
            }
        },
        {
            "type": "Feature",
            "geometry": {
                "type": "Point",
                "coordinates": [
                    133.8127962,
                    34.026518
                ]
            },
            "properties": {
                "churchId": "824b404f64a2ce0b5b86b438687d5af7255f691a",
                "name": "カトリック池田教会",
                "address": "〒778-0004 徳島県三好市池田町シンマチ１４３６−１",
                "catholic": true
            }
        },
        {
            "type": "Feature",
            "geometry": {
                "type": "Point",
                "coordinates": [
                    132.7140616,
                    33.793206
                ]
            },
            "properties": {
                "churchId": "7357abdc42e2df38e29c645215d05793a844ce21",
                "name": "日本キリスト教団 松前教会",
                "address": "〒791-3134 愛媛県伊予郡松前町西古泉１０２−２",
                "catholic": false
            }
        },
        {
            "type": "Feature",
            "geometry": {
                "type": "Point",
                "coordinates": [
                    132.9929332,
                    34.0656932
                ]
            },
            "properties": {
                "churchId": "09a7529423edd3a9dab9d9612cec4b7bba3a83c1",
                "name": "今治ホーリネス教会",
                "address": "〒794-0028 愛媛県今治市北宝来町３丁目１−２２",
                "catholic": false
            }
        },
        {
            "type": "Feature",
            "geometry": {
                "type": "Point",
                "coordinates": [
                    130.445492,
                    33.5526682
                ]
            },
            "properties": {
                "churchId": "2a178917e07e0eb260b176c8b024c9123a0682ea",
                "name": "日本キリスト教会福岡筑紫野教会",
                "address": "〒811-1302 福岡県福岡市南区井尻３丁目７−３１",
                "catholic": false
            }
        },
        {
            "type": "Feature",
            "geometry": {
                "type": "Point",
                "coordinates": [
                    130.4059096,
                    33.5987938
                ]
            },
            "properties": {
                "churchId": "7706e9e9fd9475f0079f4f7107772309a8b09df1",
                "name": "Japanese Christian Churches",
                "address": "〒812-0023 福岡県福岡市博多区奈良屋町５−１８ 上田第一ビル",
                "catholic": false
            }
        },
        {
            "type": "Feature",
            "geometry": {
                "type": "Point",
                "coordinates": [
                    130.5296387,
                    33.516197
                ]
            },
            "properties": {
                "churchId": "3f6fd00113390f7f398ac0a8bc09c2fd6ebe5c5c",
                "name": "第一バプテスト教会",
                "address": "〒818-0125 福岡県太宰府市五条１丁目１４−１８",
                "catholic": false
            }
        },
        {
            "type": "Feature",
            "geometry": {
                "type": "Point",
                "coordinates": [
                    130.5206071,
                    33.3027497
                ]
            },
            "properties": {
                "churchId": "78f4ebb3ab9884b6b5d9216269da927b3fbbf727",
                "name": "久留米キリスト教会",
                "address": "〒830-0038 福岡県久留米市西町８５１",
                "catholic": false
            }
        },
        {
            "type": "Feature",
            "geometry": {
                "type": "Point",
                "coordinates": [
                    130.4641049,
                    33.2478764
                ]
            },
            "properties": {
                "churchId": "f5dc9ff9e132aa871fff71e34d9fbf7d0530743e",
                "name": "日本キリスト教会犬塚教会",
                "address": "〒830-0112 福岡県久留米市三潴町玉満１９１８−３",
                "catholic": false
            }
        },
        {
            "type": "Feature",
            "geometry": {
                "type": "Point",
                "coordinates": [
                    129.8780366,
                    33.2760464
                ]
            },
            "properties": {
                "churchId": "3c67d22b4caa1cda9905c1a6a23b30937bfb02be",
                "name": "日本キリスト教団伊万里教会",
                "address": "〒848-0046 佐賀県伊万里市 伊万里町乙相生町59",
                "catholic": false
            }
        },
        {
            "type": "Feature",
            "geometry": {
                "type": "Point",
                "coordinates": [
                    129.8721457,
                    32.7546388
                ]
            },
            "properties": {
                "churchId": "f6d985297001b12d68e4cddb4b6e8af80a9285bf",
                "name": "Church of St Philip",
                "address": "〒850-0051 長崎県長崎市西坂町８−１１",
                "catholic": true
            }
        },
        {
            "type": "Feature",
            "geometry": {
                "type": "Point",
                "coordinates": [
                    129.8679893,
                    32.7772562
                ]
            },
            "properties": {
                "churchId": "76de10429b3a756130135ce7d08a512f21ac959e",
                "name": "カトリック生涯養成委員会",
                "address": "〒852-8113 長崎県長崎市上野町１０−３４",
                "catholic": true
            }
        },
        {
            "type": "Feature",
            "geometry": {
                "type": "Point",
                "coordinates": [
                    130.5475806,
                    31.5764649
                ]
            },
            "properties": {
                "churchId": "fdc68fba4177603348ccfc1f78c38f61f6fffb6f",
                "name": "グレイトハーベストチャーチ",
                "address": "〒890-0055 鹿児島県鹿児島市上荒田町１２−７",
                "catholic": false
            }
        },
        {
            "type": "Feature",
            "geometry": {
                "type": "Point",
                "coordinates": [
                    127.684355,
                    26.2263044
                ]
            },
            "properties": {
                "churchId": "63870c9c40ce43f69e94f93f55a21f6d1236f60b",
                "name": "日本キリスト教団うるま伝道所",
                "address": "〒900-0012 沖縄県那覇市泊３丁目１３−１６",
                "catholic": false
            }
        },
        {
            "type": "Feature",
            "geometry": {
                "type": "Point",
                "coordinates": [
                    127.7171019,
                    26.2237633
                ]
            },
            "properties": {
                "churchId": "b9b8e51558dbc9f2b910e50c83fb3cd009b9d365",
                "name": "那覇福音自由教会",
                "address": "〒903-0822 沖縄県那覇市首里桃原町１丁目９−９",
                "catholic": false
            }
        },
        {
            "type": "Feature",
            "geometry": {
                "type": "Point",
                "coordinates": [
                    136.2221074,
                    36.0755017
                ]
            },
            "properties": {
                "churchId": "7be9fb3f218cda555a4afbe53e28ad59ad54c395",
                "name": "キリスト集会所",
                "address": "〒910-0017 福井県福井市文京１丁目３−１９",
                "catholic": false
            }
        },
        {
            "type": "Feature",
            "geometry": {
                "type": "Point",
                "coordinates": [
                    136.0695296,
                    35.6484929
                ]
            },
            "properties": {
                "churchId": "a684afcc051b3980ab7ee4b2e937292edc9659ec",
                "name": "愛の教会",
                "address": "〒914-0056 福井県敦賀市津内町２丁目１２−１",
                "catholic": false
            }
        },
        {
            "type": "Feature",
            "geometry": {
                "type": "Point",
                "coordinates": [
                    136.6290032,
                    36.555162
                ]
            },
            "properties": {
                "churchId": "bda15f5158be1724e09e5307a3efc6c918e7c2f5",
                "name": "ＳＤＡ金沢キリスト教会",
                "address": "〒921-8043 石川県金沢市西泉６丁目１９９−３",
                "catholic": false
            }
        },
        {
            "type": "Feature",
            "geometry": {
                "type": "Point",
                "coordinates": [
                    136.4598863,
                    36.4030722
                ]
            },
            "properties": {
                "churchId": "3c861d6db502f1ec7c4bf0f69b5707d6a79ace37",
                "name": "Igreja Evangelica Avivamento Japao",
                "address": "〒923-0803 石川県小松市宝町５２",
                "catholic": false
            }
        },
        {
            "type": "Feature",
            "geometry": {
                "type": "Point",
                "coordinates": [
                    137.2624667,
                    36.6974156
                ]
            },
            "properties": {
                "churchId": "de3cc033c7a00bde916f08279e0131205b859f46",
                "name": "キリスト集会所",
                "address": "〒930-0992 富山県富山市新庄町１１９−１",
                "catholic": false
            }
        },
        {
            "type": "Feature",
            "geometry": {
                "type": "Point",
                "coordinates": [
                    137.2212081,
                    36.6687578
                ]
            },
            "properties": {
                "churchId": "1b4dbb278d82ac08898fee667fc1723b3ca57657",
                "name": "(単立)恵みバプテスト教会",
                "address": "〒939-8073 富山県富山市大町２４０",
                "catholic": false
            }
        },
        {
            "type": "Feature",
            "geometry": {
                "type": "Point",
                "coordinates": [
                    138.8482504,
                    37.4515402
                ]
            },
            "properties": {
                "churchId": "604ec48e00fa13d451bb355c8d439c6c8821157a",
                "name": "カトリック 長岡教会",
                "address": "〒940-0071 新潟県長岡市表町４丁目１−５",
                "catholic": true
            }
        },
        {
            "type": "Feature",
            "geometry": {
                "type": "Point",
                "coordinates": [
                    139.1052327,
                    37.8676664
                ]
            },
            "properties": {
                "churchId": "d2181927bee091843e6f31cd676625cb192dfaf9",
                "name": "カトリック亀田教会",
                "address": "〒950-0153 新潟県新潟市江南区船戸山４丁目５−７",
                "catholic": true
            }
        },
        {
            "type": "Feature",
            "geometry": {
                "type": "Point",
                "coordinates": [
                    139.0443088,
                    37.6673256
                ]
            },
            "properties": {
                "churchId": "6567fb1b93227a74fb48b7784162f95fcacd95de",
                "name": "加茂キリストの教会",
                "address": "〒959-1312 新潟県加茂市石川２丁目２−５６",
                "catholic": false
            }
        },
        {
            "type": "Feature",
            "geometry": {
                "type": "Point",
                "coordinates": [
                    139.1824164,
                    37.7409034
                ]
            },
            "properties": {
                "churchId": "b5486d9ae73c806fcaa89034ba5e2cf5f2390654",
                "name": "五泉教会",
                "address": "〒959-1863 新潟県五泉市東本町２丁目８−４１",
                "catholic": false
            }
        },
        {
            "type": "Feature",
            "geometry": {
                "type": "Point",
                "coordinates": [
                    139.9207153,
                    37.4871708
                ]
            },
            "properties": {
                "churchId": "399bc4fede303f4e2ace2ed594769188f98c55fd",
                "name": "救世軍若松小隊",
                "address": "〒965-0875 福島県会津若松市６ 福島県会津若松市米代2丁目6−31",
                "catholic": false
            }
        },
        {
            "type": "Feature",
            "geometry": {
                "type": "Point",
                "coordinates": [
                    140.8766318,
                    38.2670752
                ]
            },
            "properties": {
                "churchId": "01dc1599b58ee843b8aeaf20a6449e7d43a657ca",
                "name": "フェイスコミュニティバプテスト教会",
                "address": "〒980-0014 宮城県仙台市青葉区本町１丁目１４−１６ 丁目",
                "catholic": false
            }
        },
        {
            "type": "Feature",
            "geometry": {
                "type": "Point",
                "coordinates": [
                    140.8661825,
                    38.2663047
                ]
            },
            "properties": {
                "churchId": "a7ab60bb1051a34da820bebd47ce2a8e7f23648a",
                "name": "Praise Community Church",
                "address": "〒980-0821 宮城県仙台市青葉区春日町６−６−１８",
                "catholic": false
            }
        },
        {
            "type": "Feature",
            "geometry": {
                "type": "Point",
                "coordinates": [
                    140.8445764,
                    38.2600558
                ]
            },
            "properties": {
                "churchId": "0e4735ad2dbf937668f4ea6dbb8ca1e24d7f54b9",
                "name": "日本基督教団仙台愛泉教会",
                "address": "〒980-0845 宮城県仙台市青葉区荒巻青葉４２８",
                "catholic": false
            }
        },
        {
            "type": "Feature",
            "geometry": {
                "type": "Point",
                "coordinates": [
                    140.9189452,
                    38.2848117
                ]
            },
            "properties": {
                "churchId": "0e2cf74af9fa47499244c27936660381ae85dc99",
                "name": "SEASIDE BIBLE CHURCH グレース宣教会つばめさわ教会",
                "address": "〒983-0823 宮城県仙台市宮城野区燕沢２丁目１０−６８",
                "catholic": false
            }
        },
        {
            "type": "Feature",
            "geometry": {
                "type": "Point",
                "coordinates": [
                    141.3430774,
                    43.0872952
                ]
            },
            "properties": {
                "churchId": "f3b2752cf43d57c5754c2fe230f5d5c5cd7d9e69",
                "name": "救世軍 札幌小隊",
                "address": "〒001-0022 北海道札幌市北区北２２条西５丁目１−５",
                "catholic": false
            }
        },
        {
            "type": "Feature",
            "geometry": {
                "type": "Point",
                "coordinates": [
                    141.325763,
                    43.094877
                ]
            },
            "properties": {
                "churchId": "0abfa98ca3da660f54d3b2094ff73064ebeb1ca9",
                "name": "札幌キリスト福音館",
                "address": "〒001-0027 北海道札幌市北区北２７条西１５丁目１−２８",
                "catholic": false
            }
        },
        {
            "type": "Feature",
            "geometry": {
                "type": "Point",
                "coordinates": [
                    141.324127,
                    43.095494
                ]
            },
            "properties": {
                "churchId": "aee099f98334f564259f01d415b4fa958edca4d4",
                "name": "日本ホーリネス教団札幌教会",
                "address": "〒001-0027 北海道札幌市北区北２７条西１６丁目１−６",
                "catholic": false
            }
        },
        {
            "type": "Feature",
            "geometry": {
                "type": "Point",
                "coordinates": [
                    141.3422209,
                    43.0975868
                ]
            },
            "properties": {
                "churchId": "4cabf143233334294f2f3bd4873eccd82a3a78f3",
                "name": "日本福音ルーテル札幌北教会",
                "address": "〒001-0031 北海道札幌市北区北３１条西４丁目１−５",
                "catholic": false
            }
        },
        {
            "type": "Feature",
            "geometry": {
                "type": "Point",
                "coordinates": [
                    141.343216,
                    43.105265
                ]
            },
            "properties": {
                "churchId": "f3be4171f9e7414a7647dfb68e320e245ce78464",
                "name": "ＳＤＡ札幌キリスト教会",
                "address": "〒001-0037 北海道札幌市北区北３７条西２丁目１−２４",
                "catholic": false
            }
        },
        {
            "type": "Feature",
            "geometry": {
                "type": "Point",
                "coordinates": [
                    141.3394495,
                    43.1106567
                ]
            },
            "properties": {
                "churchId": "16ef75414584124c277649a2848a343eab182384",
                "name": "日本キリスト教団麻生教会",
                "address": "〒001-0045 北海道札幌市北区麻生町４丁目１１−１４",
                "catholic": false
            }
        },
        {
            "type": "Feature",
            "geometry": {
                "type": "Point",
                "coordinates": [
                    141.3768806,
                    43.1572805
                ]
            },
            "properties": {
                "churchId": "34820e1b65c11c38130b56d03a82113caff1d6c7",
                "name": "札幌新生キリスト教会",
                "address": "〒002-8067 北海道札幌市北区拓北７条２丁目１−２３",
                "catholic": false
            }
        },
        {
            "type": "Feature",
            "geometry": {
                "type": "Point",
                "coordinates": [
                    141.395244,
                    43.160991
                ]
            },