{
    "type": "FeatureCollection",
    "features": [
        {
            "type": "Feature",
            "geometry": {
                "type": "Point",
                "coordinates": [
                    135.50689,
                    34.69176
                ]
            },
            "properties": {
                "stationId": "cv725",
                "company": "京阪電気鉄道",
                "line": "京阪本線",
                "name": "北浜",
                "passengers": 29421
            }
        },
        {
            "type": "Feature",
            "geometry": {
                "type": "Point",
                "coordinates": [
                    135.50122,
                    34.69251
                ]
            },
            "properties": {
                "stationId": "cv726",
                "company": "京阪電気鉄道",
                "line": "京阪本線",
                "name": "淀屋橋",
                "passengers": 96566
            }
        },
        {
            "type": "Feature",
            "geometry": {
                "type": "Point",
                "coordinates": [
                    135.51552,
                    34.6904
                ]
            },
            "properties": {
                "stationId": "cv727",
                "company": "京阪電気鉄道",
                "line": "京阪本線",
                "name": "天満橋",
                "passengers": 48027
            }
        },
        {
            "type": "Feature",
            "geometry": {
                "type": "Point",
                "coordinates": [
                    135.53143,
                    34.69686
                ]
            },
            "properties": {
                "stationId": "cv732",
                "company": "京阪電気鉄道",
                "line": "京阪本線",
                "name": "京橋",
                "passengers": 157302
            }
        },
        {
            "type": "Feature",
            "geometry": {
                "type": "Point",
                "coordinates": [
                    135.54298,
                    34.70678
                ]
            },
            "properties": {
                "stationId": "cv733",
                "company": "京阪電気鉄道",
                "line": "京阪本線",
                "name": "野江",
                "passengers": 10837
            }
        },
        {
            "type": "Feature",
            "geometry": {
                "type": "Point",
                "coordinates": [
                    135.49851,
                    34.7257
                ]
            },
            "properties": {
                "stationId": "cv2230",
                "company": "阪急電鉄",
                "line": "京都線",
                "name": "南方",
                "passengers": 37234
            }
        },
        {
            "type": "Feature",
            "geometry": {
                "type": "Point",
                "coordinates": [
                    135.49855,
                    34.7047
                ]
            },
            "properties": {
                "stationId": "cv2255",
                "company": "阪急電鉄",
                "line": "神戸線",
                "name": "梅田",
                "passengers": 510643
            }
        },
        {
            "type": "Feature",
            "geometry": {
                "type": "Point",
                "coordinates": [
                    135.49169,
                    34.71006
                ]
            },
            "properties": {
                "stationId": "cv2256",
                "company": "阪急電鉄",
                "line": "神戸線",
                "name": "中津",
                "passengers": 9739
            }
        },
        {
            "type": "Feature",
            "geometry": {
                "type": "Point",
                "coordinates": [
                    135.49802,
                    34.70191
                ]
            },
            "properties": {
                "stationId": "cv2369",
                "company": "阪神電気鉄道",
                "line": "本線",
                "name": "梅田",
                "passengers": 165237
            }
        },
        {
            "type": "Feature",
            "geometry": {
                "type": "Point",
                "coordinates": [
                    135.48749,
                    34.69578
                ]
            },
            "properties": {
                "stationId": "cv2371",
                "company": "阪神電気鉄道",
                "line": "本線",
                "name": "福島",
                "passengers": 10722
            }
        },
        {
            "type": "Feature",
            "geometry": {
                "type": "Point",
                "coordinates": [
                    135.48464,
                    34.69454
                ]
            },
            "properties": {
                "stationId": "cv3463",
                "company": "西日本旅客鉄道",
                "line": "JR東西線",
                "name": "新福島",
                "passengers": 19797
            }
        },
        {
            "type": "Feature",
            "geometry": {
                "type": "Point",
                "coordinates": [
                    135.49584,
                    34.69843
                ]
            },
            "properties": {
                "stationId": "cv3464",
                "company": "西日本旅客鉄道",
                "line": "JR東西線",
                "name": "北新地",
                "passengers": 101577
            }
        },
        {
            "type": "Feature",
            "geometry": {
                "type": "Point",
                "coordinates": [
                    135.52479,
                    34.69504
                ]
            },
            "properties": {
                "stationId": "cv3465",
                "company": "西日本旅客鉄道",
                "line": "JR東西線",
                "name": "大阪城北詰",
                "passengers": 9658
            }
        },
        {
            "type": "Feature",
            "geometry": {
                "type": "Point",
                "coordinates": [
                    135.51232,
                    34.69749
                ]
            },
            "properties": {
                "stationId": "cv3468",
                "company": "西日本旅客鉄道",
                "line": "JR東西線",
                "name": "大阪天満宮",
                "passengers": 50020
            }
        },
        {
            "type": "Feature",
            "geometry": {
                "type": "Point",
                "coordinates": [
                    135.52163,
                    34.7052
                ]
            },
            "properties": {
                "stationId": "cv4334",
                "company": "西日本旅客鉄道",
                "line": "大阪環状線",
                "name": "桜ノ宮",
                "passengers": 35185
            }
        },
        {
            "type": "Feature",
            "geometry": {
                "type": "Point",
                "coordinates": [
                    135.53427,
                    34.68688
                ]
            },
            "properties": {
                "stationId": "cv4342",
                "company": "西日本旅客鉄道",
                "line": "大阪環状線",
                "name": "大阪城公園",
                "passengers": 25998
            }
        },
        {
            "type": "Feature",
            "geometry": {
                "type": "Point",
                "coordinates": [
                    135.48736,
                    34.69757
                ]
            },
            "properties": {
                "stationId": "cv4343",
                "company": "西日本旅客鉄道",
                "line": "大阪環状線",
                "name": "福島",
                "passengers": 57592
            }
        },
        {
            "type": "Feature",
            "geometry": {
                "type": "Point",
                "coordinates": [
                    135.53358,
                    34.69761
                ]
            },
            "properties": {
                "stationId": "cv4344",
                "company": "西日本旅客鉄道",
                "line": "大阪環状線",
                "name": "京橋",
                "passengers": 267599
            }
        },
        {
            "type": "Feature",
            "geometry": {
                "type": "Point",
                "coordinates": [
                    135.51317,
                    34.70443
                ]
            },
            "properties": {
                "stationId": "cv4345",
                "company": "西日本旅客鉄道",
                "line": "大阪環状線",
                "name": "天満",
                "passengers": 52005
            }
        },
        {
            "type": "Feature",
            "geometry": {
                "type": "Point",
                "coordinates": [
                    135.4969,
                    34.70306
                ]
            },
            "properties": {
                "stationId": "cv4412",
                "company": "西日本旅客鉄道",
                "line": "東海道線",
                "name": "大阪",
                "passengers": 872374
            }
        },
        {
            "type": "Feature",
            "geometry": {
                "type": "Point",
                "coordinates": [
                    135.49645,
                    34.71048
                ]
            },
            "properties": {
                "stationId": "cv5046",
                "company": "大阪市",
                "line": "1号線(御堂筋線)",
                "name": "中津",
                "passengers": 40410
            }
        },
        {
            "type": "Feature",
            "geometry": {
                "type": "Point",
                "coordinates": [
                    135.50073,
                    34.68482
                ]
            },
            "properties": {
                "stationId": "cv5051",
                "company": "大阪市",
                "line": "1号線(御堂筋線)",
                "name": "本町",
                "passengers": 217449
            }
        },
        {
            "type": "Feature",
            "geometry": {
                "type": "Point",
                "coordinates": [
                    135.50097,
                    34.69277
                ]
            },
            "properties": {
                "stationId": "cv5052",
                "company": "大阪市",
                "line": "1号線(御堂筋線)",
                "name": "淀屋橋",
                "passengers": 228722
            }
        },
        {
            "type": "Feature",
            "geometry": {
                "type": "Point",
                "coordinates": [
                    135.49734,
                    34.70415
                ]
            },
            "properties": {
                "stationId": "cv5053",
                "company": "大阪市",
                "line": "1号線(御堂筋線)",
                "name": "梅田",
                "passengers": 438763
            }
        },
        {
            "type": "Feature",
            "geometry": {
                "type": "Point",
                "coordinates": [
                    135.5062,
                    34.70769
                ]
            },
            "properties": {
                "stationId": "cv5068",
                "company": "大阪市",
                "line": "2号線(谷町線)",
                "name": "中崎町",
                "passengers": 14523
            }
        },
        {
            "type": "Feature",
            "geometry": {
                "type": "Point",
                "coordinates": [
                    135.51725,
                    34.69015
                ]
            },
            "properties": {
                "stationId": "cv5069",
                "company": "大阪市",
                "line": "2号線(谷町線)",
                "name": "天満橋",
                "passengers": 90841
            }
        },
        {
            "type": "Feature",
            "geometry": {
                "type": "Point",
                "coordinates": [
                    135.50969,
                    34.69766
                ]
            },
            "properties": {
                "stationId": "cv5070",
                "company": "大阪市",
                "line": "2号線(谷町線)",
                "name": "南森町",
                "passengers": 84394
            }
        },
        {
            "type": "Feature",
            "geometry": {
                "type": "Point",
                "coordinates": [
                    135.53927,
                    34.71009
                ]
            },
            "properties": {
                "stationId": "cv5071",
                "company": "大阪市",
                "line": "2号線(谷町線)",
                "name": "野江内代",
                "passengers": 11508
            }
        },
        {
            "type": "Feature",
            "geometry": {
                "type": "Point",
                "coordinates": [
                    135.52722,
                    34.70901
                ]
            },
            "properties": {
                "stationId": "cv5072",
                "company": "大阪市",
                "line": "2号線(谷町線)",
                "name": "都島",
                "passengers": 36064
            }
        },
        {
            "type": "Feature",
            "geometry": {
                "type": "Point",
                "coordinates": [
                    135.51733,
                    34.68321
                ]
            },
            "properties": {
                "stationId": "cv5073",
                "company": "大阪市",
                "line": "2号線(谷町線)",
                "name": "谷町四丁目",
                "passengers": 93358
            }
        },
        {
            "type": "Feature",
            "geometry": {
                "type": "Point",
                "coordinates": [
                    135.51342,
                    34.71015
                ]
            },
            "properties": {
                "stationId": "cv5074",
                "company": "大阪市",
                "line": "2号線(谷町線)",
                "name": "天神橋筋六丁目",
                "passengers": 55518
            }
        },
        {
            "type": "Feature",
            "geometry": {
                "type": "Point",
                "coordinates": [
                    135.51711,
                    34.67586
                ]
            },
            "properties": {
                "stationId": "cv5078",
                "company": "大阪市",
                "line": "2号線(谷町線)",
                "name": "谷町六丁目",
                "passengers": 34831
            }
        },
        {
            "type": "Feature",
            "geometry": {
                "type": "Point",
                "coordinates": [
                    135.49949,
                    34.70143
                ]
            },
            "properties": {
                "stationId": "cv5079",
                "company": "大阪市",
                "line": "2号線(谷町線)",
                "name": "東梅田",
                "passengers": 168539
            }
        },
        {
            "type": "Feature",
            "geometry": {
                "type": "Point",
                "coordinates": [
                    135.49571,
                    34.70032
                ]
            },
            "properties": {
                "stationId": "cv5091",
                "company": "大阪市",
                "line": "3号線(四つ橋線)",
                "name": "西梅田",
                "passengers": 115945
            }
        },
        {
            "type": "Feature",
            "geometry": {
                "type": "Point",
                "coordinates": [
                    135.4963,
                    34.69181
                ]
            },
            "properties": {
                "stationId": "cv5095",
                "company": "大阪市",
                "line": "3号線(四つ橋線)",
                "name": "肥後橋",
                "passengers": 74113
            }
        },
        {
            "type": "Feature",
            "geometry": {
                "type": "Point",
                "coordinates": [
                    135.5312,
                    34.68149
                ]
            },
            "properties": {
                "stationId": "cv5105",
                "company": "大阪市",
                "line": "4号線(中央線)",
                "name": "森ノ宮",
                "passengers": 32186
            }
        },
        {
            "type": "Feature",
            "geometry": {
                "type": "Point",
                "coordinates": [
                    135.50599,
                    34.68191
                ]
            },
            "properties": {
                "stationId": "cv5106",
                "company": "大阪市",
                "line": "4号線(中央線)",
                "name": "堺筋本町",
                "passengers": 112306
            }
        },
        {
            "type": "Feature",
            "geometry": {
                "type": "Point",
                "coordinates": [
                    135.50672,
                    34.69177
                ]
            },
            "properties": {
                "stationId": "cv5133",
                "company": "大阪市",
                "line": "6号線(堺筋線)",
                "name": "北浜",
                "passengers": 70719
            }
        },
        {
            "type": "Feature",
            "geometry": {
                "type": "Point",
                "coordinates": [
                    135.50634,
                    34.67575
                ]
            },
            "properties": {
                "stationId": "cv5134",
                "company": "大阪市",
                "line": "6号線(堺筋線)",
                "name": "長堀橋",
                "passengers": 52824
            }
        },
        {
            "type": "Feature",
            "geometry": {
                "type": "Point",
                "coordinates": [
                    135.51084,
                    34.70461
                ]
            },
            "properties": {
                "stationId": "cv5136",
                "company": "大阪市",
                "line": "6号線(堺筋線)",
                "name": "扇町",
                "passengers": 16105
            }
        },
        {
            "type": "Feature",
            "geometry": {
                "type": "Point",
                "coordinates": [
                    135.53052,
                    34.69756
                ]
            },
            "properties": {
                "stationId": "cv5147",
                "company": "大阪市",
                "line": "7号線(長堀鶴見緑地線)",
                "name": "京橋",
                "passengers": 36744
            }
        },
        {
            "type": "Feature",
            "geometry": {
                "type": "Point",
                "coordinates": [
                    135.52947,
                    34.69241
                ]
            },
            "properties": {
                "stationId": "cv5148",
                "company": "大阪市",
                "line": "7号線(長堀鶴見緑地線)",
                "name": "大阪ビジネスパーク",
                "passengers": 13268
            }
        },
        {
            "type": "Feature",
            "geometry": {
                "type": "Point",
                "coordinates": [
                    135.5132,
                    34.6757
                ]
            },
            "properties": {
                "stationId": "cv5154",
                "company": "大阪市",
                "line": "7号線(長堀鶴見緑地線)",
                "name": "松屋町",
                "passengers": 11162
            }
        },
        {
            "type": "Feature",
            "geometry": {
                "type": "Point",
                "coordinates": [
                    135.50855,
                    34.69209
                ]
            },
            "properties": {
                "stationId": "cv10114",
                "company": "京阪電気鉄道",
                "line": "中之島線",
                "name": "なにわ橋",
                "passengers": 2271
            }
        },
        {
            "type": "Feature",
            "geometry": {
                "type": "Point",
                "coordinates": [
                    135.49649,
                    34.69412
                ]
            },
            "properties": {
                "stationId": "cv10115",
                "company": "京阪電気鉄道",
                "line": "中之島線",
                "name": "渡辺橋",
                "passengers": 8322
            }
        },
        {
            "type": "Feature",
            "geometry": {
                "type": "Point",
                "coordinates": [
                    135.50195,
                    34.69436
                ]
            },
            "properties": {
                "stationId": "cv10116",
                "company": "京阪電気鉄道",
                "line": "中之島線",
                "name": "大江橋",
                "passengers": 4790
            }
        },
        {
            "type": "Feature",
            "geometry": {
                "type": "Point",
                "coordinates": [
                    135.4884,
                    34.69203
                ]
            },
            "properties": {
                "stationId": "cv10117",
                "company": "京阪電気鉄道",
                "line": "中之島線",
                "name": "中之島",
                "passengers": 8667
            }
        },
        {
            "type": "Feature",
            "geometry": {
                "type": "Point",
                "coordinates": [
                    133.49818,
                    33.55841
                ]
            },
            "properties": {
                "stationId": "cv2662",
                "company": "四国旅客鉄道",
                "line": "土讃線",
                "name": "高知商業前",
                "passengers": 1094
            }
        },
        {
            "type": "Feature",
            "geometry": {
                "type": "Point",
                "coordinates": [
                    133.5445,
                    33.56687
                ]
            },
            "properties": {
                "stationId": "cv2666",
                "company": "四国旅客鉄道",
                "line": "土讃線",
                "name": "高知",
                "passengers": 10554
            }
        },
        {
            "type": "Feature",
            "geometry": {
                "type": "Point",
                "coordinates": [
                    133.50927,
                    33.55905
                ]
            },
            "properties": {
                "stationId": "cv2680",
                "company": "四国旅客鉄道",
                "line": "土讃線",
                "name": "旭",
                "passengers": 1372
            }
        },
        {
            "type": "Feature",
            "geometry": {
                "type": "Point",
                "coordinates": [
                    133.51755,
                    33.55726
                ]
            },
            "properties": {
                "stationId": "cv5478",
                "company": "とさでん交通",
                "line": "伊野線",
                "name": "上町五丁目",
                "passengers": 1065
            }
        },
        {
            "type": "Feature",
            "geometry": {
                "type": "Point",
                "coordinates": [
                    133.53254,
                    33.55809
                ]
            },
            "properties": {
                "stationId": "cv5483",
                "company": "とさでん交通",
                "line": "伊野線",
                "name": "県庁前",
                "passengers": 1578
            }
        },
        {
            "type": "Feature",
            "geometry": {
                "type": "Point",
                "coordinates": [
                    133.50991,
                    33.55599
                ]
            },
            "properties": {
                "stationId": "cv5484",
                "company": "とさでん交通",
                "line": "伊野線",
                "name": "旭駅前通",
                "passengers": 1097
            }
        },
        {
            "type": "Feature",
            "geometry": {
                "type": "Point",
                "coordinates": [
                    133.53665,
                    33.55895
                ]
            },
            "properties": {
                "stationId": "cv5492",
                "company": "とさでん交通",
                "line": "伊野線",
                "name": "大橋通",
                "passengers": 2296
            }
        },
        {
            "type": "Feature",
            "geometry": {
                "type": "Point",
                "coordinates": [
                    133.53965,
                    33.55954
                ]
            },
            "properties": {
                "stationId": "cv5497",
                "company": "とさでん交通",
                "line": "伊野線",
                "name": "堀詰",
                "passengers": 1839
            }
        },
        {
            "type": "Feature",
            "geometry": {
                "type": "Point",
                "coordinates": [
                    133.54434,
                    33.55937
                ]
            },
            "properties": {
                "stationId": "cv5529",
                "company": "とさでん交通",
                "line": "後免線",
                "name": "デンテツターミナルビル前",
                "passengers": 2321
            }
        },
        {
            "type": "Feature",
            "geometry": {
                "type": "Point",
                "coordinates": [
                    133.54372,
                    33.56674
                ]
            },
            "properties": {
                "stationId": "cv5546",
                "company": "とさでん交通",
                "line": "駅前線",
                "name": "高知駅前",
                "passengers": 1577
            }
        },
        {
            "type": "Feature",
            "geometry": {
                "type": "Point",
                "coordinates": [
                    133.54281,
                    33.55932
                ]
            },
            "properties": {
                "stationId": "cv5549",
                "company": "とさでん交通",
                "line": "駅前線",
                "name": "はりまや橋",
                "passengers": 4532
            }
        },
        {
            "type": "Feature",
            "geometry": {
                "type": "Point",
                "coordinates": [
                    135.77224,
                    35.01902
                ]
            },
            "properties": {
                "stationId": "cv690",
                "company": "京阪電気鉄道",
                "line": "鴨東線",
                "name": "神宮丸太町",
                "passengers": 8575
            }
        },
        {
            "type": "Feature",
            "geometry": {
                "type": "Point",
                "coordinates": [
                    135.76895,
                    34.99716
                ]
            },
            "properties": {
                "stationId": "cv693",
                "company": "京阪電気鉄道",
                "line": "京阪本線",
                "name": "清水五条",
                "passengers": 9445
            }
        },
        {
            "type": "Feature",
            "geometry": {
                "type": "Point",
                "coordinates": [
                    135.77175,
                    35.00275
                ]
            },
            "properties": {
                "stationId": "cv694",
                "company": "京阪電気鉄道",
                "line": "京阪本線",
                "name": "祇園四条",
                "passengers": 55792
            }
        },
        {
            "type": "Feature",
            "geometry": {
                "type": "Point",
                "coordinates": [
                    135.7699,
                    34.98191
                ]
            },
            "properties": {
                "stationId": "cv695",
                "company": "京阪電気鉄道",
                "line": "京阪本線",
                "name": "東福寺",
                "passengers": 17042
            }
        },
        {
            "type": "Feature",
            "geometry": {
                "type": "Point",
                "coordinates": [
                    135.7676,
                    34.99065
                ]
            },
            "properties": {
                "stationId": "cv696",
                "company": "京阪電気鉄道",
                "line": "京阪本線",
                "name": "七条",
                "passengers": 14817
            }
        },
        {
            "type": "Feature",
            "geometry": {
                "type": "Point",
                "coordinates": [
                    135.77233,
                    35.00821
                ]
            },
            "properties": {
                "stationId": "cv697",
                "company": "京阪電気鉄道",
                "line": "京阪本線",
                "name": "三条",
                "passengers": 38490
            }
        },
        {
            "type": "Feature",
            "geometry": {
                "type": "Point",
                "coordinates": [
                    135.75935,
                    35.02918
                ]
            },
            "properties": {
                "stationId": "cv842",
                "company": "京都市",
                "line": "烏丸線",
                "name": "今出川",
                "passengers": 27675
            }
        },
        {
            "type": "Feature",
            "geometry": {
                "type": "Point",
                "coordinates": [
                    135.75966,
                    35.00901
                ]
            },
            "properties": {
                "stationId": "cv843",
                "company": "京都市",
                "line": "烏丸線",
                "name": "烏丸御池",
                "passengers": 106440
            }
        },
        {
            "type": "Feature",
            "geometry": {
                "type": "Point",
                "coordinates": [
                    135.75975,
                    34.97845
                ]
            },
            "properties": {
                "stationId": "cv845",
                "company": "京都市",
                "line": "烏丸線",
                "name": "九条",
                "passengers": 5047
            }
        },
        {
            "type": "Feature",
            "geometry": {
                "type": "Point",
                "coordinates": [
                    135.75967,
                    35.00189
                ]
            },
            "properties": {
                "stationId": "cv848",
                "company": "京都市",
                "line": "烏丸線",
                "name": "四条",
                "passengers": 97980
            }
        },
        {
            "type": "Feature",
            "geometry": {
                "type": "Point",
                "coordinates": [
                    135.75992,
                    34.98621
                ]
            },
            "properties": {
                "stationId": "cv849",
                "company": "京都市",
                "line": "烏丸線",
                "name": "京都",
                "passengers": 123360
            }
        },
        {
            "type": "Feature",
            "geometry": {
                "type": "Point",
                "coordinates": [
                    135.75974,
                    34.99447
                ]
            },
            "properties": {
                "stationId": "cv851",
                "company": "京都市",
                "line": "烏丸線",
                "name": "五条",
                "passengers": 13852
            }
        },
        {
            "type": "Feature",
            "geometry": {
                "type": "Point",
                "coordinates": [
                    135.75955,
                    35.01489
                ]
            },
            "properties": {
                "stationId": "cv852",
                "company": "京都市",
                "line": "烏丸線",
                "name": "丸太町",
                "passengers": 21796
            }
        },
        {
            "type": "Feature",
            "geometry": {
                "type": "Point",
                "coordinates": [
                    135.79058,
                    35.0077
                ]
            },
            "properties": {
                "stationId": "cv860",
                "company": "京都市",
                "line": "東西線",
                "name": "蹴上",
                "passengers": 10713
            }
        },
        {
            "type": "Feature",
            "geometry": {
                "type": "Point",
                "coordinates": [
                    135.751,
                    35.0119
                ]
            },
            "properties": {
                "stationId": "cv861",
                "company": "京都市",
                "line": "東西線",
                "name": "二条城前",
                "passengers": 8640
            }
        },
        {
            "type": "Feature",
            "geometry": {
                "type": "Point",
                "coordinates": [
                    135.7695,
                    35.01092
                ]
            },
            "properties": {
                "stationId": "cv862",
                "company": "京都市",
                "line": "東西線",
                "name": "京都市役所前",
                "passengers": 27075
            }
        },
        {
            "type": "Feature",
            "geometry": {
                "type": "Point",
                "coordinates": [
                    135.74225,
                    35.01223
                ]
            },
            "properties": {
                "stationId": "cv864",
                "company": "京都市",
                "line": "東西線",
                "name": "二条",
                "passengers": 19471
            }
        },
        {
            "type": "Feature",
            "geometry": {
                "type": "Point",
                "coordinates": [
                    135.78041,
                    35.00939
                ]
            },
            "properties": {
                "stationId": "cv865",
                "company": "京都市",
                "line": "東西線",
                "name": "東山",
                "passengers": 19731
            }
        },
        {
            "type": "Feature",
            "geometry": {
                "type": "Point",
                "coordinates": [
                    135.77439,
                    35.00928
                ]
            },
            "properties": {
                "stationId": "cv868",
                "company": "京都市",
                "line": "東西線",
                "name": "三条京阪",
                "passengers": 25875
            }
        },
        {
            "type": "Feature",
            "geometry": {
                "type": "Point",
                "coordinates": [
                    135.73407,
                    35.00332
                ]
            },
            "properties": {
                "stationId": "cv963",
                "company": "京福電気鉄道",
                "line": "嵐山本線",
                "name": "西院",
                "passengers": 5004
            }
        },
        {
            "type": "Feature",
            "geometry": {
                "type": "Point",
                "coordinates": [
                    135.74836,
                    35.00323
                ]
            },
            "properties": {
                "stationId": "cv965",
                "company": "京福電気鉄道",
                "line": "嵐山本線",
                "name": "四条大宮",
                "passengers": 5790
            }
        },
        {
            "type": "Feature",
            "geometry": {
                "type": "Point",
                "coordinates": [
                    135.75684,
                    34.98459
                ]
            },
            "properties": {
                "stationId": "cv1020",
                "company": "近畿日本鉄道",
                "line": "京都線",
                "name": "京都",
                "passengers": 82414
            }
        },
        {
            "type": "Feature",
            "geometry": {
                "type": "Point",
                "coordinates": [
                    135.75259,
                    34.97968
                ]
            },
            "properties": {
                "stationId": "cv1021",
                "company": "近畿日本鉄道",
                "line": "京都線",
                "name": "東寺",
                "passengers": 8742
            }
        },
        {
            "type": "Feature",
            "geometry": {
                "type": "Point",
                "coordinates": [
                    135.76079,
                    35.0037
                ]
            },
            "properties": {
                "stationId": "cv2210",
                "company": "阪急電鉄",
                "line": "京都線",
                "name": "烏丸",
                "passengers": 79934
            }
        },
        {
            "type": "Feature",
            "geometry": {
                "type": "Point",
                "coordinates": [
                    135.76905,
                    35.00378
                ]
            },
            "properties": {
                "stationId": "cv2211",
                "company": "阪急電鉄",
                "line": "京都線",
                "name": "河原町",
                "passengers": 78477
            }
        },
        {
            "type": "Feature",
            "geometry": {
                "type": "Point",
                "coordinates": [
                    135.74913,
                    35.00365
                ]
            },
            "properties": {
                "stationId": "cv2215",
                "company": "阪急電鉄",
                "line": "京都線",
                "name": "大宮",
                "passengers": 26286
            }
        },
        {
            "type": "Feature",
            "geometry": {
                "type": "Point",
                "coordinates": [
                    135.7418,
                    35.01229
                ]
            },
            "properties": {
                "stationId": "cv3932",
                "company": "西日本旅客鉄道",
                "line": "山陰線",
                "name": "二条",
                "passengers": 27499
            }
        },
        {
            "type": "Feature",
            "geometry": {
                "type": "Point",
                "coordinates": [
                    135.74219,
                    34.99723
                ]
            },
            "properties": {
                "stationId": "cv4061",
                "company": "西日本旅客鉄道",
                "line": "山陰線",
                "name": "丹波口",
                "passengers": 13813
            }
        },
        {
            "type": "Feature",
            "geometry": {
                "type": "Point",
                "coordinates": [
                    135.76104,
                    34.98568
                ]
            },
            "properties": {
                "stationId": "cv4399",
                "company": "西日本旅客鉄道",
                "line": "東海道線",
                "name": "京都",
                "passengers": 406592
            }
        },
        {
            "type": "Feature",
            "geometry": {
                "type": "Point",
                "coordinates": [
                    135.76985,
                    34.98093
                ]
            },
            "properties": {
                "stationId": "cv4432",
                "company": "西日本旅客鉄道",
                "line": "奈良線",
                "name": "東福寺",
                "passengers": 19754
            }
        },
        {
            "type": "Feature",
            "geometry": {
                "type": "Point",
                "coordinates": [
                    135.53215,
                    34.66528
                ]
            },
            "properties": {
                "stationId": "cv1115",
                "company": "近畿日本鉄道",
                "line": "大阪線",
                "name": "鶴橋",
                "passengers": 160158
            }
        },
        {
            "type": "Feature",
            "geometry": {
                "type": "Point",
                "coordinates": [
                    135.5506,
                    34.66468
                ]
            },
            "properties": {
                "stationId": "cv1116",
                "company": "近畿日本鉄道",
                "line": "大阪線",
                "name": "今里",
                "passengers": 10671
            }
        },
        {
            "type": "Feature",
            "geometry": {
                "type": "Point",
                "coordinates": [
                    135.56463,
                    34.66411
                ]
            },
            "properties": {
                "stationId": "cv1207",
                "company": "近畿日本鉄道",
                "line": "奈良線",
                "name": "布施",
                "passengers": 38240
            }
        },
        {
            "type": "Feature",
            "geometry": {
                "type": "Point",
                "coordinates": [
                    135.5247,
                    34.64072
                ]
            },
            "properties": {
                "stationId": "cv1223",
                "company": "近畿日本鉄道",
                "line": "南大阪線",
                "name": "河堀口",
                "passengers": 3192
            }
        },
        {
            "type": "Feature",
            "geometry": {
                "type": "Point",
                "coordinates": [
                    135.51591,
                    34.6452
                ]
            },
            "properties": {
                "stationId": "cv1225",
                "company": "近畿日本鉄道",
                "line": "南大阪線",
                "name": "大阪阿部野橋",
                "passengers": 162779
            }
        },
        {
            "type": "Feature",
            "geometry": {
                "type": "Point",
                "coordinates": [
                    135.52077,
                    34.66597
                ]
            },
            "properties": {
                "stationId": "cv1246",
                "company": "近畿日本鉄道",
                "line": "難波線",
                "name": "大阪上本町",
                "passengers": 74928
            }
        },
        {
            "type": "Feature",
            "geometry": {
                "type": "Point",
                "coordinates": [
                    135.51306,
                    34.64644
                ]
            },
            "properties": {
                "stationId": "cv2343",
                "company": "阪堺電気軌道",
                "line": "上町線",
                "name": "天王寺駅前",
                "passengers": 11343
            }
        },
        {
            "type": "Feature",
            "geometry": {
                "type": "Point",
                "coordinates": [
                    135.53834,
                    34.63767
                ]
            },
            "properties": {
                "stationId": "cv3604",
                "company": "西日本旅客鉄道",
                "line": "関西線",
                "name": "東部市場前",
                "passengers": 15668
            }
        },
        {
            "type": "Feature",
            "geometry": {
                "type": "Point",
                "coordinates": [
                    135.51599,
                    34.64646
                ]
            },
            "properties": {
                "stationId": "cv3610",
                "company": "西日本旅客鉄道",
                "line": "関西線",
                "name": "天王寺",
                "passengers": 296508
            }
        },
        {
            "type": "Feature",
            "geometry": {
                "type": "Point",
                "coordinates": [
                    135.53271,
                    34.67273
                ]
            },
            "properties": {
                "stationId": "cv4336",
                "company": "西日本旅客鉄道",
                "line": "大阪環状線",
                "name": "玉造",
                "passengers": 33713
            }
        },
        {
            "type": "Feature",
            "geometry": {
                "type": "Point",
                "coordinates": [
                    135.5307,
                    34.66679
                ]
            },
            "properties": {
                "stationId": "cv4339",
                "company": "西日本旅客鉄道",
                "line": "大阪環状線",
                "name": "鶴橋",
                "passengers": 198948
            }
        },
        {
            "type": "Feature",
            "geometry": {
                "type": "Point",
                "coordinates": [
                    135.53408,
                    34.67983
                ]
            },
            "properties": {
                "stationId": "cv4347",
                "company": "西日本旅客鉄道",
                "line": "大阪環状線",
                "name": "森ノ宮",
                "passengers": 50295
            }
        },
        {
            "type": "Feature",
            "geometry": {
                "type": "Point",
                "coordinates": [
                    135.52823,
                    34.65925
                ]
            },
            "properties": {
                "stationId": "cv4348",
                "company": "西日本旅客鉄道",
                "line": "大阪環状線",
                "name": "桃谷",
                "passengers": 36387
            }
        },
        {
            "type": "Feature",
            "geometry": {
                "type": "Point",
                "coordinates": [
                    135.52401,
                    34.64833
                ]
            },
            "properties": {
                "stationId": "cv4350",
                "company": "西日本旅客鉄道",
                "line": "大阪環状線",
                "name": "寺田町",
                "passengers": 34401
            }
        },
        {
            "type": "Feature",
            "geometry": {
                "type": "Point",
                "coordinates": [
                    135.51613,
                    34.64588
                ]
            },
            "properties": {
                "stationId": "cv5064",
                "company": "大阪市",
                "line": "1号線(御堂筋線)",
                "name": "天王寺",
                "passengers": 269620
            }
        },
        {
            "type": "Feature",
            "geometry": {
                "type": "Point",
                "coordinates": [
                    135.51604,
                    34.66797
                ]
            },
            "properties": {
                "stationId": "cv5076",
                "company": "大阪市",
                "line": "2号線(谷町線)",
                "name": "谷町九丁目",
                "passengers": 74850
            }
        },
        {
            "type": "Feature",
            "geometry": {
                "type": "Point",
                "coordinates": [
                    135.51431,
                    34.65917
                ]
            },
            "properties": {
                "stationId": "cv5090",
                "company": "大阪市",
                "line": "2号線(谷町線)",
                "name": "四天王寺前夕陽ヶ丘",
                "passengers": 25303
            }
        },
        {
            "type": "Feature",
            "geometry": {
                "type": "Point",
                "coordinates": [
                    135.5439,
                    34.68086
                ]
            },
            "properties": {
                "stationId": "cv5104",
                "company": "大阪市",
                "line": "4号線(中央線)",
                "name": "緑橋",
                "passengers": 21982
            }
        },
        {
            "type": "Feature",
            "geometry": {
                "type": "Point",
                "coordinates": [
                    135.55587,
                    34.67932
                ]
            },
            "properties": {
                "stationId": "cv5112",
                "company": "大阪市",
                "line": "4号線(中央線)",
                "name": "深江橋",
                "passengers": 23150
            }
        },
        {
            "type": "Feature",
            "geometry": {
                "type": "Point",
                "coordinates": [
                    135.55615,
                    34.66021
                ]
            },
            "properties": {
                "stationId": "cv5117",
                "company": "大阪市",
                "line": "5号線(千日前線)",
                "name": "小路",
                "passengers": 8399
            }
        },
        {
            "type": "Feature",
            "geometry": {
                "type": "Point",
                "coordinates": [
                    135.5078,
                    34.66693
                ]
            },
            "properties": {
                "stationId": "cv5118",
                "company": "大阪市",
                "line": "5号線(千日前線)",
                "name": "日本橋",
                "passengers": 77212
            }
        },
        {
            "type": "Feature",
            "geometry": {
                "type": "Point",
                "coordinates": [
                    135.54582,
                    34.66824
                ]
            },
            "properties": {
                "stationId": "cv5119",
                "company": "大阪市",
                "line": "5号線(千日前線)",
                "name": "今里",
                "passengers": 22284
            }
        },
        {
            "type": "Feature",
            "geometry": {
                "type": "Point",
                "coordinates": [
                    135.55538,
                    34.66824
                ]
            },
            "properties": {
                "stationId": "cv5124",
                "company": "大阪市",
                "line": "5号線(千日前線)",
                "name": "新深江",
                "passengers": 12638
            }
        },
        {
            "type": "Feature",
            "geometry": {
                "type": "Point",
                "coordinates": [
                    135.53007,
                    34.66598
                ]
            },
            "properties": {
                "stationId": "cv5125",
                "company": "大阪市",
                "line": "5号線(千日前線)",
                "name": "鶴橋",
                "passengers": 29014
            }
        },
        {
            "type": "Feature",
            "geometry": {
                "type": "Point",
                "coordinates": [
                    135.5548,
                    34.652
                ]
            },
            "properties": {
                "stationId": "cv5128",
                "company": "大阪市",
                "line": "5号線(千日前線)",
                "name": "北巽",
                "passengers": 13589
            }
        },
        {
            "type": "Feature",
            "geometry": {
                "type": "Point",
                "coordinates": [
                    135.55289,
                    34.64184
                ]
            },
            "properties": {
                "stationId": "cv5129",
                "company": "大阪市",
                "line": "5号線(千日前線)",
                "name": "南巽",
                "passengers": 11783
            }
        },
        {
            "type": "Feature",
            "geometry": {
                "type": "Point",
                "coordinates": [
                    135.53071,
                    34.6746
                ]
            },
            "properties": {
                "stationId": "cv5151",
                "company": "大阪市",
                "line": "7号線(長堀鶴見緑地線)",
                "name": "玉造",
                "passengers": 14969
            }
        },
        {
            "type": "Feature",
            "geometry": {
                "type": "Point",
                "coordinates": [
                    134.05432,
                    34.34572
                ]
            },
            "properties": {
                "stationId": "cv2148",
                "company": "高松琴平電気鉄道",
                "line": "琴平線",
                "name": "片原町",
                "passengers": 5305
            }
        },
        {
            "type": "Feature",
            "geometry": {
                "type": "Point",
                "coordinates": [
                    134.04931,
                    34.35038
                ]
            },
            "properties": {
                "stationId": "cv2151",
                "company": "高松琴平電気鉄道",
                "line": "琴平線",
                "name": "高松築港",
                "passengers": 12223
            }
        },
        {
            "type": "Feature",
            "geometry": {
                "type": "Point",
                "coordinates": [
                    134.05113,
                    34.32883
                ]
            },
            "properties": {
                "stationId": "cv2157",
                "company": "高松琴平電気鉄道",
                "line": "琴平線",
                "name": "栗林公園",
                "passengers": 3225
            }
        },
        {
            "type": "Feature",
            "geometry": {
                "type": "Point",
                "coordinates": [
                    134.05889,
                    34.33489
                ]
            },
            "properties": {
                "stationId": "cv2185",
                "company": "高松琴平電気鉄道",
                "line": "長尾線",
                "name": "花園",
                "passengers": 1051
            }
        },
        {
            "type": "Feature",
            "geometry": {
                "type": "Point",
                "coordinates": [
                    134.05246,
                    34.33823
                ]
            },
            "properties": {
                "stationId": "cv2195",
                "company": "高松琴平電気鉄道",
                "line": "長尾線",
                "name": "瓦町",
                "passengers": 14223
            }
        },
        {
            "type": "Feature",
            "geometry": {
                "type": "Point",
                "coordinates": [
                    134.03216,
                    34.34381
                ]
            },
            "properties": {
                "stationId": "cv2624",
                "company": "四国旅客鉄道",
                "line": "高徳線",
                "name": "昭和町",
                "passengers": 1032
            }
        },
        {
            "type": "Feature",
            "geometry": {
                "type": "Point",
                "coordinates": [
                    134.05448,
                    34.33229
                ]
            },
            "properties": {
                "stationId": "cv2632",
                "company": "四国旅客鉄道",
                "line": "高徳線",
                "name": "栗林",
                "passengers": 2264
            }
        },
        {
            "type": "Feature",
            "geometry": {
                "type": "Point",
                "coordinates": [
                    134.04421,
                    34.35006
                ]
            },
            "properties": {
                "stationId": "cv2781",
                "company": "四国旅客鉄道",
                "line": "予讃線",
                "name": "高松",
                "passengers": 25882
            }
        },
        {
            "type": "Feature",
            "geometry": {
                "type": "Point",
                "coordinates": [
                    135.5057,
                    34.66684
                ]
            },
            "properties": {
                "stationId": "cv1244",
                "company": "近畿日本鉄道",
                "line": "難波線",
                "name": "近鉄日本橋",
                "passengers": 48028
            }
        },
        {
            "type": "Feature",
            "geometry": {
                "type": "Point",
                "coordinates": [
                    135.45732,
                    34.68538
                ]
            },
            "properties": {
                "stationId": "cv2358",
                "company": "阪神電気鉄道",
                "line": "阪神なんば線",
                "name": "千鳥橋",
                "passengers": 9003
            }
        },
        {
            "type": "Feature",
            "geometry": {
                "type": "Point",
                "coordinates": [
                    135.49552,
                    34.66715
                ]
            },
            "properties": {
                "stationId": "cv3596",
                "company": "西日本旅客鉄道",
                "line": "関西線",
                "name": "JR難波",
                "passengers": 49336
            }
        },
        {
            "type": "Feature",
            "geometry": {
                "type": "Point",
                "coordinates": [
                    135.49235,
                    34.65467
                ]
            },
            "properties": {
                "stationId": "cv3597",
                "company": "西日本旅客鉄道",
                "line": "関西線",
                "name": "今宮",
                "passengers": 9209
            }
        },
        {
            "type": "Feature",
            "geometry": {
                "type": "Point",
                "coordinates": [
                    135.4442,
                    34.67369
                ]
            },
            "properties": {
                "stationId": "cv3867",
                "company": "西日本旅客鉄道",
                "line": "桜島線",
                "name": "安治川口",
                "passengers": 25377
            }
        },
        {
            "type": "Feature",
            "geometry": {
                "type": "Point",
                "coordinates": [
                    135.47903,
                    34.66587
                ]
            },
            "properties": {
                "stationId": "cv4335",
                "company": "西日本旅客鉄道",
                "line": "大阪環状線",
                "name": "大正",
                "passengers": 48584
            }
        },
        {
            "type": "Feature",
            "geometry": {
                "type": "Point",
                "coordinates": [
                    135.48964,
                    34.65814
                ]
            },
            "properties": {
                "stationId": "cv4337",
                "company": "西日本旅客鉄道",
                "line": "大阪環状線",
                "name": "芦原橋",
                "passengers": 11453
            }
        },
        {
            "type": "Feature",
            "geometry": {
                "type": "Point",
                "coordinates": [
                    135.47567,
                    34.6895
                ]
            },
            "properties": {
                "stationId": "cv4338",
                "company": "西日本旅客鉄道",
                "line": "大阪環状線",
                "name": "野田",
                "passengers": 24845
            }
        },
        {
            "type": "Feature",
            "geometry": {
                "type": "Point",
                "coordinates": [
                    135.46157,
                    34.67076
                ]
            },
            "properties": {
                "stationId": "cv4340",
                "company": "西日本旅客鉄道",
                "line": "大阪環状線",
                "name": "弁天町",
                "passengers": 66194
            }
        },
        {
            "type": "Feature",
            "geometry": {
                "type": "Point",
                "coordinates": [
                    135.46765,
                    34.68342
                ]
            },
            "properties": {
                "stationId": "cv4341",
                "company": "西日本旅客鉄道",
                "line": "大阪環状線",
                "name": "西九条",
                "passengers": 62074
            }
        },
        {
            "type": "Feature",
            "geometry": {
                "type": "Point",
                "coordinates": [
                    135.50036,
                    34.67542
                ]
            },
            "properties": {
                "stationId": "cv5047",
                "company": "大阪市",
                "line": "1号線(御堂筋線)",
                "name": "心斎橋",
                "passengers": 148155
            }
        },
        {
            "type": "Feature",
            "geometry": {
                "type": "Point",
                "coordinates": [
                    135.50004,
                    34.66489
                ]
            },
            "properties": {
                "stationId": "cv5048",
                "company": "大阪市",
                "line": "1号線(御堂筋線)",
                "name": "難波",
                "passengers": 352890
            }
        },
        {
            "type": "Feature",
            "geometry": {
                "type": "Point",
                "coordinates": [
                    135.49788,
                    34.65524
                ]
            },
            "properties": {
                "stationId": "cv5055",
                "company": "大阪市",
                "line": "1号線(御堂筋線)",
                "name": "大国町",
                "passengers": 32104
            }
        },
        {
            "type": "Feature",
            "geometry": {
                "type": "Point",
                "coordinates": [
                    135.49683,
                    34.67481
                ]
            },
            "properties": {
                "stationId": "cv5092",
                "company": "大阪市",
                "line": "3号線(四つ橋線)",
                "name": "四ツ橋",
                "passengers": 32028
            }
        },
        {
            "type": "Feature",
            "geometry": {
                "type": "Point",
                "coordinates": [
                    135.49639,
                    34.6435
                ]
            },
            "properties": {
                "stationId": "cv5096",
                "company": "大阪市",
                "line": "3号線(四つ橋線)",
                "name": "花園町",
                "passengers": 15652
            }
        },
        {
            "type": "Feature",
            "geometry": {
                "type": "Point",
                "coordinates": [
                    135.47428,
                    34.67583
                ]
            },
            "properties": {
                "stationId": "cv5107",
                "company": "大阪市",
                "line": "4号線(中央線)",
                "name": "九条",
                "passengers": 22887
            }
        },
        {
            "type": "Feature",
            "geometry": {
                "type": "Point",
                "coordinates": [
                    135.46288,
                    34.66871
                ]
            },
            "properties": {
                "stationId": "cv5108",
                "company": "大阪市",
                "line": "4号線(中央線)",
                "name": "弁天町",
                "passengers": 37662
            }
        },
        {
            "type": "Feature",
            "geometry": {
                "type": "Point",
                "coordinates": [
                    135.48866,
                    34.68139
                ]
            },
            "properties": {
                "stationId": "cv5111",
                "company": "大阪市",
                "line": "4号線(中央線)",
                "name": "阿波座",
                "passengers": 47915
            }
        },
        {
            "type": "Feature",
            "geometry": {
                "type": "Point",
                "coordinates": [
                    135.44908,
                    34.66136
                ]
            },
            "properties": {
                "stationId": "cv5113",
                "company": "大阪市",
                "line": "4号線(中央線)",
                "name": "朝潮橋",
                "passengers": 20646
            }
        },
        {
            "type": "Feature",
            "geometry": {
                "type": "Point",
                "coordinates": [
                    135.48711,
                    34.67473
                ]
            },
            "properties": {
                "stationId": "cv5116",
                "company": "大阪市",
                "line": "5号線(千日前線)",
                "name": "西長堀",
                "passengers": 27132
            }
        },
        {
            "type": "Feature",
            "geometry": {
                "type": "Point",
                "coordinates": [
                    135.48948,
                    34.66838
                ]
            },
            "properties": {
                "stationId": "cv5123",
                "company": "大阪市",
                "line": "5号線(千日前線)",
                "name": "桜川",
                "passengers": 16856
            }
        },
        {
            "type": "Feature",
            "geometry": {
                "type": "Point",
                "coordinates": [
                    135.50573,
                    34.65706
                ]
            },
            "properties": {
                "stationId": "cv5139",
                "company": "大阪市",
                "line": "6号線(堺筋線)",
                "name": "恵美須町",
                "passengers": 20879
            }
        },
        {
            "type": "Feature",
            "geometry": {
                "type": "Point",
                "coordinates": [
                    135.47845,
                    34.66532
                ]
            },
            "properties": {
                "stationId": "cv5152",
                "company": "大阪市",
                "line": "7号線(長堀鶴見緑地線)",
                "name": "大正",
                "passengers": 11806
            }
        },
        {
            "type": "Feature",
            "geometry": {
                "type": "Point",
                "coordinates": [
                    135.49447,
                    34.6755
                ]
            },
            "properties": {
                "stationId": "cv5153",
                "company": "大阪市",
                "line": "7号線(長堀鶴見緑地線)",
                "name": "西大橋",
                "passengers": 14744
            }
        },
        {
            "type": "Feature",
            "geometry": {
                "type": "Point",
                "coordinates": [
                    135.47949,
                    34.67146
                ]
            },
            "properties": {
                "stationId": "cv5156",
                "company": "大阪市",
                "line": "7号線(長堀鶴見緑地線)",
                "name": "ドーム前千代崎",
                "passengers": 11878
            }
        },
        {
            "type": "Feature",
            "geometry": {
                "type": "Point",
                "coordinates": [
                    135.50285,
                    34.66215
                ]
            },
            "properties": {
                "stationId": "cv8619",
                "company": "南海電気鉄道",
                "line": "南海本線",
                "name": "難波",
                "passengers": 254694
            }
        },
        {
            "type": "Feature",
            "geometry": {
                "type": "Point",
                "coordinates": [
                    135.50014,
                    34.6497
                ]
            },
            "properties": {
                "stationId": "cv8623",
                "company": "南海電気鉄道",
                "line": "南海本線",
                "name": "新今宮",
                "passengers": 95134
            }
        },
        {
            "type": "Feature",
            "geometry": {
                "type": "Point",
                "coordinates": [
                    135.50132,
                    34.6541
                ]
            },
            "properties": {
                "stationId": "cv8624",
                "company": "南海電気鉄道",
                "line": "南海本線",
                "name": "今宮戎",
                "passengers": 1425
            }
        },
        {
            "type": "Feature",
            "geometry": {
                "type": "Point",
                "coordinates": [
                    135.47913,
                    34.66944
                ]
            },
            "properties": {
                "stationId": "cv10118",
                "company": "阪神電気鉄道",
                "line": "阪神なんば線",
                "name": "ドーム前",
                "passengers": 9547
            }
        },
        {
            "type": "Feature",
            "geometry": {
                "type": "Point",
                "coordinates": [
                    135.47528,
                    34.6731
                ]
            },
            "properties": {
                "stationId": "cv10119",
                "company": "阪神電気鉄道",
                "line": "阪神なんば線",
                "name": "九条",
                "passengers": 13383
            }
        },
        {
            "type": "Feature",
            "geometry": {
                "type": "Point",
                "coordinates": [
                    135.46632,
                    34.6817
                ]
            },
            "properties": {
                "stationId": "cv10120",
                "company": "阪神電気鉄道",
                "line": "阪神なんば線",
                "name": "西九条",
                "passengers": 35936
            }
        },
        {
            "type": "Feature",
            "geometry": {
                "type": "Point",
                "coordinates": [
                    135.48713,
                    34.66841
                ]
            },
            "properties": {
                "stationId": "cv10121",
                "company": "阪神電気鉄道",
                "line": "阪神なんば線",
                "name": "桜川",
                "passengers": 5548
            }
        },
        {
            "type": "Feature",
            "geometry": {
                "type": "Point",
                "coordinates": [
                    135.49835,
                    34.66711
                ]
            },
            "properties": {
                "stationId": "cv10393",
                "company": "近畿日本鉄道",
                "line": "難波線",
                "name": "大阪難波",
                "passengers": 168492
            }
        },
        {
            "type": "Feature",
            "geometry": {
                "type": "Point",
                "coordinates": [
                    135.5291,
                    34.63159
                ]
            },
            "properties": {
                "stationId": "cv1241",
                "company": "近畿日本鉄道",
                "line": "南大阪線",
                "name": "北田辺",
                "passengers": 5046
            }
        },
        {
            "type": "Feature",
            "geometry": {
                "type": "Point",
                "coordinates": [
                    135.49908374,
                    34.61780764
                ]
            },
            "properties": {
                "stationId": "cv2340",
                "company": "阪堺電気軌道",
                "line": "上町線",
                "name": "帝塚山四丁目",
                "passengers": 1150
            }
        },
        {
            "type": "Feature",
            "geometry": {
                "type": "Point",
                "coordinates": [
                    135.50857,
                    34.63266
                ]
            },
            "properties": {
                "stationId": "cv2341",
                "company": "阪堺電気軌道",
                "line": "上町線",
                "name": "東天下茶屋",
                "passengers": 1547
            }
        },
        {
            "type": "Feature",
            "geometry": {
                "type": "Point",
                "coordinates": [
                    135.50561,
                    34.62747
                ]
            },
            "properties": {
                "stationId": "cv2342",
                "company": "阪堺電気軌道",
                "line": "上町線",
                "name": "北畠",
                "passengers": 2179
            }
        },
        {
            "type": "Feature",
            "geometry": {
                "type": "Point",
                "coordinates": [
                    135.50085,
                    34.62075
                ]
            },
            "properties": {
                "stationId": "cv2346",
                "company": "阪堺電気軌道",
                "line": "上町線",
                "name": "帝塚山三丁目",
                "passengers": 1555
            }
        },
        {
            "type": "Feature",
            "geometry": {
                "type": "Point",
                "coordinates": [
                    135.51186,
                    34.64196
                ]
            },
            "properties": {
                "stationId": "cv2348",
                "company": "阪堺電気軌道",
                "line": "上町線",
                "name": "阿倍野",
                "passengers": 2006
            }
        },
        {
            "type": "Feature",
            "geometry": {
                "type": "Point",
                "coordinates": [
                    135.50329,
                    34.62427
                ]
            },
            "properties": {
                "stationId": "cv2349",
                "company": "阪堺電気軌道",
                "line": "上町線",
                "name": "姫松",
                "passengers": 1838
            }
        },
        {
            "type": "Feature",
            "geometry": {
                "type": "Point",
                "coordinates": [
                    135.52378,
                    34.63804
                ]
            },
            "properties": {
                "stationId": "cv3819",
                "company": "西日本旅客鉄道",
                "line": "阪和線",
                "name": "美章園",
                "passengers": 10581
            }
        },
        {
            "type": "Feature",
            "geometry": {
                "type": "Point",
                "coordinates": [
                    135.52069,
                    34.62511
                ]
            },
            "properties": {
                "stationId": "cv3820",
                "company": "西日本旅客鉄道",
                "line": "阪和線",
                "name": "南田辺",
                "passengers": 8772
            }
        },
        {
            "type": "Feature",
            "geometry": {
                "type": "Point",
                "coordinates": [
                    135.50292,
                    34.64962
                ]
            },
            "properties": {
                "stationId": "cv4351",
                "company": "西日本旅客鉄道",
                "line": "大阪環状線",
                "name": "新今宮",
                "passengers": 131135
            }
        },
        {
            "type": "Feature",
            "geometry": {
                "type": "Point",
                "coordinates": [
                    135.50567,
                    34.64851
                ]
            },
            "properties": {
                "stationId": "cv5058",
                "company": "大阪市",
                "line": "1号線(御堂筋線)",
                "name": "動物園前",
                "passengers": 29282
            }
        },
        {
            "type": "Feature",
            "geometry": {
                "type": "Point",
                "coordinates": [
                    135.51507,
                    34.62084
                ]
            },
            "properties": {
                "stationId": "cv5060",
                "company": "大阪市",
                "line": "1号線(御堂筋線)",
                "name": "西田辺",
                "passengers": 22631
            }
        },
        {
            "type": "Feature",
            "geometry": {
                "type": "Point",
                "coordinates": [
                    135.51675,
                    34.63238
                ]
            },
            "properties": {
                "stationId": "cv5062",
                "company": "大阪市",
                "line": "1号線(御堂筋線)",
                "name": "昭和町",
                "passengers": 25222
            }
        },
        {
            "type": "Feature",
            "geometry": {
                "type": "Point",
                "coordinates": [
                    135.51233,
                    34.64361
                ]
            },
            "properties": {
                "stationId": "cv5080",
                "company": "大阪市",
                "line": "2号線(谷町線)",
                "name": "阿倍野",
                "passengers": 17835
            }
        },
        {
            "type": "Feature",
            "geometry": {
                "type": "Point",
                "coordinates": [
                    135.51732,
                    34.63686
                ]
            },
            "properties": {
                "stationId": "cv5082",
                "company": "大阪市",
                "line": "2号線(谷町線)",
                "name": "文の里",
                "passengers": 11354
            }
        },
        {
            "type": "Feature",
            "geometry": {
                "type": "Point",
                "coordinates": [
                    135.52431,
                    34.62953
                ]
            },
            "properties": {
                "stationId": "cv5086",
                "company": "大阪市",
                "line": "2号線(谷町線)",
                "name": "田辺",
                "passengers": 9198
            }
        },
        {
            "type": "Feature",
            "geometry": {
                "type": "Point",
                "coordinates": [
                    135.4936,
                    34.63352
                ]
            },
            "properties": {
                "stationId": "cv5098",
                "company": "大阪市",
                "line": "3号線(四つ橋線)",
                "name": "岸里",
                "passengers": 16188
            }
        },
        {
            "type": "Feature",
            "geometry": {
                "type": "Point",
                "coordinates": [
                    135.49032,
                    34.62345
                ]
            },
            "properties": {
                "stationId": "cv5099",
                "company": "大阪市",
                "line": "3号線(四つ橋線)",
                "name": "玉出",
                "passengers": 19877
            }
        },
        {
            "type": "Feature",
            "geometry": {
                "type": "Point",
                "coordinates": [
                    135.47854,
                    34.62115
                ]
            },
            "properties": {
                "stationId": "cv5100",
                "company": "大阪市",
                "line": "3号線(四つ橋線)",
                "name": "北加賀屋",
                "passengers": 24659
            }
        },
        {
            "type": "Feature",
            "geometry": {
                "type": "Point",
                "coordinates": [
                    135.49715,
                    34.63769
                ]
            },
            "properties": {
                "stationId": "cv5138",
                "company": "大阪市",
                "line": "6号線(堺筋線)",
                "name": "天下茶屋",
                "passengers": 71617
            }
        },
        {
            "type": "Feature",
            "geometry": {
                "type": "Point",
                "coordinates": [
                    135.49843,
                    34.62247
                ]
            },
            "properties": {
                "stationId": "cv8606",
                "company": "南海電気鉄道",
                "line": "高野線",
                "name": "帝塚山",
                "passengers": 7876
            }
        },
        {
            "type": "Feature",
            "geometry": {
                "type": "Point",
                "coordinates": [
                    135.49659,
                    34.62794
                ]
            },
            "properties": {
                "stationId": "cv8620",
                "company": "南海電気鉄道",
                "line": "南海本線",
                "name": "岸里玉出",
                "passengers": 6672
            }
        },
        {
            "type": "Feature",
            "geometry": {
                "type": "Point",
                "coordinates": [
                    135.49637,
                    34.63612
                ]
            },
            "properties": {
                "stationId": "cv8621",
                "company": "南海電気鉄道",
                "line": "南海本線",
                "name": "天下茶屋",
                "passengers": 72641
            }
        },
        {
            "type": "Feature",
            "geometry": {
                "type": "Point",
                "coordinates": [
                    135.4989,
                    34.64502
                ]
            },
            "properties": {
                "stationId": "cv8625",
                "company": "南海電気鉄道",
                "line": "南海本線",
                "name": "萩ノ茶屋",
                "passengers": 1496
            }
        },
        {
            "type": "Feature",
            "geometry": {
                "type": "Point",
                "coordinates": [
                    135.49146,
                    34.61725
                ]
            },
            "properties": {
                "stationId": "cv8626",
                "company": "南海電気鉄道",
                "line": "南海本線",
                "name": "粉浜",
                "passengers": 4220
            }
        },
        {
            "type": "Feature",
            "geometry": {
                "type": "Point",
                "coordinates": [
                    136.95381,
                    35.18886
                ]
            },
            "properties": {
                "stationId": "cv9622",
                "company": "名古屋ガイドウェイバス",
                "line": "ガイドウェイバス志段味線",
                "name": "砂田橋",
                "passengers": 2315
            }
        },
        {
            "type": "Feature",
            "geometry": {
                "type": "Point",
                "coordinates": [
                    136.94702,
                    35.19028
                ]
            },
            "properties": {
                "stationId": "cv9629",
                "company": "名古屋ガイドウェイバス",
                "line": "ガイドウェイバス志段味線",
                "name": "ナゴヤドーム前矢田",
                "passengers": 1386
            }
        },
        {
            "type": "Feature",
            "geometry": {
                "type": "Point",
                "coordinates": [
                    136.93751,
                    35.19119
                ]
            },
            "properties": {
                "stationId": "cv9630",
                "company": "名古屋ガイドウェイバス",
                "line": "ガイドウェイバス志段味線",
                "name": "大曽根",
                "passengers": 6117
            }
        },
        {
            "type": "Feature",
            "geometry": {
                "type": "Point",
                "coordinates": [
                    136.93847,
                    35.16975
                ]
            },
            "properties": {
                "stationId": "cv9638",
                "company": "名古屋市",
                "line": "1号線東山線",
                "name": "今池",
                "passengers": 45433
            }
        },
        {
            "type": "Feature",
            "geometry": {
                "type": "Point",
                "coordinates": [
                    136.94646,
                    35.16773
                ]
            },
            "properties": {
                "stationId": "cv9640",
                "company": "名古屋市",
                "line": "1号線東山線",
                "name": "池下",
                "passengers": 28179
            }
        },
        {
            "type": "Feature",
            "geometry": {
                "type": "Point",
                "coordinates": [
                    136.92958,
                    35.1707
                ]
            },
            "properties": {
                "stationId": "cv9643",
                "company": "名古屋市",
                "line": "1号線東山線",
                "name": "千種",
                "passengers": 50945
            }
        },
        {
            "type": "Feature",
            "geometry": {
                "type": "Point",
                "coordinates": [
                    136.95292,
                    35.1666
                ]
            },
            "properties": {
                "stationId": "cv9646",
                "company": "名古屋市",
                "line": "1号線東山線",
                "name": "覚王山",
                "passengers": 19814
            }
        },
        {
            "type": "Feature",
            "geometry": {
                "type": "Point",
                "coordinates": [
                    136.9197,
                    35.17064
                ]
            },
            "properties": {
                "stationId": "cv9650",
                "company": "名古屋市",
                "line": "1号線東山線",
                "name": "新栄町",
                "passengers": 29002
            }
        },
        {
            "type": "Feature",
            "geometry": {
                "type": "Point",
                "coordinates": [
                    136.90821,
                    35.16994
                ]
            },
            "properties": {
                "stationId": "cv9651",
                "company": "名古屋市",
                "line": "1号線東山線",
                "name": "栄",
                "passengers": 230805
            }
        },
        {
            "type": "Feature",
            "geometry": {
                "type": "Point",
                "coordinates": [
                    136.90807,
                    35.17449
                ]
            },
            "properties": {
                "stationId": "cv9660",
                "company": "名古屋市",
                "line": "2号線名城線",
                "name": "久屋大通",
                "passengers": 50483
            }
        },
        {
            "type": "Feature",
            "geometry": {
                "type": "Point",
                "coordinates": [
                    136.90553,
                    35.18182
                ]
            },
            "properties": {
                "stationId": "cv9661",
                "company": "名古屋市",
                "line": "2号線名城線",
                "name": "市役所",
                "passengers": 42204
            }
        },
        {
            "type": "Feature",
            "geometry": {
                "type": "Point",
                "coordinates": [
                    136.93653,
                    35.1926
                ]
            },
            "properties": {
                "stationId": "cv9664",
                "company": "名古屋市",
                "line": "2号線名城線",
                "name": "大曽根",
                "passengers": 38384
            }
        },
        {
            "type": "Feature",
            "geometry": {
                "type": "Point",
                "coordinates": [
                    136.92156,
                    35.19627
                ]
            },
            "properties": {
                "stationId": "cv9665",
                "company": "名古屋市",
                "line": "2号線名城線",
                "name": "志賀本通",
                "passengers": 12645
            }
        },
        {
            "type": "Feature",
            "geometry": {
                "type": "Point",
                "coordinates": [
                    136.90863,
                    35.16299
                ]
            },
            "properties": {
                "stationId": "cv9666",
                "company": "名古屋市",
                "line": "2号線名城線",
                "name": "矢場町",
                "passengers": 63800
            }
        },
        {
            "type": "Feature",
            "geometry": {
                "type": "Point",
                "coordinates": [
                    136.91069,
                    35.19715
                ]
            },
            "properties": {
                "stationId": "cv9669",
                "company": "名古屋市",
                "line": "2号線名城線",
                "name": "黒川",
                "passengers": 28162
            }
        },
        {
            "type": "Feature",
            "geometry": {
                "type": "Point",
                "coordinates": [
                    136.90476,
                    35.18992
                ]
            },
            "properties": {
                "stationId": "cv9670",
                "company": "名古屋市",
                "line": "2号線名城線",
                "name": "名城公園",
                "passengers": 11046
            }
        },
        {
            "type": "Feature",
            "geometry": {
                "type": "Point",
                "coordinates": [
                    136.95504,
                    35.18862
                ]
            },
            "properties": {
                "stationId": "cv9692",
                "company": "名古屋市",
                "line": "4号線名城線",
                "name": "砂田橋",
                "passengers": 14763
            }
        },
        {
            "type": "Feature",
            "geometry": {
                "type": "Point",
                "coordinates": [
                    136.9444,
                    35.19083
                ]
            },
            "properties": {
                "stationId": "cv9701",
                "company": "名古屋市",
                "line": "4号線名城線",
                "name": "ナゴヤドーム前矢田",
                "passengers": 22802
            }
        },
        {
            "type": "Feature",
            "geometry": {
                "type": "Point",
                "coordinates": [
                    136.93016,
                    35.1733
                ]
            },
            "properties": {
                "stationId": "cv9711",
                "company": "名古屋市",
                "line": "6号線桜通線",
                "name": "車道",
                "passengers": 14220
            }
        },
        {
            "type": "Feature",
            "geometry": {
                "type": "Point",
                "coordinates": [
                    136.93515,
                    35.15834
                ]
            },
            "properties": {
                "stationId": "cv9714",
                "company": "名古屋市",
                "line": "6号線桜通線",
                "name": "吹上",
                "passengers": 14461
            }
        },
        {
            "type": "Feature",
            "geometry": {
                "type": "Point",
                "coordinates": [
                    136.91693,
                    35.17416
                ]
            },
            "properties": {
                "stationId": "cv9719",
                "company": "名古屋市",
                "line": "6号線桜通線",
                "name": "高岳",
                "passengers": 16953
            }
        },
        {
            "type": "Feature",
            "geometry": {
                "type": "Point",
                "coordinates": [
                    136.92973,
                    35.19723
                ]
            },
            "properties": {
                "stationId": "cv9727",
                "company": "名古屋市",
                "line": "上飯田線",
                "name": "平安通",
                "passengers": 11908
            }
        },
        {
            "type": "Feature",
            "geometry": {
                "type": "Point",
                "coordinates": [
                    136.92968,
                    35.2045
                ]
            },
            "properties": {
                "stationId": "cv9728",
                "company": "名古屋市",
                "line": "上飯田線",
                "name": "上飯田",
                "passengers": 5246
            }
        },
        {
            "type": "Feature",
            "geometry": {
                "type": "Point",
                "coordinates": [
                    139.6904,
                    35.25755
                ]
            },
            "properties": {
                "stationId": "cv877",
                "company": "京浜急行電鉄",
                "line": "久里浜線",
                "name": "新大津",
                "passengers": 6900
            }
        },
        {
            "type": "Feature",
            "geometry": {
                "type": "Point",
                "coordinates": [
                    139.68635,
                    35.26351
                ]
            },
            "properties": {
                "stationId": "cv908",
                "company": "京浜急行電鉄",
                "line": "本線",
                "name": "堀ノ内",
                "passengers": 12395
            }
        },
        {
            "type": "Feature",
            "geometry": {
                "type": "Point",
                "coordinates": [
                    139.66184,
                    35.28029
                ]
            },
            "properties": {
                "stationId": "cv917",
                "company": "京浜急行電鉄",
                "line": "本線",
                "name": "汐入",
                "passengers": 21588
            }
        },
        {
            "type": "Feature",
            "geometry": {
                "type": "Point",
                "coordinates": [
                    139.652,
                    35.28092
                ]
            },
            "properties": {
                "stationId": "cv918",
                "company": "京浜急行電鉄",
                "line": "本線",
                "name": "逸見",
                "passengers": 5256
            }
        },
        {
            "type": "Feature",
            "geometry": {
                "type": "Point",
                "coordinates": [
                    139.66937,
                    35.27902
                ]
            },
            "properties": {
                "stationId": "cv927",
                "company": "京浜急行電鉄",
                "line": "本線",
                "name": "横須賀中央",
                "passengers": 67293
            }
        },
        {
            "type": "Feature",
            "geometry": {
                "type": "Point",
                "coordinates": [
                    139.67611,
                    35.27041
                ]
            },
            "properties": {
                "stationId": "cv943",
                "company": "京浜急行電鉄",
                "line": "本線",
                "name": "県立大学",
                "passengers": 12450
            }
        },
        {
            "type": "Feature",
            "geometry": {
                "type": "Point",
                "coordinates": [
                    139.6946,
                    35.26133
                ]
            },
            "properties": {
                "stationId": "cv946",
                "company": "京浜急行電鉄",
                "line": "本線",
                "name": "京急大津",
                "passengers": 5102
            }
        },
        {
            "type": "Feature",
            "geometry": {
                "type": "Point",
                "coordinates": [
                    139.65974,
                    35.2575
                ]
            },
            "properties": {
                "stationId": "cv6667",
                "company": "東日本旅客鉄道",
                "line": "横須賀線",
                "name": "衣笠",
                "passengers": 17514
            }
        },
        {
            "type": "Feature",
            "geometry": {
                "type": "Point",
                "coordinates": [
                    139.65382,
                    35.28448
                ]
            },
            "properties": {
                "stationId": "cv6669",
                "company": "東日本旅客鉄道",
                "line": "横須賀線",
                "name": "横須賀",
                "passengers": 10842
            }
        },
        {
            "type": "Feature",
            "geometry": {
                "type": "Point",
                "coordinates": [
                    130.42569,
                    33.55969
                ]
            },
            "properties": {
                "stationId": "cv3426",
                "company": "西日本鉄道",
                "line": "天神大牟田線",
                "name": "大橋",
                "passengers": 35680
            }
        },
        {
            "type": "Feature",
            "geometry": {
                "type": "Point",
                "coordinates": [
                    130.40602,
                    33.57404
                ]
            },
            "properties": {
                "stationId": "cv3434",
                "company": "西日本鉄道",
                "line": "天神大牟田線",
                "name": "西鉄平尾",
                "passengers": 12656
            }
        },
        {
            "type": "Feature",
            "geometry": {
                "type": "Point",
                "coordinates": [
                    130.40178,
                    33.5825
                ]
            },
            "properties": {
                "stationId": "cv3435",
                "company": "西日本鉄道",
                "line": "天神大牟田線",
                "name": "薬院",
                "passengers": 39891
            }
        },
        {
            "type": "Feature",
            "geometry": {
                "type": "Point",
                "coordinates": [
                    130.39846,
                    33.59111
                ]
            },
            "properties": {
                "stationId": "cv3439",
                "company": "西日本鉄道",
                "line": "天神大牟田線",
                "name": "西鉄福岡(天神)",
                "passengers": 131108
            }
        },
        {
            "type": "Feature",
            "geometry": {
                "type": "Point",
                "coordinates": [
                    130.41453,
                    33.56727
                ]
            },
            "properties": {
                "stationId": "cv3443",
                "company": "西日本鉄道",
                "line": "天神大牟田線",
                "name": "高宮",
                "passengers": 19837
            }
        },
        {
            "type": "Feature",
            "geometry": {
                "type": "Point",
                "coordinates": [
                    130.42127,
                    33.59139
                ]
            },
            "properties": {
                "stationId": "cv4109",
                "company": "西日本旅客鉄道",
                "line": "山陽新幹線",
                "name": "博多",
                "passengers": 43804
            }
        },
        {
            "type": "Feature",
            "geometry": {
                "type": "Point",
                "coordinates": [
                    130.41476,
                    33.59379
                ]
            },
            "properties": {
                "stationId": "cv8897",
                "company": "福岡市",
                "line": "1号線(空港線)",
                "name": "祗園",
                "passengers": 15310
            }
        },