{
    "type": "FeatureCollection",
    "features": [
        {
            "type": "Feature",
            "geometry": {
                "type": "Point",
                "coordinates": [
                    141.34687,
                    43.08118
                ]
            },
            "properties": {
                "company": "札幌市",
                "line": "南北線",
                "name": "北18条",
                "passengers": 15374
            }
        },
        {
            "type": "Feature",
            "geometry": {
                "type": "Point",
                "coordinates": [
                    141.12183,
                    39.28242
                ]
            },
            "properties": {
                "company": "東日本旅客鉄道",
                "line": "東北線",
                "name": "北上",
                "passengers": 7654
            }
        },
        {
            "type": "Feature",
            "geometry": {
                "type": "Point",
                "coordinates": [
                    141.11067,
                    39.39229
                ]
            },
            "properties": {
                "company": "東日本旅客鉄道",
                "line": "東北線",
                "name": "花巻",
                "passengers": 6656
            }
        },
        {
            "type": "Feature",
            "geometry": {
                "type": "Point",
                "coordinates": [
                    140.73386,
                    41.80234
                ]
            },
            "properties": {
                "company": "北海道旅客鉄道",
                "line": "函館線",
                "name": "五稜郭",
                "passengers": 1384
            }
        },
        {
            "type": "Feature",
            "geometry": {
                "type": "Point",
                "coordinates": [
                    140.76965,
                    41.78721
                ]
            },
            "properties": {
                "company": "函館市",
                "line": "湯の川線",
                "name": "深堀町",
                "passengers": 1336
            }
        },
        {
            "type": "Feature",
            "geometry": {
                "type": "Point",
                "coordinates": [
                    140.7848,
                    41.78024
                ]
            },
            "properties": {
                "company": "函館市",
                "line": "湯の川線",
                "name": "湯の川温泉",
                "passengers": 1037
            }
        },
        {
            "type": "Feature",
            "geometry": {
                "type": "Point",
                "coordinates": [
                    141.34643,
                    43.05814
                ]
            },
            "properties": {
                "company": "札幌市",
                "line": "1条線",
                "name": "西8丁目",
                "passengers": 1330
            }
        },
        {
            "type": "Feature",
            "geometry": {
                "type": "Point",
                "coordinates": [
                    141.35155,
                    43.05886
                ]
            },
            "properties": {
                "company": "札幌市",
                "line": "1条線",
                "name": "西4丁目",
                "passengers": 12610
            }
        },
        {
            "type": "Feature",
            "geometry": {
                "type": "Point",
                "coordinates": [
                    141.34979,
                    43.04878
                ]
            },
            "properties": {
                "company": "札幌市",
                "line": "山鼻線",
                "name": "山鼻9条",
                "passengers": 1406
            }
        },
        {
            "type": "Feature",
            "geometry": {
                "type": "Point",
                "coordinates": [
                    141.35017,
                    43.04568
                ]
            },
            "properties": {
                "company": "札幌市",
                "line": "山鼻線",
                "name": "中島公園通",
                "passengers": 1541
            }
        },
        {
            "type": "Feature",
            "geometry": {
                "type": "Point",
                "coordinates": [
                    141.3523,
                    43.05938
                ]
            },
            "properties": {
                "company": "札幌市",
                "line": "南北線",
                "name": "大通",
                "passengers": 159694
            }
        },
        {
            "type": "Feature",
            "geometry": {
                "type": "Point",
                "coordinates": [
                    141.35518,
                    43.04789
                ]
            },
            "properties": {
                "company": "札幌市",
                "line": "南北線",
                "name": "中島公園",
                "passengers": 19718
            }
        },
        {
            "type": "Feature",
            "geometry": {
                "type": "Point",
                "coordinates": [
                    141.34643,
                    43.05814
                ]
            },
            "properties": {
                "company": "札幌市",
                "line": "1条線",
                "name": "西8丁目",
                "passengers": 1330
            }
        },
        {
            "type": "Feature",
            "geometry": {
                "type": "Point",
                "coordinates": [
                    141.35155,
                    43.05886
                ]
            },
            "properties": {
                "company": "札幌市",
                "line": "1条線",
                "name": "西4丁目",
                "passengers": 12610
            }
        },
        {
            "type": "Feature",
            "geometry": {
                "type": "Point",
                "coordinates": [
                    141.34168,
                    43.05747
                ]
            },
            "properties": {
                "company": "札幌市",
                "line": "1条線",
                "name": "中央区役所前",
                "passengers": 2880
            }
        },
        {
            "type": "Feature",
            "geometry": {
                "type": "Point",
                "coordinates": [
                    141.33549,
                    43.04807
                ]
            },
            "properties": {
                "company": "札幌市",
                "line": "山鼻西線",
                "name": "西線9条旭山公園通",
                "passengers": 2128
            }
        },
        {
            "type": "Feature",
            "geometry": {
                "type": "Point",
                "coordinates": [
                    141.33506,
                    43.05135
                ]
            },
            "properties": {
                "company": "札幌市",
                "line": "山鼻西線",
                "name": "西線6条",
                "passengers": 2320
            }
        },
        {
            "type": "Feature",
            "geometry": {
                "type": "Point",
                "coordinates": [
                    141.35242,
                    43.05552
                ]
            },
            "properties": {
                "company": "札幌市",
                "line": "山鼻線",
                "name": "すすきの",
                "passengers": 4812
            }
        },
        {
            "type": "Feature",
            "geometry": {
                "type": "Point",
                "coordinates": [
                    141.35017,
                    43.04568
                ]
            },
            "properties": {
                "company": "札幌市",
                "line": "山鼻線",
                "name": "中島公園通",
                "passengers": 1541
            }
        },
        {
            "type": "Feature",
            "geometry": {
                "type": "Point",
                "coordinates": [
                    141.35716,
                    43.05342
                ]
            },
            "properties": {
                "company": "札幌市",
                "line": "東豊線",
                "name": "豊水すすきの",
                "passengers": 16312
            }
        },
        {
            "type": "Feature",
            "geometry": {
                "type": "Point",
                "coordinates": [
                    141.35351,
                    43.05466
                ]
            },
            "properties": {
                "company": "札幌市",
                "line": "南北線",
                "name": "すすきの",
                "passengers": 34940
            }
        },
        {
            "type": "Feature",
            "geometry": {
                "type": "Point",
                "coordinates": [
                    141.35518,
                    43.04789
                ]
            },
            "properties": {
                "company": "札幌市",
                "line": "南北線",
                "name": "中島公園",
                "passengers": 19718
            }
        },
        {
            "type": "Feature",
            "geometry": {
                "type": "Point",
                "coordinates": [
                    141.35289622,
                    43.05685494
                ]
            },
            "properties": {
                "company": "札幌市",
                "line": "都心線",
                "name": "狸小路",
                "passengers": 3458
            }
        },
        {
            "type": "Feature",
            "geometry": {
                "type": "Point",
                "coordinates": [
                    139.73941,
                    35.62205
                ]
            },
            "properties": {
                "company": "京浜急行電鉄",
                "line": "本線",
                "name": "北品川",
                "passengers": 9612
            }
        },
        {
            "type": "Feature",
            "geometry": {
                "type": "Point",
                "coordinates": [
                    139.75065,
                    35.62328
                ]
            },
            "properties": {
                "company": "東京モノレール",
                "line": "東京モノレール羽田線",
                "name": "天王洲アイル",
                "passengers": 31303
            }
        },
        {
            "type": "Feature",
            "geometry": {
                "type": "Point",
                "coordinates": [
                    139.78504,
                    35.72131
                ]
            },
            "properties": {
                "company": "東京地下鉄",
                "line": "2号線日比谷線",
                "name": "入谷",
                "passengers": 33644
            }
        },
        {
            "type": "Feature",
            "geometry": {
                "type": "Point",
                "coordinates": [
                    139.79803,
                    35.71107
                ]
            },
            "properties": {
                "company": "東京地下鉄",
                "line": "3号線銀座線",
                "name": "浅草",
                "passengers": 107628
            }
        },
        {
            "type": "Feature",
            "geometry": {
                "type": "Point",
                "coordinates": [
                    139.78291,
                    35.71126
                ]
            },
            "properties": {
                "company": "東京地下鉄",
                "line": "3号線銀座線",
                "name": "稲荷町",
                "passengers": 17294
            }
        },
        {
            "type": "Feature",
            "geometry": {
                "type": "Point",
                "coordinates": [
                    139.79081,
                    35.70981
                ]
            },
            "properties": {
                "company": "東京地下鉄",
                "line": "3号線銀座線",
                "name": "田原町",
                "passengers": 33317
            }
        },
        {
            "type": "Feature",
            "geometry": {
                "type": "Point",
                "coordinates": [
                    139.79725,
                    35.70949
                ]
            },
            "properties": {
                "company": "東京都",
                "line": "1号線浅草線",
                "name": "浅草",
                "passengers": 54556
            }
        },
        {
            "type": "Feature",
            "geometry": {
                "type": "Point",
                "coordinates": [
                    139.79797,
                    35.71139
                ]
            },
            "properties": {
                "company": "東武鉄道",
                "line": "伊勢崎線",
                "name": "浅草",
                "passengers": 48673
            }
        },
        {
            "type": "Feature",
            "geometry": {
                "type": "Point",
                "coordinates": [
                    139.77405,
                    35.74549
                ]
            },
            "properties": {
                "company": "東京都",
                "line": "荒川線",
                "name": "東尾久三丁目",
                "passengers": 1563
            }
        },
        {
            "type": "Feature",
            "geometry": {
                "type": "Point",
                "coordinates": [
                    139.77598,
                    35.73354
                ]
            },
            "properties": {
                "company": "東日本旅客鉄道",
                "line": "常磐線",
                "name": "三河島",
                "passengers": 22186
            }
        },
        {
            "type": "Feature",
            "geometry": {
                "type": "Point",
                "coordinates": [
                    139.7691,
                    35.74275
                ]
            },
            "properties": {
                "company": "東京都",
                "line": "日暮里・舎人線",
                "name": "赤土小学校前",
                "passengers": 5016
            }
        },
        {
            "type": "Feature",
            "geometry": {
                "type": "Point",
                "coordinates": [
                    139.77215,
                    35.72748
                ]
            },
            "properties": {
                "company": "京成電鉄",
                "line": "本線",
                "name": "日暮里",
                "passengers": 103528
            }
        },
        {
            "type": "Feature",
            "geometry": {
                "type": "Point",
                "coordinates": [
                    139.77348,
                    35.73693
                ]
            },
            "properties": {
                "company": "京成電鉄",
                "line": "本線",
                "name": "新三河島",
                "passengers": 5977
            }
        },
        {
            "type": "Feature",
            "geometry": {
                "type": "Point",
                "coordinates": [
                    139.76356,
                    35.7266
                ]
            },
            "properties": {
                "company": "東京地下鉄",
                "line": "9号線千代田線",
                "name": "千駄木",
                "passengers": 29107
            }
        },
        {
            "type": "Feature",
            "geometry": {
                "type": "Point",
                "coordinates": [
                    139.76067,
                    35.73826
                ]
            },
            "properties": {
                "company": "東日本旅客鉄道",
                "line": "山手線",
                "name": "田端",
                "passengers": 92482
            }
        },
        {
            "type": "Feature",
            "geometry": {
                "type": "Point",
                "coordinates": [
                    139.77196,
                    35.72734
                ]
            },
            "properties": {
                "company": "東日本旅客鉄道",
                "line": "常磐線",
                "name": "日暮里",
                "passengers": 221058
            }
        },
        {
            "type": "Feature",
            "geometry": {
                "type": "Point",
                "coordinates": [
                    139.77086,
                    35.72854
                ]
            },
            "properties": {
                "company": "東京都",
                "line": "日暮里・舎人線",
                "name": "日暮里",
                "passengers": 51496
            }
        },
        {
            "type": "Feature",
            "geometry": {
                "type": "Point",
                "coordinates": [
                    139.83211,
                    35.77725
                ]
            },
            "properties": {
                "company": "東京地下鉄",
                "line": "9号線千代田線",
                "name": "北綾瀬",
                "passengers": 30869
            }
        },
        {
            "type": "Feature",
            "geometry": {
                "type": "Point",
                "coordinates": [
                    139.82706,
                    35.74765
                ]
            },
            "properties": {
                "company": "京成電鉄",
                "line": "本線",
                "name": "堀切菖蒲園",
                "passengers": 22019
            }
        },
        {
            "type": "Feature",
            "geometry": {
                "type": "Point",
                "coordinates": [
                    139.85625,
                    35.71587
                ]
            },
            "properties": {
                "company": "東日本旅客鉄道",
                "line": "総武線",
                "name": "新小岩",
                "passengers": 150778
            }
        },
        {
            "type": "Feature",
            "geometry": {
                "type": "Point",
                "coordinates": [
                    139.73879,
                    35.59817
                ]
            },
            "properties": {
                "company": "京浜急行電鉄",
                "line": "本線",
                "name": "立会川",
                "passengers": 19096
            }
        },
        {
            "type": "Feature",
            "geometry": {
                "type": "Point",
                "coordinates": [
                    139.74214,
                    35.60469
                ]
            },
            "properties": {
                "company": "京浜急行電鉄",
                "line": "本線",
                "name": "鮫洲",
                "passengers": 10821
            }
        },
        {
            "type": "Feature",
            "geometry": {
                "type": "Point",
                "coordinates": [
                    139.73506,
                    35.60759
                ]
            },
            "properties": {
                "company": "東京急行電鉄",
                "line": "大井町線",
                "name": "大井町",
                "passengers": 143269
            }
        },
        {
            "type": "Feature",
            "geometry": {
                "type": "Point",
                "coordinates": [
                    139.72594,
                    35.60884
                ]
            },
            "properties": {
                "company": "東京急行電鉄",
                "line": "大井町線",
                "name": "下神明",
                "passengers": 8339
            }
        },
        {
            "type": "Feature",
            "geometry": {
                "type": "Point",
                "coordinates": [
                    139.72124,
                    35.60085
                ]
            },
            "properties": {
                "company": "東日本旅客鉄道",
                "line": "東海道線",
                "name": "西大井",
                "passengers": 30334
            }
        },
        {
            "type": "Feature",
            "geometry": {
                "type": "Point",
                "coordinates": [
                    139.69366,
                    35.60615
                ]
            },
            "properties": {
                "company": "東京急行電鉄",
                "line": "大井町線",
                "name": "北千束",
                "passengers": 7078
            }
        },
        {
            "type": "Feature",
            "geometry": {
                "type": "Point",
                "coordinates": [
                    139.7122,
                    35.60548
                ]
            },
            "properties": {
                "company": "東京急行電鉄",
                "line": "大井町線",
                "name": "中延",
                "passengers": 23071
            }
        },
        {
            "type": "Feature",
            "geometry": {
                "type": "Point",
                "coordinates": [
                    139.70713,
                    35.60382
                ]
            },
            "properties": {
                "company": "東京急行電鉄",
                "line": "大井町線",
                "name": "荏原町",
                "passengers": 17178
            }
        },
        {
            "type": "Feature",
            "geometry": {
                "type": "Point",
                "coordinates": [
                    139.71191,
                    35.60979
                ]
            },
            "properties": {
                "company": "東京急行電鉄",
                "line": "池上線",
                "name": "荏原中延",
                "passengers": 13733
            }
        },
        {
            "type": "Feature",
            "geometry": {
                "type": "Point",
                "coordinates": [
                    139.69763,
                    35.60205
                ]
            },
            "properties": {
                "company": "東京急行電鉄",
                "line": "池上線",
                "name": "長原",
                "passengers": 15944
            }
        },
        {
            "type": "Feature",
            "geometry": {
                "type": "Point",
                "coordinates": [
                    139.69377,
                    35.60975
                ]
            },
            "properties": {
                "company": "東京急行電鉄",
                "line": "目黒線",
                "name": "洗足",
                "passengers": 14903
            }
        },
        {
            "type": "Feature",
            "geometry": {
                "type": "Point",
                "coordinates": [
                    139.71171,
                    35.59575
                ]
            },
            "properties": {
                "company": "東京都",
                "line": "1号線浅草線",
                "name": "馬込",
                "passengers": 27720
            }
        },
        {
            "type": "Feature",
            "geometry": {
                "type": "Point",
                "coordinates": [
                    139.74105,
                    35.55209
                ]
            },
            "properties": {
                "company": "京浜急行電鉄",
                "line": "空港線",
                "name": "大鳥居",
                "passengers": 30551
            }
        },
        {
            "type": "Feature",
            "geometry": {
                "type": "Point",
                "coordinates": [
                    139.69329,
                    35.67813
                ]
            },
            "properties": {
                "company": "小田急電鉄",
                "line": "小田原線",
                "name": "参宮橋",
                "passengers": 15546
            }
        },
        {
            "type": "Feature",
            "geometry": {
                "type": "Point",
                "coordinates": [
                    139.70251,
                    35.67042
                ]
            },
            "properties": {
                "company": "東日本旅客鉄道",
                "line": "山手線",
                "name": "原宿",
                "passengers": 152168
            }
        },
        {
            "type": "Feature",
            "geometry": {
                "type": "Point",
                "coordinates": [
                    139.60658,
                    35.68504
                ]
            },
            "properties": {
                "company": "京王電鉄",
                "line": "井の頭線",
                "name": "富士見ヶ丘",
                "passengers": 14050
            }
        },
        {
            "type": "Feature",
            "geometry": {
                "type": "Point",
                "coordinates": [
                    139.60896,
                    35.67065
                ]
            },
            "properties": {
                "company": "京王電鉄",
                "line": "京王線",
                "name": "芦花公園",
                "passengers": 14587
            }
        },
        {
            "type": "Feature",
            "geometry": {
                "type": "Point",
                "coordinates": [
                    139.74579,
                    35.70182
                ]
            },
            "properties": {
                "company": "東京地下鉄",
                "line": "5号線東西線",
                "name": "飯田橋",
                "passengers": 195294
            }
        },
        {
            "type": "Feature",
            "geometry": {
                "type": "Point",
                "coordinates": [
                    139.73566,
                    35.70367
                ]
            },
            "properties": {
                "company": "東京地下鉄",
                "line": "5号線東西線",
                "name": "神楽坂",
                "passengers": 41257
            }
        },
        {
            "type": "Feature",
            "geometry": {
                "type": "Point",
                "coordinates": [
                    139.75101,
                    35.69698
                ]
            },
            "properties": {
                "company": "東京地下鉄",
                "line": "5号線東西線",
                "name": "九段下",
                "passengers": 176675
            }
        },
        {
            "type": "Feature",
            "geometry": {
                "type": "Point",
                "coordinates": [
                    139.73766,
                    35.69417
                ]
            },
            "properties": {
                "company": "東京地下鉄",
                "line": "7号線南北線",
                "name": "市ヶ谷",
                "passengers": 146603
            }
        },
        {
            "type": "Feature",
            "geometry": {
                "type": "Point",
                "coordinates": [
                    139.73828,
                    35.69171
                ]
            },
            "properties": {
                "company": "東京都",
                "line": "10号線新宿線",
                "name": "市ヶ谷",
                "passengers": 98926
            }
        },
        {
            "type": "Feature",
            "geometry": {
                "type": "Point",
                "coordinates": [
                    139.74646,
                    35.70335
                ]
            },
            "properties": {
                "company": "東京都",
                "line": "12号線大江戸線",
                "name": "飯田橋",
                "passengers": 33273
            }
        },
        {
            "type": "Feature",
            "geometry": {
                "type": "Point",
                "coordinates": [
                    139.74574,
                    35.70219
                ]
            },
            "properties": {
                "company": "東日本旅客鉄道",
                "line": "中央線",
                "name": "飯田橋",
                "passengers": 187924
            }
        },
        {
            "type": "Feature",
            "geometry": {
                "type": "Point",
                "coordinates": [
                    139.73593,
                    35.69152
                ]
            },
            "properties": {
                "company": "東日本旅客鉄道",
                "line": "中央線",
                "name": "市ヶ谷",
                "passengers": 122368
            }
        },
        {
            "type": "Feature",
            "geometry": {
                "type": "Point",
                "coordinates": [
                    139.67029,
                    35.6975
                ]
            },
            "properties": {
                "company": "東京地下鉄",
                "line": "4号線丸ノ内線",
                "name": "新中野",
                "passengers": 35626
            }
        },
        {
            "type": "Feature",
            "geometry": {
                "type": "Point",
                "coordinates": [
                    139.67342,
                    35.71555
                ]
            },
            "properties": {
                "company": "西武鉄道",
                "line": "新宿線",
                "name": "新井薬師前",
                "passengers": 23023
            }
        },
        {
            "type": "Feature",
            "geometry": {
                "type": "Point",
                "coordinates": [
                    139.68296,
                    35.70672
                ]
            },
            "properties": {
                "company": "東京都",
                "line": "12号線大江戸線",
                "name": "東中野",
                "passengers": 27933
            }
        },
        {
            "type": "Feature",
            "geometry": {
                "type": "Point",
                "coordinates": [
                    139.66688,
                    35.70579
                ]
            },
            "properties": {
                "company": "東日本旅客鉄道",
                "line": "中央線",
                "name": "中野",
                "passengers": 292800
            }
        },
        {
            "type": "Feature",
            "geometry": {
                "type": "Point",
                "coordinates": [
                    139.59833,
                    35.70373
                ]
            },
            "properties": {
                "company": "東日本旅客鉄道",
                "line": "中央線",
                "name": "西荻窪",
                "passengers": 88954
            }
        },
        {
            "type": "Feature",
            "geometry": {
                "type": "Point",
                "coordinates": [
                    139.72333,
                    35.70558
                ]
            },
            "properties": {
                "company": "東京地下鉄",
                "line": "5号線東西線",
                "name": "早稲田",
                "passengers": 82370
            }
        },
        {
            "type": "Feature",
            "geometry": {
                "type": "Point",
                "coordinates": [
                    139.71221,
                    35.71554
                ]
            },
            "properties": {
                "company": "東京都",
                "line": "荒川線",
                "name": "学習院下",
                "passengers": 1716
            }
        },
        {
            "type": "Feature",
            "geometry": {
                "type": "Point",
                "coordinates": [
                    139.72333,
                    35.70558
                ]
            },
            "properties": {
                "company": "東京地下鉄",
                "line": "5号線東西線",
                "name": "早稲田",
                "passengers": 82370
            }
        },
        {
            "type": "Feature",
            "geometry": {
                "type": "Point",
                "coordinates": [
                    139.71221,
                    35.71554
                ]
            },
            "properties": {
                "company": "東京都",
                "line": "荒川線",
                "name": "学習院下",
                "passengers": 1716
            }
        },
        {
            "type": "Feature",
            "geometry": {
                "type": "Point",
                "coordinates": [
                    139.70933,
                    35.70892
                ]
            },
            "properties": {
                "company": "東京地下鉄",
                "line": "13号線副都心線",
                "name": "西早稲田",
                "passengers": 38739
            }
        },
        {
            "type": "Feature",
            "geometry": {
                "type": "Point",
                "coordinates": [
                    139.7037,
                    35.71176
                ]
            },
            "properties": {
                "company": "西武鉄道",
                "line": "新宿線",
                "name": "高田馬場",
                "passengers": 304904
            }
        },
        {
            "type": "Feature",
            "geometry": {
                "type": "Point",
                "coordinates": [
                    139.70603,
                    35.7128
                ]
            },
            "properties": {
                "company": "東京地下鉄",
                "line": "5号線東西線",
                "name": "高田馬場",
                "passengers": 203957
            }
        },
        {
            "type": "Feature",
            "geometry": {
                "type": "Point",
                "coordinates": [
                    139.71929,
                    35.71181
                ]
            },
            "properties": {
                "company": "東京都",
                "line": "荒川線",
                "name": "早稲田",
                "passengers": 3179
            }
        },
        {
            "type": "Feature",
            "geometry": {
                "type": "Point",
                "coordinates": [
                    139.71502,
                    35.7204
                ]
            },
            "properties": {
                "company": "東京都",
                "line": "荒川線",
                "name": "鬼子母神前",
                "passengers": 2564
            }
        },
        {
            "type": "Feature",
            "geometry": {
                "type": "Point",
                "coordinates": [
                    139.70423,
                    35.7141
                ]
            },
            "properties": {
                "company": "東日本旅客鉄道",
                "line": "山手線",
                "name": "高田馬場",
                "passengers": 413366
            }
        },
        {
            "type": "Feature",
            "geometry": {
                "type": "Point",
                "coordinates": [
                    139.7066,
                    35.72145
                ]
            },
            "properties": {
                "company": "東日本旅客鉄道",
                "line": "山手線",
                "name": "目白",
                "passengers": 75878
            }
        },
        {
            "type": "Feature",
            "geometry": {
                "type": "Point",
                "coordinates": [
                    139.70933,
                    35.70892
                ]
            },
            "properties": {
                "company": "東京地下鉄",
                "line": "13号線副都心線",
                "name": "西早稲田",
                "passengers": 38739
            }
        },
        {
            "type": "Feature",
            "geometry": {
                "type": "Point",
                "coordinates": [
                    139.71558,
                    35.72139
                ]
            },
            "properties": {
                "company": "東京地下鉄",
                "line": "13号線副都心線",
                "name": "雑司が谷",
                "passengers": 18381
            }
        },
        {
            "type": "Feature",
            "geometry": {
                "type": "Point",
                "coordinates": [
                    139.7037,
                    35.71176
                ]
            },
            "properties": {
                "company": "西武鉄道",
                "line": "新宿線",
                "name": "高田馬場",
                "passengers": 304904
            }
        },
        {
            "type": "Feature",
            "geometry": {
                "type": "Point",
                "coordinates": [
                    139.70603,
                    35.7128
                ]
            },
            "properties": {
                "company": "東京地下鉄",
                "line": "5号線東西線",
                "name": "高田馬場",
                "passengers": 203957
            }
        },
        {
            "type": "Feature",
            "geometry": {
                "type": "Point",
                "coordinates": [
                    139.70852,
                    35.69779
                ]
            },
            "properties": {
                "company": "東京都",
                "line": "12号線大江戸線",
                "name": "東新宿",
                "passengers": 41560
            }
        },
        {
            "type": "Feature",
            "geometry": {
                "type": "Point",
                "coordinates": [
                    139.70032,
                    35.70175
                ]
            },
            "properties": {
                "company": "東日本旅客鉄道",
                "line": "山手線",
                "name": "新大久保",
                "passengers": 87858
            }
        },
        {
            "type": "Feature",
            "geometry": {
                "type": "Point",
                "coordinates": [
                    139.69801,
                    35.69978
                ]
            },
            "properties": {
                "company": "東日本旅客鉄道",
                "line": "中央線",
                "name": "大久保",
                "passengers": 52840
            }
        },
        {
            "type": "Feature",
            "geometry": {
                "type": "Point",
                "coordinates": [
                    139.70933,
                    35.70892
                ]
            },
            "properties": {
                "company": "東京地下鉄",
                "line": "13号線副都心線",
                "name": "西早稲田",
                "passengers": 38739
            }
        },
        {
            "type": "Feature",
            "geometry": {
                "type": "Point",
                "coordinates": [
                    139.70004,
                    35.6953
                ]
            },
            "properties": {
                "company": "西武鉄道",
                "line": "新宿線",
                "name": "西武新宿",
                "passengers": 180884
            }
        },
        {
            "type": "Feature",
            "geometry": {
                "type": "Point",
                "coordinates": [
                    139.70852,
                    35.69779
                ]
            },
            "properties": {
                "company": "東京都",
                "line": "12号線大江戸線",
                "name": "東新宿",
                "passengers": 41560
            }
        },
        {
            "type": "Feature",
            "geometry": {
                "type": "Point",
                "coordinates": [
                    139.70032,
                    35.70175
                ]
            },
            "properties": {
                "company": "東日本旅客鉄道",
                "line": "山手線",
                "name": "新大久保",
                "passengers": 87858
            }
        },
        {
            "type": "Feature",
            "geometry": {
                "type": "Point",
                "coordinates": [
                    139.69801,
                    35.69978
                ]
            },
            "properties": {
                "company": "東日本旅客鉄道",
                "line": "中央線",
                "name": "大久保",
                "passengers": 52840
            }
        },
        {
            "type": "Feature",
            "geometry": {
                "type": "Point",
                "coordinates": [
                    139.70933,
                    35.70892
                ]
            },
            "properties": {
                "company": "東京地下鉄",
                "line": "13号線副都心線",
                "name": "西早稲田",
                "passengers": 38739
            }
        },
        {
            "type": "Feature",
            "geometry": {
                "type": "Point",
                "coordinates": [
                    139.70423,
                    35.7141
                ]
            },
            "properties": {
                "company": "東日本旅客鉄道",
                "line": "山手線",
                "name": "高田馬場",
                "passengers": 413366
            }
        },
        {
            "type": "Feature",
            "geometry": {
                "type": "Point",
                "coordinates": [
                    139.70032,
                    35.70175
                ]
            },
            "properties": {
                "company": "東日本旅客鉄道",
                "line": "山手線",
                "name": "新大久保",
                "passengers": 87858
            }
        },
        {
            "type": "Feature",
            "geometry": {
                "type": "Point",
                "coordinates": [
                    139.70823,
                    35.70187
                ]
            },
            "properties": {
                "company": "東京地下鉄",
                "line": "13号線副都心線",
                "name": "東新宿",
                "passengers": 41695
            }
        },
        {
            "type": "Feature",
            "geometry": {
                "type": "Point",
                "coordinates": [
                    139.69917,
                    35.69047
                ]
            },
            "properties": {
                "company": "京王電鉄",
                "line": "京王線",
                "name": "新宿",
                "passengers": 786052
            }
        },
        {
            "type": "Feature",
            "geometry": {
                "type": "Point",
                "coordinates": [
                    139.69971,
                    35.69189
                ]
            },
            "properties": {
                "company": "小田急電鉄",
                "line": "小田原線",
                "name": "新宿",
                "passengers": 506229
            }
        },
        {
            "type": "Feature",
            "geometry": {
                "type": "Point",
                "coordinates": [
                    139.70004,
                    35.6953
                ]
            },
            "properties": {
                "company": "西武鉄道",
                "line": "新宿線",
                "name": "西武新宿",
                "passengers": 180884
            }
        },
        {
            "type": "Feature",
            "geometry": {
                "type": "Point",
                "coordinates": [
                    139.6932,
                    35.69428
                ]
            },
            "properties": {
                "company": "東京地下鉄",
                "line": "4号線丸ノ内線",
                "name": "西新宿",
                "passengers": 86795
            }
        },
        {
            "type": "Feature",
            "geometry": {
                "type": "Point",
                "coordinates": [
                    139.7013,
                    35.69235
                ]
            },
            "properties": {
                "company": "東京地下鉄",
                "line": "4号線丸ノ内線",
                "name": "新宿",
                "passengers": 236657
            }
        },
        {
            "type": "Feature",
            "geometry": {
                "type": "Point",
                "coordinates": [
                    139.69345,
                    35.69073
                ]
            },
            "properties": {
                "company": "東京都",
                "line": "12号線大江戸線",
                "name": "都庁前",
                "passengers": 50008
            }
        },
        {
            "type": "Feature",
            "geometry": {
                "type": "Point",
                "coordinates": [
                    139.69901,
                    35.69382
                ]
            },
            "properties": {
                "company": "東京都",
                "line": "12号線大江戸線",
                "name": "新宿西口",
                "passengers": 59709
            }
        },
        {
            "type": "Feature",
            "geometry": {
                "type": "Point",
                "coordinates": [
                    139.68284,
                    35.69701
                ]
            },
            "properties": {
                "company": "東京地下鉄",
                "line": "4号線丸ノ内線",
                "name": "中野坂上",
                "passengers": 75848
            }
        },
        {
            "type": "Feature",
            "geometry": {
                "type": "Point",
                "coordinates": [
                    139.6932,
                    35.69428
                ]
            },
            "properties": {
                "company": "東京地下鉄",
                "line": "4号線丸ノ内線",
                "name": "西新宿",
                "passengers": 86795
            }
        },
        {
            "type": "Feature",
            "geometry": {
                "type": "Point",
                "coordinates": [
                    139.68296,
                    35.70672
                ]
            },
            "properties": {
                "company": "東京都",
                "line": "12号線大江戸線",
                "name": "東中野",
                "passengers": 27933
            }
        },
        {
            "type": "Feature",
            "geometry": {
                "type": "Point",
                "coordinates": [
                    139.68293,
                    35.69717
                ]
            },
            "properties": {
                "company": "東京都",
                "line": "12号線大江戸線",
                "name": "中野坂上",
                "passengers": 40788
            }
        },
        {
            "type": "Feature",
            "geometry": {
                "type": "Point",
                "coordinates": [
                    139.70032,
                    35.70175
                ]
            },
            "properties": {
                "company": "東日本旅客鉄道",
                "line": "山手線",
                "name": "新大久保",
                "passengers": 87858
            }
        },
        {
            "type": "Feature",
            "geometry": {
                "type": "Point",
                "coordinates": [
                    139.68626,
                    35.70628
                ]
            },
            "properties": {
                "company": "東日本旅客鉄道",
                "line": "中央線",
                "name": "東中野",
                "passengers": 81074
            }
        },
        {
            "type": "Feature",
            "geometry": {
                "type": "Point",
                "coordinates": [
                    139.69801,
                    35.69978
                ]
            },
            "properties": {
                "company": "東日本旅客鉄道",
                "line": "中央線",
                "name": "大久保",
                "passengers": 52840
            }
        },
        {
            "type": "Feature",
            "geometry": {
                "type": "Point",
                "coordinates": [
                    139.69586,
                    35.71573
                ]
            },
            "properties": {
                "company": "西武鉄道",
                "line": "新宿線",
                "name": "下落合",
                "passengers": 12414
            }
        },
        {
            "type": "Feature",
            "geometry": {
                "type": "Point",
                "coordinates": [
                    139.7037,
                    35.71176
                ]
            },
            "properties": {
                "company": "西武鉄道",
                "line": "新宿線",
                "name": "高田馬場",
                "passengers": 304904
            }
        },
        {
            "type": "Feature",
            "geometry": {
                "type": "Point",
                "coordinates": [
                    139.70603,
                    35.7128
                ]
            },
            "properties": {
                "company": "東京地下鉄",
                "line": "5号線東西線",
                "name": "高田馬場",
                "passengers": 203957
            }
        },
        {
            "type": "Feature",
            "geometry": {
                "type": "Point",
                "coordinates": [
                    139.70423,
                    35.7141
                ]
            },
            "properties": {
                "company": "東日本旅客鉄道",
                "line": "山手線",
                "name": "高田馬場",
                "passengers": 413366
            }
        },
        {
            "type": "Feature",
            "geometry": {
                "type": "Point",
                "coordinates": [
                    139.70032,
                    35.70175
                ]
            },
            "properties": {
                "company": "東日本旅客鉄道",
                "line": "山手線",
                "name": "新大久保",
                "passengers": 87858
            }
        },
        {
            "type": "Feature",
            "geometry": {
                "type": "Point",
                "coordinates": [
                    139.7037,
                    35.71176
                ]
            },
            "properties": {
                "company": "西武鉄道",
                "line": "新宿線",
                "name": "高田馬場",
                "passengers": 304904
            }
        },
        {
            "type": "Feature",
            "geometry": {
                "type": "Point",
                "coordinates": [
                    139.71929,
                    35.71181
                ]
            },
            "properties": {
                "company": "東京都",
                "line": "荒川線",
                "name": "早稲田",
                "passengers": 3179
            }
        },
        {
            "type": "Feature",
            "geometry": {
                "type": "Point",
                "coordinates": [
                    139.71502,
                    35.7204
                ]
            },
            "properties": {
                "company": "東京都",
                "line": "荒川線",
                "name": "鬼子母神前",
                "passengers": 2564
            }
        },
        {
            "type": "Feature",
            "geometry": {
                "type": "Point",
                "coordinates": [
                    139.70423,
                    35.7141
                ]
            },
            "properties": {
                "company": "東日本旅客鉄道",
                "line": "山手線",
                "name": "高田馬場",
                "passengers": 413366
            }
        },
        {
            "type": "Feature",
            "geometry": {
                "type": "Point",
                "coordinates": [
                    139.7066,
                    35.72145
                ]
            },
            "properties": {
                "company": "東日本旅客鉄道",
                "line": "山手線",
                "name": "目白",
                "passengers": 75878
            }
        },
        {
            "type": "Feature",
            "geometry": {
                "type": "Point",
                "coordinates": [
                    139.70933,
                    35.70892
                ]
            },
            "properties": {
                "company": "東京地下鉄",
                "line": "13号線副都心線",
                "name": "西早稲田",
                "passengers": 38739
            }
        },
        {
            "type": "Feature",
            "geometry": {
                "type": "Point",
                "coordinates": [
                    139.71558,
                    35.72139
                ]
            },
            "properties": {
                "company": "東京地下鉄",
                "line": "13号線副都心線",
                "name": "雑司が谷",
                "passengers": 18381
            }
        },
        {
            "type": "Feature",
            "geometry": {
                "type": "Point",
                "coordinates": [
                    139.7037,
                    35.71176
                ]
            },
            "properties": {
                "company": "西武鉄道",
                "line": "新宿線",
                "name": "高田馬場",
                "passengers": 304904
            }
        },
        {
            "type": "Feature",
            "geometry": {
                "type": "Point",
                "coordinates": [
                    139.71929,
                    35.71181
                ]
            },
            "properties": {
                "company": "東京都",
                "line": "荒川線",
                "name": "早稲田",
                "passengers": 3179
            }
        },
        {
            "type": "Feature",
            "geometry": {
                "type": "Point",
                "coordinates": [
                    139.71502,
                    35.7204
                ]
            },
            "properties": {
                "company": "東京都",
                "line": "荒川線",
                "name": "鬼子母神前",
                "passengers": 2564
            }
        },
        {
            "type": "Feature",
            "geometry": {
                "type": "Point",
                "coordinates": [
                    139.70423,
                    35.7141
                ]
            },
            "properties": {
                "company": "東日本旅客鉄道",
                "line": "山手線",
                "name": "高田馬場",
                "passengers": 413366
            }
        },
        {
            "type": "Feature",
            "geometry": {
                "type": "Point",
                "coordinates": [
                    139.7066,
                    35.72145
                ]
            },
            "properties": {
                "company": "東日本旅客鉄道",
                "line": "山手線",
                "name": "目白",
                "passengers": 75878
            }
        },
        {
            "type": "Feature",
            "geometry": {
                "type": "Point",
                "coordinates": [
                    139.70933,
                    35.70892
                ]
            },
            "properties": {
                "company": "東京地下鉄",
                "line": "13号線副都心線",
                "name": "西早稲田",
                "passengers": 38739
            }
        },
        {
            "type": "Feature",
            "geometry": {
                "type": "Point",
                "coordinates": [
                    139.71558,
                    35.72139
                ]
            },
            "properties": {
                "company": "東京地下鉄",
                "line": "13号線副都心線",
                "name": "雑司が谷",
                "passengers": 18381
            }
        },
        {
            "type": "Feature",
            "geometry": {
                "type": "Point",
                "coordinates": [
                    139.33329,
                    35.73502
                ]
            },
            "properties": {
                "company": "東日本旅客鉄道",
                "line": "青梅線",
                "name": "牛浜",
                "passengers": 9008
            }
        },
        {
            "type": "Feature",
            "geometry": {
                "type": "Point",
                "coordinates": [
                    139.62567,
                    35.46196
                ]
            },
            "properties": {
                "company": "横浜高速鉄道",
                "line": "みなとみらい21線",
                "name": "新高島",
                "passengers": 6082
            }
        },
        {
            "type": "Feature",
            "geometry": {
                "type": "Point",
                "coordinates": [
                    139.62275,
                    35.46687
                ]
            },
            "properties": {
                "company": "横浜高速鉄道",
                "line": "みなとみらい21線",
                "name": "横浜",
                "passengers": 200276
            }
        },
        {
            "type": "Feature",
            "geometry": {
                "type": "Point",
                "coordinates": [
                    139.62414,
                    35.4581
                ]
            },
            "properties": {
                "company": "横浜市",
                "line": "3号線",
                "name": "高島町",
                "passengers": 9662
            }
        },
        {
            "type": "Feature",
            "geometry": {
                "type": "Point",
                "coordinates": [
                    139.61976,
                    35.45619
                ]
            },
            "properties": {
                "company": "京浜急行電鉄",
                "line": "本線",
                "name": "戸部",
                "passengers": 16011
            }
        },
        {
            "type": "Feature",
            "geometry": {
                "type": "Point",
                "coordinates": [
                    139.61615,
                    35.4595
                ]
            },
            "properties": {
                "company": "相模鉄道",
                "line": "本線",
                "name": "平沼橋",
                "passengers": 8445
            }
        },
        {
            "type": "Feature",
            "geometry": {
                "type": "Point",
                "coordinates": [
                    139.62313,
                    35.46693
                ]
            },
            "properties": {
                "company": "相模鉄道",
                "line": "本線",
                "name": "横浜",
                "passengers": 428218
            }
        },
        {
            "type": "Feature",
            "geometry": {
                "type": "Point",
                "coordinates": [
                    139.62275,
                    35.46687
                ]
            },
            "properties": {
                "company": "東京急行電鉄",
                "line": "東横線",
                "name": "横浜",
                "passengers": 362526
            }
        },
        {
            "type": "Feature",
            "geometry": {
                "type": "Point",
                "coordinates": [
                    139.65536,
                    35.48703
                ]
            },
            "properties": {
                "company": "京浜急行電鉄",
                "line": "本線",
                "name": "京急新子安",
                "passengers": 8517
            }
        },
        {
            "type": "Feature",
            "geometry": {
                "type": "Point",
                "coordinates": [
                    139.63956,
                    35.48104
                ]
            },
            "properties": {
                "company": "京浜急行電鉄",
                "line": "本線",
                "name": "神奈川新町",
                "passengers": 19267
            }
        },
        {
            "type": "Feature",
            "geometry": {
                "type": "Point",
                "coordinates": [
                    139.64643,
                    35.4918
                ]
            },
            "properties": {
                "company": "東日本旅客鉄道",
                "line": "横浜線",
                "name": "大口",
                "passengers": 36822
            }
        },
        {
            "type": "Feature",
            "geometry": {
                "type": "Point",
                "coordinates": [
                    139.65298,
                    35.48629
                ]
            },
            "properties": {
                "company": "東日本旅客鉄道",
                "line": "東海道線",
                "name": "新子安",
                "passengers": 45868
            }
        },
        {
            "type": "Feature",
            "geometry": {
                "type": "Point",
                "coordinates": [
                    139.62719,
                    35.47099
                ]
            },
            "properties": {
                "company": "京浜急行電鉄",
                "line": "本線",
                "name": "神奈川",
                "passengers": 4637
            }
        },
        {
            "type": "Feature",
            "geometry": {
                "type": "Point",
                "coordinates": [
                    139.63444,
                    35.47718
                ]
            },
            "properties": {
                "company": "京浜急行電鉄",
                "line": "本線",
                "name": "仲木戸",
                "passengers": 22996
            }
        },
        {
            "type": "Feature",
            "geometry": {
                "type": "Point",
                "coordinates": [
                    139.62963,
                    35.4831
                ]
            },
            "properties": {
                "company": "東京急行電鉄",
                "line": "東横線",
                "name": "東白楽",
                "passengers": 14190
            }
        },
        {
            "type": "Feature",
            "geometry": {
                "type": "Point",
                "coordinates": [
                    139.62275,
                    35.46687
                ]
            },
            "properties": {
                "company": "横浜高速鉄道",
                "line": "みなとみらい21線",
                "name": "横浜",
                "passengers": 200276
            }
        },
        {
            "type": "Feature",
            "geometry": {
                "type": "Point",
                "coordinates": [
                    139.61613,
                    35.47651
                ]
            },
            "properties": {
                "company": "横浜市",
                "line": "3号線",
                "name": "三ツ沢下町",
                "passengers": 12506
            }
        },
        {
            "type": "Feature",
            "geometry": {
                "type": "Point",
                "coordinates": [
                    139.63444,
                    35.47718
                ]
            },
            "properties": {
                "company": "京浜急行電鉄",
                "line": "本線",
                "name": "仲木戸",
                "passengers": 22996
            }
        },
        {
            "type": "Feature",
            "geometry": {
                "type": "Point",
                "coordinates": [
                    139.62313,
                    35.46693
                ]
            },
            "properties": {
                "company": "相模鉄道",
                "line": "本線",
                "name": "横浜",
                "passengers": 428218
            }
        },
        {
            "type": "Feature",
            "geometry": {
                "type": "Point",
                "coordinates": [
                    139.62275,
                    35.46687
                ]
            },
            "properties": {
                "company": "東京急行電鉄",
                "line": "東横線",
                "name": "横浜",
                "passengers": 362526
            }
        },
        {
            "type": "Feature",
            "geometry": {
                "type": "Point",
                "coordinates": [
                    139.6324,
                    35.47706
                ]
            },
            "properties": {
                "company": "東日本旅客鉄道",
                "line": "横浜線",
                "name": "東神奈川",
                "passengers": 71968
            }
        },
        {
            "type": "Feature",
            "geometry": {
                "type": "Point",
                "coordinates": [
                    139.67811,
                    35.50725
                ]
            },
            "properties": {
                "company": "京浜急行電鉄",
                "line": "本線",
                "name": "京急鶴見",
                "passengers": 32705
            }
        },
        {
            "type": "Feature",
            "geometry": {
                "type": "Point",
                "coordinates": [
                    139.68677,
                    35.51801
                ]
            },
            "properties": {
                "company": "京浜急行電鉄",
                "line": "本線",
                "name": "鶴見市場",
                "passengers": 20877
            }
        },
        {
            "type": "Feature",
            "geometry": {
                "type": "Point",
                "coordinates": [
                    139.67583,
                    35.50822
                ]
            },
            "properties": {
                "company": "東日本旅客鉄道",
                "line": "鶴見線",
                "name": "鶴見",
                "passengers": 160364
            }
        },
        {
            "type": "Feature",
            "geometry": {
                "type": "Point",
                "coordinates": [
                    139.64175,
                    35.44735
                ]
            },
            "properties": {
                "company": "横浜高速鉄道",
                "line": "みなとみらい21線",
                "name": "日本大通り",
                "passengers": 25938
            }
        },
        {
            "type": "Feature",
            "geometry": {
                "type": "Point",
                "coordinates": [
                    139.63204,
                    35.44065
                ]
            },
            "properties": {
                "company": "横浜市",
                "line": "1号線",
                "name": "伊勢佐木長者町",
                "passengers": 16373
            }
        },
        {
            "type": "Feature",
            "geometry": {
                "type": "Point",
                "coordinates": [
                    139.64175,
                    35.44735
                ]
            },
            "properties": {
                "company": "横浜高速鉄道",
                "line": "みなとみらい21線",
                "name": "日本大通り",
                "passengers": 25938
            }
        },
        {
            "type": "Feature",
            "geometry": {
                "type": "Point",
                "coordinates": [
                    139.63673,
                    35.44537
                ]
            },
            "properties": {
                "company": "横浜市",
                "line": "3号線",
                "name": "関内",
                "passengers": 45043
            }
        },
        {
            "type": "Feature",
            "geometry": {
                "type": "Point",
                "coordinates": [
                    139.57337,
                    35.40104
                ]
            },
            "properties": {
                "company": "横浜市",
                "line": "1号線",
                "name": "上永谷",
                "passengers": 36935
            }
        },
        {
            "type": "Feature",
            "geometry": {
                "type": "Point",
                "coordinates": [
                    139.55969,
                    35.40261
                ]
            },
            "properties": {
                "company": "横浜市",
                "line": "1号線",
                "name": "下永谷",
                "passengers": 11225
            }
        },
        {
            "type": "Feature",
            "geometry": {
                "type": "Point",
                "coordinates": [
                    139.63217,
                    35.33754
                ]
            },
            "properties": {
                "company": "横浜シーサイドライン",
                "line": "金沢シーサイドライン",
                "name": "海の公園南口",
                "passengers": 1586
            }
        },
        {
            "type": "Feature",
            "geometry": {
                "type": "Point",
                "coordinates": [
                    139.62459,
                    35.31632
                ]
            },
            "properties": {
                "company": "京浜急行電鉄",
                "line": "本線",
                "name": "追浜",
                "passengers": 42366
            }
        },
        {
            "type": "Feature",
            "geometry": {
                "type": "Point",
                "coordinates": [
                    139.66184,
                    35.28029
                ]
            },
            "properties": {
                "company": "京浜急行電鉄",
                "line": "本線",
                "name": "汐入",
                "passengers": 21588
            }
        },
        {
            "type": "Feature",
            "geometry": {
                "type": "Point",
                "coordinates": [
                    139.66937,
                    35.27902
                ]
            },
            "properties": {
                "company": "京浜急行電鉄",
                "line": "本線",
                "name": "横須賀中央",
                "passengers": 67293
            }
        },
        {
            "type": "Feature",
            "geometry": {
                "type": "Point",
                "coordinates": [
                    139.67611,
                    35.27041
                ]
            },
            "properties": {
                "company": "京浜急行電鉄",
                "line": "本線",
                "name": "県立大学",
                "passengers": 12450
            }
        },
        {
            "type": "Feature",
            "geometry": {
                "type": "Point",
                "coordinates": [
                    139.66184,
                    35.28029
                ]
            },
            "properties": {
                "company": "京浜急行電鉄",
                "line": "本線",
                "name": "汐入",
                "passengers": 21588
            }
        },
        {
            "type": "Feature",
            "geometry": {
                "type": "Point",
                "coordinates": [
                    139.45098,
                    35.48991
                ]
            },
            "properties": {
                "company": "小田急電鉄",
                "line": "江ノ島線",
                "name": "鶴間",
                "passengers": 30443
            }
        },
        {
            "type": "Feature",
            "geometry": {
                "type": "Point",
                "coordinates": [
                    139.48707,
                    35.41438
                ]
            },
            "properties": {
                "company": "相模鉄道",
                "line": "いずみ野線",
                "name": "いずみ中央",
                "passengers": 16016
            }
        },
        {
            "type": "Feature",
            "geometry": {
                "type": "Point",
                "coordinates": [
                    139.50135,
                    35.41447
                ]
            },
            "properties": {
                "company": "横浜市",
                "line": "1号線",
                "name": "立場",
                "passengers": 22522
            }
        },
        {
            "type": "Feature",
            "geometry": {
                "type": "Point",
                "coordinates": [
                    139.48523,
                    35.32752
                ]
            },
            "properties": {
                "company": "江ノ島電鉄",
                "line": "江ノ島電鉄線",
                "name": "柳小路",
                "passengers": 2657
            }
        },
        {
            "type": "Feature",
            "geometry": {
                "type": "Point",
                "coordinates": [
                    139.47144,
                    35.3204
                ]
            },
            "properties": {
                "company": "小田急電鉄",
                "line": "江ノ島線",
                "name": "鵠沼海岸",
                "passengers": 20079
            }
        },
        {
            "type": "Feature",
            "geometry": {
                "type": "Point",
                "coordinates": [
                    139.48743,
                    35.33772
                ]
            },
            "properties": {
                "company": "江ノ島電鉄",
                "line": "江ノ島電鉄線",
                "name": "藤沢",
                "passengers": 23240
            }
        },
        {
            "type": "Feature",
            "geometry": {
                "type": "Point",
                "coordinates": [
                    139.4864,
                    35.33858
                ]
            },
            "properties": {
                "company": "小田急電鉄",
                "line": "江ノ島線",
                "name": "藤沢",
                "passengers": 165124
            }
        },
        {
            "type": "Feature",
            "geometry": {
                "type": "Point",
                "coordinates": [
                    139.48473,
                    35.33876
                ]
            },
            "properties": {
                "company": "東日本旅客鉄道",
                "line": "東海道線",
                "name": "藤沢",
                "passengers": 216410
            }
        },
        {
            "type": "Feature",
            "geometry": {
                "type": "Point",
                "coordinates": [
                    139.35238,
                    35.57982
                ]
            },
            "properties": {
                "company": "東日本旅客鉄道",
                "line": "相模線",
                "name": "南橋本",
                "passengers": 11044
            }
        },
        {
            "type": "Feature",
            "geometry": {
                "type": "Point",
                "coordinates": [
                    139.4652,
                    35.39602
                ]
            },
            "properties": {
                "company": "横浜市",
                "line": "1号線",
                "name": "湘南台",
                "passengers": 48800
            }
        },
        {
            "type": "Feature",
            "geometry": {
                "type": "Point",
                "coordinates": [
                    139.46632,
                    35.39701
                ]
            },
            "properties": {
                "company": "小田急電鉄",
                "line": "江ノ島線",
                "name": "湘南台",
                "passengers": 91150
            }
        },
        {
            "type": "Feature",
            "geometry": {
                "type": "Point",
                "coordinates": [
                    139.47061,
                    35.38412
                ]
            },
            "properties": {
                "company": "小田急電鉄",
                "line": "江ノ島線",
                "name": "六会日大前",
                "passengers": 30453
            }
        },
        {
            "type": "Feature",
            "geometry": {
                "type": "Point",
                "coordinates": [
                    139.4652,
                    35.39602
                ]
            },
            "properties": {
                "company": "相模鉄道",
                "line": "いずみ野線",
                "name": "湘南台",
                "passengers": 28367
            }
        },
        {
            "type": "Feature",
            "geometry": {
                "type": "Point",
                "coordinates": [
                    139.39439,
                    35.56897
                ]
            },
            "properties": {
                "company": "東日本旅客鉄道",
                "line": "横浜線",
                "name": "淵野辺",
                "passengers": 76536
            }
        },
        {
            "type": "Feature",
            "geometry": {
                "type": "Point",
                "coordinates": [
                    139.2779,
                    35.38099
                ]
            },
            "properties": {
                "company": "小田急電鉄",
                "line": "小田原線",
                "name": "鶴巻温泉",
                "passengers": 15041
            }
        },
        {
            "type": "Feature",
            "geometry": {
                "type": "Point",
                "coordinates": [
                    139.27125,
                    35.37317
                ]
            },
            "properties": {
                "company": "小田急電鉄",
                "line": "小田原線",
                "name": "東海大学前",
                "passengers": 40950
            }
        },
        {
            "type": "Feature",
            "geometry": {
                "type": "Point",
                "coordinates": [
                    139.95927,
                    35.71146
                ]
            },
            "properties": {
                "company": "京成電鉄",
                "line": "本線",
                "name": "京成西船",
                "passengers": 10686
            }
        },
        {
            "type": "Feature",
            "geometry": {
                "type": "Point",
                "coordinates": [
                    139.9531,
                    35.7143
                ]
            },
            "properties": {
                "company": "京成電鉄",
                "line": "本線",
                "name": "東中山",
                "passengers": 6902
            }
        },
        {
            "type": "Feature",
            "geometry": {
                "type": "Point",
                "coordinates": [
                    139.95979,
                    35.70671
                ]
            },
            "properties": {
                "company": "東京地下鉄",
                "line": "5号線東西線",
                "name": "西船橋",
                "passengers": 293332
            }
        },
        {
            "type": "Feature",
            "geometry": {
                "type": "Point",
                "coordinates": [
                    139.9602,
                    35.707
                ]
            },
            "properties": {
                "company": "東日本旅客鉄道",
                "line": "総武線",
                "name": "西船橋",
                "passengers": 272134
            }
        },
        {
            "type": "Feature",
            "geometry": {
                "type": "Point",
                "coordinates": [
                    139.95979,
                    35.70671
                ]
            },
            "properties": {
                "company": "東葉高速鉄道",
                "line": "東葉高速線",
                "name": "西船橋",
                "passengers": 120885
            }
        },
        {
            "type": "Feature",
            "geometry": {
                "type": "Point",
                "coordinates": [
                    139.95927,
                    35.71146
                ]
            },
            "properties": {
                "company": "京成電鉄",
                "line": "本線",
                "name": "京成西船",
                "passengers": 10686
            }
        },
        {
            "type": "Feature",
            "geometry": {
                "type": "Point",
                "coordinates": [
                    139.9531,
                    35.7143
                ]
            },
            "properties": {
                "company": "京成電鉄",
                "line": "本線",
                "name": "東中山",
                "passengers": 6902
            }
        },
        {
            "type": "Feature",
            "geometry": {
                "type": "Point",
                "coordinates": [
                    139.94493,
                    35.71673
                ]
            },
            "properties": {
                "company": "京成電鉄",
                "line": "本線",
                "name": "京成中山",
                "passengers": 3787
            }
        },
        {
            "type": "Feature",
            "geometry": {
                "type": "Point",
                "coordinates": [
                    139.94395,
                    35.71391
                ]
            },
            "properties": {
                "company": "東日本旅客鉄道",
                "line": "総武線",
                "name": "下総中山",
                "passengers": 46796
            }
        },
        {
            "type": "Feature",
            "geometry": {
                "type": "Point",
                "coordinates": [
                    140.16599,
                    35.66323
                ]
            },
            "properties": {
                "company": "東日本旅客鉄道",
                "line": "総武線",
                "name": "四街道",
                "passengers": 44264
            }
        },
        {
            "type": "Feature",
            "geometry": {
                "type": "Point",
                "coordinates": [
                    140.27495,
                    35.73119
                ]
            },
            "properties": {
                "company": "東日本旅客鉄道",
                "line": "成田線",
                "name": "酒々井",
                "passengers": 6958
            }
        },
        {
            "type": "Feature",
            "geometry": {
                "type": "Point",
                "coordinates": [
                    140.31239,
                    35.52143
                ]
            },
            "properties": {
                "company": "東日本旅客鉄道",
                "line": "外房線",
                "name": "大網",
                "passengers": 21202
            }
        },
        {
            "type": "Feature",
            "geometry": {
                "type": "Point",
                "coordinates": [
                    139.99081,
                    36.01744
                ]
            },
            "properties": {
                "company": "関東鉄道",
                "line": "常総線",
                "name": "水海道",
                "passengers": 2973
            }
        },
        {
            "type": "Feature",
            "geometry": {
                "type": "Point",
                "coordinates": [
                    140.56292,
                    36.31595
                ]
            },
            "properties": {
                "company": "鹿島臨海鉄道",
                "line": "大洗鹿島線",
                "name": "大洗",
                "passengers": 2247
            }
        },
        {
            "type": "Feature",
            "geometry": {
                "type": "Point",
                "coordinates": [
                    139.69181,
                    36.7259
                ]
            },
            "properties": {
                "company": "東武鉄道",
                "line": "日光線",
                "name": "下今市",
                "passengers": 2504
            }
        },
        {
            "type": "Feature",
            "geometry": {
                "type": "Point",
                "coordinates": [
                    140.02193,
                    36.93247
                ]
            },
            "properties": {
                "company": "東日本旅客鉄道",
                "line": "東北線",
                "name": "那須塩原",
                "passengers": 10376
            }
        },
        {
            "type": "Feature",
            "geometry": {
                "type": "Point",
                "coordinates": [
                    139.69116,
                    35.82721
                ]
            },
            "properties": {
                "company": "東日本旅客鉄道",
                "line": "東北線",
                "name": "蕨",
                "passengers": 120268
            }
        },
        {
            "type": "Feature",
            "geometry": {
                "type": "Point",
                "coordinates": [
                    139.70496,
                    35.86422
                ]
            },
            "properties": {
                "company": "東日本旅客鉄道",
                "line": "武蔵野線",
                "name": "東浦和",
                "passengers": 56744
            }
        },
        {
            "type": "Feature",
            "geometry": {
                "type": "Point",
                "coordinates": [
                    139.40566,
                    35.90739
                ]
            },
            "properties": {
                "company": "東日本旅客鉄道",
                "line": "川越線",
                "name": "笠幡",
                "passengers": 6000
            }
        },
        {
            "type": "Feature",
            "geometry": {
                "type": "Point",
                "coordinates": [
                    139.19469,
                    36.32665
                ]
            },
            "properties": {
                "company": "東日本旅客鉄道",
                "line": "両毛線",
                "name": "伊勢崎",
                "passengers": 11650
            }
        },
        {
            "type": "Feature",
            "geometry": {
                "type": "Point",
                "coordinates": [
                    139.20157,
                    36.31882
                ]
            },
            "properties": {
                "company": "東武鉄道",
                "line": "伊勢崎線",
                "name": "新伊勢崎",
                "passengers": 1283
            }
        },
        {
            "type": "Feature",
            "geometry": {
                "type": "Point",
                "coordinates": [
                    139.19581,
                    36.32628
                ]
            },
            "properties": {
                "company": "東武鉄道",
                "line": "伊勢崎線",
                "name": "伊勢崎",
                "passengers": 6738
            }
        },
        {
            "type": "Feature",
            "geometry": {
                "type": "Point",
                "coordinates": [
                    137.96915,
                    36.20946
                ]
            },
            "properties": {
                "company": "東日本旅客鉄道",
                "line": "篠ノ井線",
                "name": "南松本",
                "passengers": 3190
            }
        },
        {
            "type": "Feature",
            "geometry": {
                "type": "Point",
                "coordinates": [
                    138.08646,
                    36.07193
                ]
            },
            "properties": {
                "company": "東日本旅客鉄道",
                "line": "中央線",
                "name": "下諏訪",
                "passengers": 4280
            }
        },
        {
            "type": "Feature",
            "geometry": {
                "type": "Point",
                "coordinates": [
                    138.38721,
                    34.97577
                ]
            },
            "properties": {
                "company": "静岡鉄道",
                "line": "静岡清水線",
                "name": "新静岡",
                "passengers": 19272
            }
        },
        {
            "type": "Feature",
            "geometry": {
                "type": "Point",
                "coordinates": [
                    138.40024,
                    34.97825
                ]
            },
            "properties": {
                "company": "静岡鉄道",
                "line": "静岡清水線",
                "name": "春日町",
                "passengers": 1746
            }
        },
        {
            "type": "Feature",
            "geometry": {
                "type": "Point",
                "coordinates": [
                    137.7327,
                    34.70712
                ]
            },
            "properties": {
                "company": "遠州鉄道",
                "line": "鉄道線",
                "name": "第一通り",
                "passengers": 3077
            }
        },
        {
            "type": "Feature",
            "geometry": {
                "type": "Point",
                "coordinates": [
                    137.74543,
                    34.7412
                ]
            },
            "properties": {
                "company": "遠州鉄道",
                "line": "鉄道線",
                "name": "上島",
                "passengers": 3380
            }
        },
        {
            "type": "Feature",
            "geometry": {
                "type": "Point",
                "coordinates": [
                    138.01668,
                    34.76965
                ]
            },
            "properties": {
                "company": "天竜浜名湖鉄道",
                "line": "天竜浜名湖線",
                "name": "掛川",
                "passengers": 1955
            }
        },
        {
            "type": "Feature",
            "geometry": {
                "type": "Point",
                "coordinates": [
                    138.01668,
                    34.76965
                ]
            },
            "properties": {
                "company": "天竜浜名湖鉄道",
                "line": "天竜浜名湖線",
                "name": "掛川",
                "passengers": 1955
            }
        },
        {
            "type": "Feature",
            "geometry": {
                "type": "Point",
                "coordinates": [
                    137.26947,
                    34.66692
                ]
            },
            "properties": {
                "company": "豊橋鉄道",
                "line": "渥美線",
                "name": "三河田原",
                "passengers": 3006
            }
        },
        {
            "type": "Feature",
            "geometry": {
                "type": "Point",
                "coordinates": [
                    136.90673,
                    35.15724
                ]
            },
            "properties": {
                "company": "名古屋市",
                "line": "2号線名城線",
                "name": "上前津",
                "passengers": 46309
            }
        },
        {
            "type": "Feature",
            "geometry": {
                "type": "Point",
                "coordinates": [
                    136.94646,
                    35.16773
                ]
            },
            "properties": {
                "company": "名古屋市",
                "line": "1号線東山線",
                "name": "池下",
                "passengers": 28179
            }
        },
        {
            "type": "Feature",
            "geometry": {
                "type": "Point",
                "coordinates": [
                    136.92958,
                    35.1707
                ]
            },
            "properties": {
                "company": "名古屋市",
                "line": "1号線東山線",
                "name": "千種",
                "passengers": 50945
            }
        },
        {
            "type": "Feature",
            "geometry": {
                "type": "Point",
                "coordinates": [
                    136.93016,
                    35.1733
                ]
            },
            "properties": {
                "company": "名古屋市",
                "line": "6号線桜通線",
                "name": "車道",
                "passengers": 14220
            }
        },
        {
            "type": "Feature",
            "geometry": {
                "type": "Point",
                "coordinates": [
                    136.98893,
                    35.12841
                ]
            },
            "properties": {
                "company": "名古屋市",
                "line": "3号線鶴舞線",
                "name": "植田",
                "passengers": 17630
            }
        },
        {
            "type": "Feature",
            "geometry": {
                "type": "Point",
                "coordinates": [
                    137.04481,
                    35.26428
                ]
            },
            "properties": {
                "company": "愛知環状鉄道",
                "line": "愛知環状鉄道線",
                "name": "高蔵寺",
                "passengers": 10872
            }
        },
        {
            "type": "Feature",
            "geometry": {
                "type": "Point",
                "coordinates": [
                    136.61872,
                    34.96795
                ]
            },
            "properties": {
                "company": "近畿日本鉄道",
                "line": "名古屋線",
                "name": "近鉄四日市",
                "passengers": 45694
            }
        },
        {
            "type": "Feature",
            "geometry": {
                "type": "Point",
                "coordinates": [
                    136.61831,
                    34.95669
                ]
            },
            "properties": {
                "company": "近畿日本鉄道",
                "line": "名古屋線",
                "name": "新正",
                "passengers": 1385
            }
        },
        {
            "type": "Feature",
            "geometry": {
                "type": "Point",
                "coordinates": [
                    136.55663,
                    34.79902
                ]
            },
            "properties": {
                "company": "近畿日本鉄道",
                "line": "名古屋線",
                "name": "千里",
                "passengers": 2568
            }
        },
        {
            "type": "Feature",
            "geometry": {
                "type": "Point",
                "coordinates": [
                    136.5165,
                    34.75547
                ]
            },
            "properties": {
                "company": "近畿日本鉄道",
                "line": "名古屋線",
                "name": "高田本山",
                "passengers": 2093
            }
        },
        {
            "type": "Feature",
            "geometry": {
                "type": "Point",
                "coordinates": [
                    136.51414,
                    34.74516
                ]
            },
            "properties": {
                "company": "近畿日本鉄道",
                "line": "名古屋線",
                "name": "江戸橋",
                "passengers": 8019
            }
        },
        {
            "type": "Feature",
            "geometry": {
                "type": "Point",
                "coordinates": [
                    136.130103,
                    34.767771
                ]
            },
            "properties": {
                "company": "伊賀鉄道",
                "line": "伊賀線",
                "name": "上野市",
                "passengers": 1828
            }
        },
        {
            "type": "Feature",
            "geometry": {
                "type": "Point",
                "coordinates": [
                    136.03188,
                    35.39683
                ]
            },
            "properties": {
                "company": "西日本旅客鉄道",
                "line": "湖西線",
                "name": "近江今津",
                "passengers": 4375
            }
        },
        {
            "type": "Feature",
            "geometry": {
                "type": "Point",
                "coordinates": [
                    136.05226,
                    35.01818
                ]
            },
            "properties": {
                "company": "西日本旅客鉄道",
                "line": "草津線",
                "name": "石部",
                "passengers": 3752
            }
        },
        {
            "type": "Feature",
            "geometry": {
                "type": "Point",
                "coordinates": [
                    136.24879,
                    35.24679
                ]
            },
            "properties": {
                "company": "西日本旅客鉄道",
                "line": "東海道線",
                "name": "南彦根",
                "passengers": 11678
            }
        },
        {
            "type": "Feature",
            "geometry": {
                "type": "Point",
                "coordinates": [
                    136.19443,
                    35.11386
                ]
            },
            "properties": {
                "company": "近江鉄道",
                "line": "本線",
                "name": "八日市",
                "passengers": 3538
            }
        },
        {
            "type": "Feature",
            "geometry": {
                "type": "Point",
                "coordinates": [
                    136.22213,
                    35.50497
                ]
            },
            "properties": {
                "company": "西日本旅客鉄道",
                "line": "北陸線",
                "name": "木ノ本",
                "passengers": 1500
            }
        },
        {
            "type": "Feature",
            "geometry": {
                "type": "Point",
                "coordinates": [
                    135.50437,
                    34.74002
                ]
            },
            "properties": {
                "company": "西日本旅客鉄道",
                "line": "東海道線",
                "name": "東淀川",
                "passengers": 16608
            }
        },
        {
            "type": "Feature",
            "geometry": {
                "type": "Point",
                "coordinates": [
                    135.49854,
                    34.73373
                ]
            },
            "properties": {
                "company": "大阪市",
                "line": "1号線(御堂筋線)",
                "name": "新大阪",
                "passengers": 148472
            }
        },
        {
            "type": "Feature",
            "geometry": {
                "type": "Point",
                "coordinates": [
                    135.5506,
                    34.66468
                ]
            },
            "properties": {
                "company": "近畿日本鉄道",
                "line": "大阪線",
                "name": "今里",
                "passengers": 10671
            }
        },
        {
            "type": "Feature",
            "geometry": {
                "type": "Point",
                "coordinates": [
                    135.56463,
                    34.66411
                ]
            },
            "properties": {
                "company": "近畿日本鉄道",
                "line": "奈良線",
                "name": "布施",
                "passengers": 38240
            }
        },
        {
            "type": "Feature",
            "geometry": {
                "type": "Point",
                "coordinates": [
                    135.55538,
                    34.66824
                ]
            },
            "properties": {
                "company": "大阪市",
                "line": "5号線(千日前線)",
                "name": "新深江",
                "passengers": 12638
            }
        },
        {
            "type": "Feature",
            "geometry": {
                "type": "Point",
                "coordinates": [
                    135.4649,
                    34.69649
                ]
            },
            "properties": {
                "company": "阪神電気鉄道",
                "line": "本線",
                "name": "淀川",
                "passengers": 5203
            }
        },
        {
            "type": "Feature",
            "geometry": {
                "type": "Point",
                "coordinates": [
                    135.47567,
                    34.6895
                ]
            },
            "properties": {
                "company": "西日本旅客鉄道",
                "line": "大阪環状線",
                "name": "野田",
                "passengers": 24845
            }
        },
        {
            "type": "Feature",
            "geometry": {
                "type": "Point",
                "coordinates": [
                    135.47582,
                    34.6901
                ]
            },
            "properties": {
                "company": "大阪市",
                "line": "5号線(千日前線)",
                "name": "玉川",
                "passengers": 10421
            }
        },