url,catholic,lat,lng,address,name
https://www.google.com/maps/place/Sapporo+Glory+Church+%E6%9C%AD%E5%B9%8C%E3%82%B0%E3%83%AD%E3%83%AA%E3%82%A2%E3%83%81%E3%83%A3%E3%83%BC%E3%83%81/data=!4m2!3m1!1s0x5f0b291964b25787:0x5110d6a8667f01a0,FALSE,43.0887218,141.3415462,〒001-0023 北海道札幌市北区北２３条西６丁目１−４５,Sapporo Glory Church 札幌グロリアチャーチ
https://www.google.com/maps/place/%E6%97%A5%E6%9C%AC%E3%82%AD%E3%83%AA%E3%82%B9%E3%83%88%E6%95%99%E5%9B%A3%E7%A7%8B%E7%94%B0%E9%AB%98%E9%99%BD%E6%95%99%E4%BC%9A/data=!4m2!3m1!1s0x5f8fc2c88cfa0e1d:0xc487631bc8aac8e9,FALSE,39.7251232,140.1051008,〒010-0966 秋田県秋田市高陽青柳町１３−３１,日本キリスト教団秋田高陽教会
https://www.google.com/maps/place/%E3%82%AB%E3%83%88%E3%83%AA%E3%83%83%E3%82%AF%E6%A8%AA%E6%89%8B%E6%95%99%E4%BC%9A/data=!4m2!3m1!1s0x5f8f0ffc3cf8f7dd:0xc75d14a9b04a9e21,TRUE,39.3118021,140.5643352,〒013-0025 秋田県横手市寿町７−２５,カトリック横手教会
https://www.google.com/maps/place/%E3%82%AB%E3%83%88%E3%83%AA%E3%83%83%E3%82%AF%E6%9C%AC%E8%8D%98%E6%95%99%E4%BC%9A/data=!4m2!3m1!1s0x5f8e526f9f6be151:0xc5474f6f202ee67,TRUE,39.3883764,140.0407231,〒015-0874 秋田県由利本荘市 給人町100,カトリック本荘教会
https://www.google.com/maps/place/%E7%9B%9B%E5%B2%A1%E3%83%90%E3%83%97%E3%83%86%E3%82%B9%E3%83%88%E6%95%99%E4%BC%9A/data=!4m2!3m1!1s0x5f85761f9d011429:0xb73e2960840f102c,FALSE,39.7033005,141.1659567,〒020-0881 岩手県盛岡市天神町10番14号,盛岡バプテスト教会
https://www.google.com/maps/place/%EA%B8%B0%ED%83%80%EC%B9%B4%EB%AF%B8%EB%B2%A7%EC%97%98%EA%B5%90%ED%9A%8C/data=!4m2!3m1!1s0x5f8f448c5a6bd025:0x11f3cde6b28744eb,FALSE,39.2844766,141.1131806,〒024-0061 岩手県北上市大通り３丁目５−１６,기타카미벧엘교회
https://www.google.com/maps/place/%E8%8A%B1%E5%B7%BB%E3%81%BE%E3%81%B6%E3%81%AD%E3%82%AD%E3%83%AA%E3%82%B9%E3%83%88%E6%95%99%E4%BC%9A/data=!4m2!3m1!1s0x5f8f67492c773c89:0x57f9c7e0ea274283,FALSE,39.394299,141.1219271,〒025-0063 岩手県花巻市下小舟渡４６−１,花巻まぶねキリスト教会
https://www.google.com/maps/place/%E8%8A%B1%E5%B7%BB+%E3%82%81%E3%81%90%E3%81%BF%E3%82%AD%E3%83%AA%E3%82%B9%E3%83%88%E6%95%99%E4%BC%9A/data=!4m2!3m1!1s0x5f8f673bfd33a20b:0x2990db453b86b30f,FALSE,39.4075101,141.1071103,〒025-0066 岩手県花巻市松園町１丁目１１−５７,花巻 めぐみキリスト教会
https://www.google.com/maps/place/%E5%8C%97%E4%B8%89%E9%99%B8%E3%82%AD%E3%83%AA%E3%82%B9%E3%83%88%E6%95%99%E4%BC%9A+(Kita+Sanriku+Christian+Church+Iwaizumi)/data=!4m2!3m1!1s0x5f84533cbf197ca5:0x49b73330935f09a9,FALSE,39.8465195,141.7908189,〒027-0501 岩手県下閉伊郡岩泉町岩泉村木７６,北三陸キリスト教会 (Kita Sanriku Christian Church Iwaizumi)
https://www.google.com/maps/place/%E3%82%AD%E3%83%AA%E3%82%B9%E3%83%88%E9%9B%86%E4%BC%9A%E6%89%80/data=!4m2!3m1!1s0x5f9b52053eda475d:0xaba33dc7db279cbd,FALSE,40.5144369,141.4896162,〒031-0075 青森県八戸市内丸１丁目３−２０,キリスト集会所
https://www.google.com/maps/place/Vertical+Life+Calvary+Chapel+(Schoolhouse)/data=!4m2!3m1!1s0x5f9b5d8d3dcdc43d:0xe9b2c94f4e00262a,FALSE,40.678395,141.3375164,〒033-0000 青森県三沢市犬落瀬古間木２７８,Vertical Life Calvary Chapel (Schoolhouse)
https://www.google.com/maps/place/Iglesia+Ni+Cristo+Locale+of+Kushiro-shi/data=!4m2!3m1!1s0x5f9b5e6c209ba1bb:0xf1b002dc9fc51853,FALSE,40.6850951,141.368299,〒033-0011 青森県三沢市幸町１丁目７−１５,Iglesia Ni Cristo Locale of Kushiro-shi
https://www.google.com/maps/place/Misawa+Church+of+God+in+Christ/data=!4m2!3m1!1s0x5f9b5e1565febc33:0x5c3605aee238e98e,FALSE,40.6916569,141.368623,〒033-0012 青森県三沢市平畑１丁目１０−２０,Misawa Church of God in Christ
https://www.google.com/maps/place/%E3%83%95%E3%82%A7%E3%82%A4%E3%82%B9%E3%83%90%E3%83%97%E3%83%86%E3%82%B9%E3%83%88%E6%95%99%E4%BC%9A/data=!4m2!3m1!1s0x5f9b5e3fbaf95e5d:0xf608bec9c9de3aa5,FALSE,40.6926564,141.3711531,〒033-0021 青森県三沢市岡三沢８丁目５１−１０,フェイスバプテスト教会
https://www.google.com/maps/place/Calvary+Baptist+Church/data=!4m2!3m1!1s0x5f9b5c4b24b00663:0x8d4b9c0a4c3bfde8,FALSE,40.6594045,141.3429536,〒033-0074 青森県上北郡六戸町小松ケ丘３丁目７７−１０８２,Calvary Baptist Church
https://www.google.com/maps/place/Neighborhood+church/data=!4m2!3m1!1s0x5f9b5e4dffae89d5:0xfefbd7031dcdfe08,FALSE,40.6916287,141.3973245,〒033-0123 青森県三沢市三沢堀口１７−６１６,Neighborhood church
https://www.google.com/maps/place/%E3%82%AD%E3%83%AA%E3%82%B9%E3%83%88%E7%A6%8F%E9%9F%B3%E9%9B%86%E4%BC%9A/data=!4m2!3m1!1s0x5f9b682a6dddc0f3:0x515d2af1b75db958,FALSE,40.6428429,141.1984975,〒034-0107 青森県十和田市洞内後野２３９−１４,キリスト福音集会
https://www.google.com/maps/place/%E6%97%A5%E6%9C%AC%E3%82%AD%E3%83%AA%E3%82%B9%E3%83%88%E6%95%99%E5%9B%A3%E5%85%AB%E7%94%B2%E7%94%B0%E4%BC%9D%E9%81%93%E6%89%80/data=!4m2!3m1!1s0x5f9b11e0c214370d:0xa349dbc0f36c91e7,FALSE,40.6360627,140.8008223,〒036-0401 青森県黒石市大川原１６５−３,日本キリスト教団八甲田伝道所
https://www.google.com/maps/place/%E8%A5%BF%E5%BC%98%E3%82%AD%E3%83%AA%E3%82%B9%E3%83%88%E9%9B%86%E4%BC%9A/data=!4m2!3m1!1s0x5f9afdfe4ca6d9f9:0xaa2cf0b5c8f4f9e0,FALSE,40.5837065,140.4714974,〒036-8155 青森県弘前市中野１丁目１０−１,西弘キリスト集会
https://www.google.com/maps/place/%E3%82%AD%E3%83%AA%E3%82%B9%E3%83%88%E8%81%96%E5%8D%94%E5%9B%A3%E5%BC%98%E5%89%8D%E5%AF%8C%E5%A3%AB%E8%A6%8B%E6%95%99%E4%BC%9A/data=!4m2!3m1!1s0x5f9afe0d4c3eaaab:0x43c1aa9346251bb0,FALSE,40.582277,140.4422531,〒036-8266 青森県弘前市自由ケ丘３丁目１８−１４,キリスト聖協団弘前富士見教会
https://www.google.com/maps/place/%E3%80%92038-3135+%E9%9D%92%E6%A3%AE%E7%9C%8C%E3%81%A4%E3%81%8C%E3%82%8B%E5%B8%82%E6%9C%A8%E9%80%A0%E6%9C%89%E6%A5%BD%E7%94%BA%EF%BC%96%EF%BC%94%E2%88%92%EF%BC%94/data=!4m2!3m1!1s0x5f9bb0724d660259:0x474f11aeb9f7bee,FALSE,40.8094016,140.383978,〒038-3135 青森県つがる市木造有楽町６４−４,日本基督教団木造教会
https://www.google.com/maps/place/Lamb+Church/data=!4m2!3m1!1s0x5f9ef7fe78816ac5:0xe5494ac951c1e941,FALSE,41.836143,140.7316764,〒041-0801 北海道函館市桔梗町３８６−１８,Lamb Church
https://www.google.com/maps/place/%E8%8A%B1%E5%9C%92%E3%82%AD%E3%83%AA%E3%82%B9%E3%83%88%E6%95%99%E4%BC%9A/data=!4m2!3m1!1s0x5f9ef68456d4a1a3:0xfdca890a028db050,FALSE,41.8230019,140.7436633,〒041-0806 北海道函館市美原３丁目５４−１３,花園キリスト教会
https://www.google.com/maps/place/%E3%82%AD%E3%83%AA%E3%82%B9%E3%83%88%E3%82%81%E3%81%90%E3%81%BF+%E5%87%BD%E9%A4%A8%E6%95%99%E4%BC%9A/data=!4m2!3m1!1s0x5f9ef4170010c273:0x9c558c4769918b85,FALSE,41.8040111,140.7456273,〒041-0811 北海道函館市富岡町1丁目28−14,キリストめぐみ 函館教会
https://www.google.com/maps/place/%E3%82%AB%E3%83%88%E3%83%AA%E3%83%83%E3%82%AF%E6%95%99%E4%BC%9A%E6%B9%AF%E5%B7%9D%E6%95%99%E4%BC%9A/data=!4m2!3m1!1s0x5f9ef48c3d50fd5d:0x69f174ba63587ff3,TRUE,41.7833858,140.7780541,〒042-0935 北海道函館市駒場町１４−１１,カトリック教会湯川教会
https://www.google.com/maps/place/%E6%97%A5%E6%9C%AC%E3%82%AD%E3%83%AA%E3%82%B9%E3%83%88%E6%95%99%E4%BC%9A%E6%A3%AE%E4%BC%9D%E9%81%93%E6%89%80/data=!4m2!3m1!1s0x5f9fae597238afcb:0x6d87f01d4bb2f795,FALSE,42.1101999,140.5971858,〒049-2302 北海道茅部郡森町港町２８−３,日本キリスト教会森伝道所
https://www.google.com/maps/place/%E6%97%A5%E6%9C%AC%E3%82%AD%E3%83%AA%E3%82%B9%E3%83%88%E6%95%99%E5%9B%A3%E5%85%AB%E9%9B%B2%E6%95%99%E4%BC%9A/data=!4m2!3m1!1s0x5f9f9eca7b63d1b1:0x6726bc8b4fbb3320,FALSE,42.2542573,140.2676255,〒049-3112 北海道二海郡八雲町末広町１３２,日本キリスト教団八雲教会
https://www.google.com/maps/place/%E3%82%A2%E3%83%83%E3%82%BB%E3%83%B3%E3%83%96%E3%83%AA%E3%83%BC%E3%83%BB%E5%B1%B1%E6%89%8B%E7%94%BA%E6%95%99%E4%BC%9A/data=!4m2!3m1!1s0x5f75172ab6699d51:0xfa1e8518c1c4e820,FALSE,42.6391357,141.5726219,〒053-0851 北海道苫小牧市山手町２丁目３−５,アッセンブリー・山手町教会
https://www.google.com/maps/place/%E3%82%BB%E3%83%96%E3%83%B3%E3%82%B9%E3%83%87%E3%83%BC%E3%83%BB%E3%82%A2%E3%83%89%E3%83%99%E3%83%B3%E3%83%81%E3%82%B9%E3%83%88%E9%9D%99%E5%86%85%E3%82%AD%E3%83%AA%E3%82%B9%E3%83%88%E6%95%99%E4%BC%9A%E6%95%99%E4%BC%9A/data=!4m2!3m1!1s0x5f75caec1f8ef09f:0x13460b240a7039c6,FALSE,42.3466994,142.3572406,〒056-0024 北海道日高郡新ひだか町静内山手町４丁目９−１６,セブンスデー・アドベンチスト静内キリスト教会教会
https://www.google.com/maps/place/Iglesia+Ni+Cristo+Locale+of+Hokkaido/data=!4m2!3m1!1s0x5f0b29efb990e825:0xff028971b3b9f786,FALSE,43.0535416,141.3541708,〒064-0806 北海道札幌市中央区南６条西３丁目１１−３,Iglesia Ni Cristo Locale of Hokkaido
https://www.google.com/maps/place/%E3%82%B7%E3%83%AD%E3%82%A2%E3%83%A0%E3%83%BB%E3%82%AD%E3%83%AA%E3%82%B9%E3%83%88%E6%95%99%E4%BC%9A/data=!4m2!3m1!1s0x5f0b29894f4fe6db:0x572c949f32d599d8,FALSE,43.0505521,141.3473055,〒064-0807 北海道札幌市中央区南７条西８丁目,シロアム・キリスト教会
https://www.google.com/maps/place/%E5%8D%81%E5%8B%9D%E8%81%96%E6%9B%B8%E3%83%95%E3%82%A9%E3%83%BC%E3%83%A9%E3%83%A0+%E9%B9%BF%E8%BF%BD%E3%82%AD%E3%83%AA%E3%82%B9%E3%83%88%E6%95%99%E4%BC%9A/data=!4m2!3m1!1s0x5f736d62920cb9c1:0x7970b1fd3d0bdb2d,FALSE,43.1032722,142.9878185,〒081-0212 北海道河東郡鹿追町泉町104,十勝聖書フォーラム 鹿追キリスト教会
https://www.google.com/maps/place/%E3%82%AB%E3%83%88%E3%83%AA%E3%83%83%E3%82%AF%E6%B1%A0%E7%94%B0%E6%95%99%E4%BC%9A/data=!4m2!3m1!1s0x5f73bca7590c5a3b:0x175c214b27f58dda,TRUE,42.9309502,143.4467629,〒083-0022 北海道中川郡池田町西２条８丁目４１,カトリック池田教会
https://www.google.com/maps/place/%EC%98%81%EA%B4%91%EA%B7%B8%EB%A6%AC%EC%8A%A4%EB%8F%84%EA%B5%90%ED%9A%8C/data=!4m2!3m1!1s0x5f6d79bf03a3c1db:0xc5243ad4c95cfc6b,FALSE,43.485426,144.4627811,〒088-3211 北海道川上郡弟子屈町中央３丁目３−１０,영광그리스도교회
https://www.google.com/maps/place/Shimizu+Sharon+Church/data=!4m2!3m1!1s0x5f737082012e88e1:0x40b4b1b334b6f201,FALSE,43.0139267,142.8768952,〒089-0124 北海道上川郡清水町北１条西１丁目２−３,Shimizu Sharon Church
https://www.google.com/maps/place/%E5%BA%83%E5%B0%BE%E3%82%AD%E3%83%AA%E3%82%B9%E3%83%88%E6%95%99%E4%BC%9A/data=!4m2!3m1!1s0x5f76a5a56714918b:0xeb2bcb9feece6f90,FALSE,42.2960729,143.3134806,〒089-2623 北海道広尾郡広尾町並木通西１丁目,広尾キリスト教会
https://www.google.com/maps/place/%E3%82%AD%E3%83%AA%E3%82%B9%E3%83%88%E7%A6%8F%E9%9F%B3%E9%9B%86%E4%BC%9A/data=!4m2!3m1!1s0x5f6d3391e3d14445:0xcf72798b798e4afe,FALSE,44.0106396,144.2588216,〒093-0043 北海道網走市錦町２９−４９,キリスト福音集会
https://www.google.com/maps/place/Teshio+Baptist+Bible+Church/data=!4m2!3m1!1s0x5f0e3c43ad4ea6b3:0x4ffe93fc543ed321,FALSE,44.8814699,141.7437637,〒098-3306 北海道天塩郡天塩町海岸通２丁目１９,Teshio Baptist Bible Church
https://www.google.com/maps/place/%E3%82%B0%E3%83%AC%E3%83%BC%E3%82%B9%E3%83%81%E3%83%A3%E3%83%9A%E3%83%AB/data=!4m2!3m1!1s0x5f6d366e50d518a1:0x728d948d1445e963,FALSE,43.9566327,144.2191406,〒099-2421 北海道網走市呼人４１８−１２,グレースチャペル
https://www.google.com/maps/place/%E6%95%99%E4%BC%9A/data=!4m2!3m1!1s0x60170589ce0fd955:0x6bd1909bd4a6789a,FALSE,34.3747185,139.2565297,〒100-0402 東京都新島村本村４丁目２−５,新島教会
https://www.google.com/maps/place/%E6%97%A5%E6%9C%AC%E3%82%AD%E3%83%AA%E3%82%B9%E3%83%88%E6%95%99%E5%9B%A3%E5%85%AB%E4%B8%88%E5%B3%B6%E6%95%99%E4%BC%9A/data=!4m2!3m1!1s0x601571eb68628379:0x4ba385b9e6bad938,FALSE,33.1056162,139.7892158,〒100-1401 東京都八丈町大賀郷２２４８,日本キリスト教団八丈島教会
https://www.google.com/maps/place/%E3%83%8B%E3%83%A5%E3%83%BC%E3%83%BB%E3%82%B3%E3%83%9F%E3%83%A5%E3%83%8B%E3%83%86%E3%82%A3%E3%83%BB%E3%83%81%E3%83%A3%E3%83%BC%E3%83%81/data=!4m2!3m1!1s0x60188bcc499b516b:0x50eb046d0a0c0b0d,FALSE,35.6287234,139.7420414,〒108-0075 東京都港区港南２丁目１４−１４ 品川駅前港南ビル 4F ビル,ニュー・コミュニティ・チャーチ
https://www.google.com/maps/place/%E6%97%A5%E6%9C%AC%E5%9F%BA%E7%9D%A3%E6%95%99%E5%9B%A3%E6%B5%85%E8%8D%89%E6%95%99%E4%BC%9A/data=!4m2!3m1!1s0x60188e9581d4a38b:0x4b50ffa420d3227,FALSE,35.714358,139.7907391,〒111-0035 東京都台東区西浅草３丁目４−５,日本基督教団浅草教会
https://www.google.com/maps/place/%E6%9D%B1%E4%BA%AC%E3%82%AB%E3%83%AB%E3%83%90%E3%83%AA%E6%95%99%E4%BC%9A/data=!4m2!3m1!1s0x60188e769a363311:0xfeedfcd109e71b3d,FALSE,35.7401211,139.7763059,〒116-0002 東京都荒川区荒川５丁目４７−４,日本基督教団東京カルバリ教会
https://www.google.com/maps/place/Calvary+Chapel+Logos+Tokyo/data=!4m2!3m1!1s0x60188dda9aa38085:0xfdac1d12446bdb05,FALSE,35.7317489,139.7645375,〒116-0013 東京都荒川区西日暮里４丁目２１−７,Calvary Chapel Logos Tokyo
https://www.google.com/maps/place/%E6%9D%B1%E4%BA%AC%E6%95%99%E4%BC%9A/data=!4m2!3m1!1s0x60188fea15144e17:0xb3e6607487e405f0,FALSE,35.7723809,139.8354328,〒120-0004 東京都足立区東綾瀬３丁目１５−１１,東京教会
https://www.google.com/maps/place/%E3%82%AB%E3%83%88%E3%83%AA%E3%83%83%E3%82%AF%E6%A2%85%E7%94%B0%E6%95%99%E4%BC%9A/data=!4m2!3m1!1s0x60188e26e99274ad:0xc2a57cde5b4665a9,TRUE,35.7697824,139.8000803,〒123-0851 東京都足立区梅田７丁目１９−２２,カトリック梅田教会
https://www.google.com/maps/place/%E6%97%A5%E6%9C%AC%E5%9F%BA%E7%9D%A3%E6%95%99%E5%9B%A3%E6%B1%9F%E6%9D%B1%E4%BC%9D%E5%B0%8E%E6%89%80/data=!4m2!3m1!1s0x60188f74575175bb:0x67b431aa79b7ec6e,FALSE,35.7483147,139.8371045,〒124-0003 東京都葛飾区お花茶屋１丁目４−８,日本基督教団江東伝導所
https://www.google.com/maps/place/%E6%84%9B%E3%81%AE%E6%95%99%E4%BC%9A/data=!4m2!3m1!1s0x601885ffbd9daeb3:0x6a04db4cb4583d94,FALSE,35.7235585,139.8561144,〒124-0023 東京都葛飾区東新小岩７丁目２８−２６ 2階,愛の教会
https://www.google.com/maps/place/%E5%9C%A8%E6%97%A5%E5%A4%A7%E9%9F%93%E5%9F%BA%E7%9D%A3%E6%95%99%E4%BC%9A%E5%93%81%E5%B7%9D%E6%95%99%E4%BC%9A/data=!4m2!3m1!1s0x60188a875023ffff:0x1c0da3810b814ff9,FALSE,35.6036284,139.7313905,〒140-0014 東京都品川区大井３丁目３−４,在日大韓基督教会品川教会
https://www.google.com/maps/place/%E6%97%A5%E6%9C%AC%E5%9F%BA%E7%9D%A3%E6%95%99%E5%9B%A3%E6%B4%97%E8%B6%B3%E6%95%99%E4%BC%9A/data=!4m2!3m1!1s0x60188ac7956301a3:0xfaf076413f78a9d7,FALSE,35.6066019,139.7026656,〒142-0064 東京都品川区旗の台２丁目８−３,日本基督教団洗足教会
https://www.google.com/maps/place/%E6%97%A5%E6%9C%AC%E5%9F%BA%E7%9D%A3%E6%95%99%E5%9B%A3%E9%A6%AC%E8%BE%BC%E6%95%99%E4%BC%9A/data=!4m2!3m1!1s0x6018601f6848ff27:0x66f84a1c933d22f0,FALSE,35.5869835,139.7108507,〒143-0025 東京都大田区南馬込４丁目３−５,日本基督教団馬込教会
https://www.google.com/maps/place/%E3%82%AD%E3%83%AA%E3%82%B9%E3%83%88%E3%81%AE%E7%A6%8F%E9%9F%B3%E7%BE%BD%E7%94%B0%E3%83%8F%E3%83%B3%E3%83%8A%E6%95%99%E4%BC%9A/data=!4m2!3m1!1s0x601861023f50ffff:0x8593c7a40de20133,FALSE,35.5568964,139.7337287,〒144-0034 東京都大田区西糀谷３丁目１−３,キリストの福音羽田ハンナ教会
https://www.google.com/maps/search/35.6684267139.6944287,FALSE,35.6717823,139.6917847,〒151-0052 東京都渋谷区代々木神園町２−1,通路チャペル
https://www.google.com/maps/place/%E6%9D%B1%E4%BA%AC%E5%91%8A%E7%99%BD%E6%95%99%E4%BC%9A/data=!4m2!3m1!1s0x6018f1f36f6d381f:0x5f7f6bbbaed4c0fd,FALSE,35.6773274,139.6036636,〒157-0061 東京都世田谷区北烏山１丁目５１−１２,日本キリスト教会東京告白教会
https://www.google.com/maps/place/%E5%BE%A9%E5%85%83%E3%82%A4%E3%82%A8%E3%82%B9%E3%82%AD%E3%83%AA%E3%82%B9%E3%83%88%E6%95%99%E4%BC%9A/data=!4m2!3m1!1s0x6018f16fb345e549:0x5d00f1751d17ad63,FALSE,35.6439903,139.5967916,〒157-0066 東京都世田谷区成城６丁目２６−７,復元イエスキリスト教会
https://www.google.com/maps/place/%E6%9D%B1%E4%BA%AC%E6%95%99%E4%BC%9A/data=!4m2!3m1!1s0x60188c5b66bdc0d9:0xbe44892323466ed7,FALSE,35.6991012,139.7406858,〒162-0827 東京都新宿区若宮町２４,東京教会
https://www.google.com/maps/place/%E3%80%92164-0001+%E6%9D%B1%E4%BA%AC%E9%83%BD%E4%B8%AD%E9%87%8E%E5%8C%BA%E4%B8%AD%E9%87%8E%EF%BC%92%E4%B8%81%E7%9B%AE%EF%BC%97%E2%88%92%EF%BC%92/data=!4m2!3m1!1s0x6018f29563b4ac73:0xd1e094b264a98ce2,FALSE,35.7042077,139.6705329,〒164-0001 東京都中野区中野２丁目７−２,MARIPOSA HOUSE CHRISTIAN FELLOWSHIP
https://www.google.com/maps/place/%E6%97%A5%E6%9C%AC%E5%9F%BA%E7%9D%A3%E6%95%99%E5%9B%A3%E4%B8%AD%E9%87%8E%E6%95%99%E4%BC%9A/data=!4m2!3m1!1s0x6018f2beabe11075:0x2541e726d8cc38b8,FALSE,35.7090902,139.6753549,〒164-0002 東京都中野区上高田１丁目３５−２９,日本基督教団中野教会
https://www.google.com/maps/place/%E6%9D%B1%E4%BA%AC%E3%82%AB%E3%83%81%E3%83%B3%E3%83%90%E3%83%97%E3%83%86%E3%82%B9%E3%83%88%E6%95%99%E4%BC%9A/data=!4m2!3m1!1s0x60188d160502e8b1:0x929af2aa264cd38b,FALSE,35.7250518,139.6428779,〒165-0032 東京都中野区鷺宮３丁目９−１４,東京カチンバプテスト教会
https://www.google.com/maps/place/%E6%97%A5%E6%9C%AC%E3%82%AD%E3%83%AA%E3%82%B9%E3%83%88%E6%95%99%E5%9B%A3%E6%9C%AC%E9%83%B7%E6%95%99%E4%BC%9A/data=!4m2!3m1!1s0x6018ee0c92c1807f:0x7cb002ed9b368b48,FALSE,35.7105813,139.6032297,〒167-0043 東京都杉並区上荻４丁目２４−５,日本キリスト教団本郷教会
https://www.google.com/maps/place/Tokyo+Sophia+International+Church/data=!4m2!3m1!1s0x60188d3a0eba7ebf:0xf562bcb9fa2eaa30,FALSE,35.7114432,139.7209181,〒169-0051 東京都新宿区西早稲田１丁目１３−５ ウチヤ早稲田ビル 1F,Tokyo Sophia International Church
https://www.google.com/maps/place/%E6%9D%B1%E4%BA%AC%E3%81%82%E3%81%84%E3%81%AE%E3%81%B2%E3%81%8B%E3%82%8A%E6%95%99%E4%BC%9A/data=!4m2!3m1!1s0x60188e87577d68e1:0x6522c1e6cde649b6,FALSE,35.7082838,139.7170563,〒169-0051 東京都新宿区西早稲田２丁目３−２２,東京あいのひかり教会
https://www.google.com/maps/place/%E3%82%A2%E3%82%AC%E3%83%9A%E3%83%BB%E3%83%81%E3%83%A3%E3%83%BC%E3%83%81/data=!4m2!3m1!1s0x60188d277ece1c47:0x53a5b00a8303e019,FALSE,35.7143759,139.7121208,〒169-0051 東京都新宿区西早稲田３丁目３１−１１,アガペ・チャーチ
https://www.google.com/maps/place/%EB%8F%99%EA%B2%BD%EC%9D%80%ED%98%9C%EA%B5%90%ED%9A%8C/data=!4m2!3m1!1s0x60188d23e54ff8f3:0x2bfa2e9ac83e7de5,FALSE,35.7041866,139.707186,〒169-0072 東京都新宿区大久保２丁目１０−８,동경은혜교회
https://www.google.com/maps/place/Iglesia+IPUJ/data=!4m2!3m1!1s0x60188d6b1bc76e43:0xb9b4d4a01d771408,FALSE,35.7025364,139.706375,〒169-0072 東京都新宿区大久保２丁目１４,Iglesia IPUJ
https://www.google.com/maps/place/%E3%82%B7%E3%83%AD%E3%82%A2%E3%83%A0%E6%95%99%E4%BC%9A/data=!4m2!3m1!1s0x60188d3b169012c3:0xe92289ed9c2326d6,FALSE,35.708575,139.7051178,〒169-0072 東京都新宿区大久保３丁目１０−１,日本基督教団シロアム教会
https://www.google.com/maps/place/%E3%80%92169-0073+%E6%9D%B1%E4%BA%AC%E9%83%BD%E6%96%B0%E5%AE%BF%E5%8C%BA%E7%99%BE%E4%BA%BA%E7%94%BA%EF%BC%91%E4%B8%81%E7%9B%AE%EF%BC%92%EF%BC%92%E2%88%92%EF%BC%91/data=!4m2!3m1!1s0x60188d294f910d61:0xd32c7babe69c2807,FALSE,35.6990904,139.6969887,〒169-0073 東京都新宿区百人町１丁目２２−１,ナオス国際キリスト教会
https://www.google.com/maps/place/central+gloria+church/data=!4m2!3m1!1s0x6018f2cd56da682d:0x97f32d93b8484127,FALSE,35.7018626,139.6906987,〒169-0074 東京都新宿区北新宿３丁目１０−５,central gloria church
https://www.google.com/maps/place/Megumi+Church/data=!4m2!3m1!1s0x60188d3133015555:0xbc1aed7cf219a7b9,FALSE,35.7089995,139.6979779,〒169-0075 東京都新宿区高田馬場４丁目３２−６ グレイスハウス,Megumi Church
https://www.google.com/maps/place/%E5%A4%A7%E9%9F%93%E5%9F%BA%E7%9D%A3%E6%95%99+%E6%9D%B1%E4%BA%AC%E4%B8%AD%E5%A4%AE%E6%95%99%E4%BC%9A/data=!4m2!3m1!1s0x60188d3de1f4fa53:0x47a1c510c78247bb,FALSE,35.7141368,139.7105842,〒171-0033 東京都豊島区高田３丁目２−１６,大韓基督教 東京中央教会
https://www.google.com/maps/place/%E5%96%9C%E3%81%B6%E6%95%99%E4%BC%9A/data=!4m2!3m1!1s0x60188d3de752c4c1:0x59fecb8f36b657a6,FALSE,35.7137693,139.7102437,〒171-0033 東京都豊島区高田３丁目３−２２ 開成館ビル２Ｆ,喜ぶ教会
https://www.google.com/maps/place/%E3%83%A9%E3%82%A4%E3%83%95%E3%83%81%E3%83%A3%E3%83%BC%E3%83%81/data=!4m2!3m1!1s0x6018efb72f135cd5:0x95b2ed9790999243,FALSE,35.699141,139.5606722,〒181-0013 東京都三鷹市下連雀３丁目３２−１５ CCC学生会館 2階,ライフチャーチ
https://www.google.com/maps/place/%E5%A4%9A%E6%91%A9%E5%B7%9D%E3%82%AD%E3%83%AA%E3%82%B9%E3%83%88%E6%95%99%E4%BC%9A/data=!4m2!3m1!1s0x6018f06e4b60ee33:0x7da5d1bb1a35f1cc,FALSE,35.6431335,139.5397538,〒182-0025 東京都調布市多摩川７丁目２−４,多摩川キリスト教会
https://www.google.com/maps/place/%E5%B0%8F%E5%B9%B3%E6%95%99%E4%BC%9A/data=!4m2!3m1!1s0x6018e68388d04513:0xc4bcb880d5fe8675,FALSE,35.7218755,139.4804145,〒187-0043 東京都小平市学園東町１丁目２−番４１号,小平教会
https://www.google.com/maps/place/%E5%8D%97%E7%94%BA%E7%94%B0%E3%82%AD%E3%83%AA%E3%82%B9%E3%83%88%E6%95%99%E4%BC%9A/data=!4m2!3m1!1s0x6018f927ae725555:0x754a164ea08bd93e,FALSE,35.5275007,139.4587534,〒194-0012 東京都町田市金森７丁目２０−９,町田南キリスト教会
https://www.google.com/maps/place/DESTINY+CHRISTIAN+CENTER/data=!4m2!3m1!1s0x60192020a5810dbf:0xa711693a39c06dca,FALSE,35.7343719,139.3406104,〒197-0011 東京都福生市福生２４９９−４,DESTINY CHRISTIAN CENTER
https://www.google.com/maps/place/%E4%B9%85%E7%95%99%E7%B1%B3%E8%81%96%E6%9B%B8%E6%95%99%E4%BC%9A/data=!4m2!3m1!1s0x6018e89a2ec80c6f:0x4fa5213eb28283e0,FALSE,35.7632746,139.5360586,〒203-0011 東京都東久留米市大門町１丁目２−３５,久留米聖書教会
https://www.google.com/maps/place/%E5%85%89%E3%82%AD%E3%83%AA%E3%82%B9%E3%83%88%E6%95%99%E4%BC%9A/data=!4m2!3m1!1s0x6018e8996aaafc79:0xf219af512a720912,FALSE,35.7611455,139.5343698,〒203-0014 東京都東久留米市東本町２−６,光キリスト教会
https://www.google.com/maps/place/%E6%B0%B4%E5%A0%B4%E3%82%B3%E3%83%9F%E3%83%A5%E3%83%8B%E3%83%86%E3%82%A3%E3%83%BC%E3%83%81%E3%83%A3%E3%83%BC%E3%83%81/@35.7583457139.534333815z/data=!4m5!3m4!1s0x0:0x3e919b7e5f2c3a23!8m2!3d35.7583457!4d139.5343338,FALSE,35.7583457,139.5343338,〒203-0053 東京都東久留米市本町１丁目１３−７,水場コミュニティーチャーチ
https://www.google.com/maps/place/%E3%83%95%E3%82%A7%E3%82%A4%E3%82%B9%EF%BC%86%E3%83%93%E3%82%AF%E3%83%88%E3%83%AA%E3%83%BC%E5%9B%BD%E9%9A%9B%E6%95%99%E4%BC%9A/data=!4m2!3m1!1s0x60185c0c33d36b21:0x6629440b5a1b947,FALSE,35.4646804,139.6169555,〒220-0005 神奈川県横浜市西区南幸２丁目１６−２０,フェイス＆ビクトリー国際教会
https://www.google.com/maps/place/%E6%A8%AA%E6%B5%9C%E6%81%B5%E3%81%BF%E6%95%99%E4%BC%9A/data=!4m2!3m1!1s0x60185c2c3577b52f:0x19b2f333af1d224d,FALSE,35.4841113,139.6463803,〒221-0021 神奈川県横浜市神奈川区子安通１丁目１２８,横浜恵み教会
https://www.google.com/maps/place/Yokohama+Holy+Spirit+Community+Church+(%23Yhscc)/data=!4m2!3m1!1s0x60185d1ab3786a61:0xceef76230530a166,FALSE,35.4756969,139.6272675,〒221-0825 神奈川県横浜市神奈川区反町２丁目１４−４,Yokohama Holy Spirit Community Church (#Yhscc)
https://www.google.com/maps/place/%E6%97%A5%E6%9C%AC%E3%82%AD%E3%83%AA%E3%82%B9%E3%83%88%E6%95%99%E5%9B%A3%E7%A5%9E%E5%A5%88%E5%B7%9D%E6%95%99%E4%BC%9A/data=!4m2!3m1!1s0x60185c19e7f8ab31:0x1b3784d10a8a7393,FALSE,35.4741277,139.625995,〒221-0832 神奈川県横浜市神奈川区桐畑１７−８,日本キリスト教団神奈川教会
https://www.google.com/maps/place/Jesus+is+Lord+Central+Yokohama+Chapter/data=!4m2!3m1!1s0x6018f79aefa0bd17:0xa1a90707f7a48786,FALSE,35.5508726,139.5398636,〒225-0024 神奈川県横浜市青葉区市ケ尾町1153-2,Jesus is Lord Central Yokohama Chapter
https://www.google.com/maps/place/Assembleia+de+Deus+Missao+Shekinah/data=!4m2!3m1!1s0x60185e05cf540ea5:0xb52459c47aa3dc82,FALSE,35.5110243,139.6828427,〒230-0051 神奈川県横浜市鶴見区鶴見中央３丁目４−１３,Assembleia de Deus Missao Shekinah
https://www.google.com/maps/place/%EC%98%81%EA%B4%91%EA%B5%90%ED%9A%8C/data=!4m2!3m1!1s0x60185cefe7cf1c5f:0x2085f305636fa642,FALSE,35.4417047,139.6387538,〒231-0027 神奈川県横浜市中区扇町１丁目１−２５,영광교회
https://www.google.com/maps/place/%E6%97%AD%E7%A6%8F%E9%9F%B3%E3%82%AD%E3%83%AA%E3%82%B9%E3%83%88%E6%95%99%E4%BC%9A/data=!4m2!3m1!1s0x60185cee32faaaab:0x53358e0211cddd6a,FALSE,35.4407202,139.6373539,〒231-0028 神奈川県横浜市中区翁町2−７−１０ 関内フレックスビル 3階,旭福音キリスト教会
https://www.google.com/maps/place/%E5%9C%B0%E3%81%AE%E5%A1%A9%E6%B8%AF%E5%8D%97%E3%82%AD%E3%83%AA%E3%82%B9%E3%83%88%E6%95%99%E4%BC%9A/data=!4m2!3m1!1s0x60185adfa0930001:0x28ff963000e51e51,FALSE,35.401746,139.5672387,〒233-0012 神奈川県横浜市港南区上永谷５丁目２２−２,地の塩港南キリスト教会
https://www.google.com/maps/place/%E3%82%AB%E3%83%88%E3%83%AA%E3%83%83%E3%82%AF%E9%87%91%E6%B2%A2%E6%95%99%E4%BC%9A/data=!4m2!3m1!1s0x601843e5e62155f7:0x85571f4b3000f613,TRUE,35.3427244,139.6246687,〒236-0015 神奈川県横浜市金沢区金沢町４８,カトリック金沢教会
https://www.google.com/maps/place/Movimiento+Misionero+Mundial/data=!4m2!3m1!1s0x6018413c74f0e093:0x27eda8e72bfd3aa5,FALSE,35.311062,139.6245492,〒237-0064 神奈川県横須賀市追浜町２丁目７３−１,Movimiento Misionero Mundial
https://www.google.com/maps/place/Cross+Church+Yokosuka/data=!4m2!3m1!1s0x60184131a2509fc9:0x6d4a78d2e7deef13,FALSE,35.2829969,139.6714904,〒238-0004 神奈川県横須賀市小川町２１−８,Cross Church Yokosuka
https://www.google.com/maps/place/%E6%97%A5%E6%9C%AC%E3%82%AD%E3%83%AA%E3%82%B9%E3%83%88%E6%95%99%E5%9B%A3%E6%A8%AA%E9%A0%88%E8%B3%80%E4%B8%8A%E7%94%BA%E6%95%99%E4%BC%9A/data=!4m2!3m1!1s0x60183f8d28b223c7:0x24b91a4f982d3820,FALSE,35.2722835,139.6697935,〒238-0017 神奈川県横須賀市上町２丁目４３,日本キリスト教団横須賀上町教会
https://www.google.com/maps/place/Iglesia+Ni+Cristo+Locale+of+Yokosuka/data=!4m2!3m1!1s0x6018407472ac4731:0x8f228d35e58b661c,FALSE,35.2827502,139.6666735,〒238-0041 神奈川県横須賀市本町１丁目１９,Iglesia Ni Cristo Locale of Yokosuka
https://www.google.com/maps/place/%E6%97%A5%E6%9C%AC%E5%9F%BA%E7%9D%A3%E6%95%99%E5%9B%A3%E4%B8%89%E5%B4%8E%E6%95%99%E4%BC%9A/data=!4m2!3m1!1s0x60183c88d1496567:0x51c3a4da335ed88e,FALSE,35.1453825,139.6219551,〒238-0235 神奈川県三浦市城山町４−４,日本基督教団三崎教会
https://www.google.com/maps/place/Lighthouse+Baptist+Church/data=!4m2!3m1!1s0x6018f8ae38105a09:0x589a71e390612fd0,FALSE,35.4947622,139.4535347,〒242-0003 神奈川県大和市林間１丁目１５−３２,Lighthouse Baptist Church
https://www.google.com/maps/place/Agape+Community+Church/data=!4m2!3m1!1s0x601901ddee241f6d:0xe1c0bf88d61e16d3,FALSE,35.436356,139.3273505,〒243-0037 神奈川県厚木市毛利台３丁目１５−１９,Agape Community Church
https://www.google.com/maps/place/%E6%B3%89%E4%B8%AD%E5%A4%AE%E3%82%AD%E3%83%AA%E3%82%B9%E3%83%88%E6%95%99%E4%BC%9A/data=!4m2!3m1!1s0x6018512bd5201647:0x505d13ba3d8354a2,FALSE,35.421364,139.4846676,〒245-0018 神奈川県横浜市泉区上飯田町２０４９−１２,泉中央キリスト教会
https://www.google.com/maps/place/%E3%81%84%E3%81%9A%E3%81%BF%E6%95%99%E4%BC%9A/data=!4m2!3m1!1s0x601850da8531a921:0xc8df29e53c1abd7a,FALSE,35.4205594,139.4955414,〒245-0024 神奈川県横浜市泉区和泉中央北３丁目４３−１５,いずみ教会
https://www.google.com/maps/place/%E6%9C%AC%E9%83%B7%E5%8F%B0%E3%82%AD%E3%83%AA%E3%82%B9%E3%83%88%E6%95%99%E4%BC%9A/data=!4m2!3m1!1s0x60184456bb76596b:0x38f96b39d048e93f,FALSE,35.3479801,139.5746421,〒247-0024 神奈川県横浜市栄区野七里１丁目３７−１０,本郷台キリスト教会
https://www.google.com/maps/place/%E3%82%AB%E3%83%88%E3%83%AA%E3%83%83%E3%82%AF%E6%95%99%E4%BC%9A/data=!4m2!3m1!1s0x60184e3531cab403:0x9e9a92fbc4db7b2e,TRUE,35.33583,139.4879218,〒251-0025 神奈川県藤沢市鵠沼石上１丁目１,カトリック教会
https://www.google.com/maps/place/%E6%B9%98%E5%8D%97%E6%95%99%E4%BC%9A/data=!4m2!3m1!1s0x60184e470db6536f:0x80f5a7193a0f7c79,FALSE,35.3285461,139.4739364,〒251-0027 神奈川県藤沢市鵠沼桜が岡３丁目１８−３,湘南教会
https://www.google.com/maps/place/%E8%97%A4%E6%B2%A2%E3%82%AD%E3%83%AA%E3%82%B9%E3%83%88%E6%95%99%E4%BC%9A/data=!4m2!3m1!1s0x60184fcc695335cd:0xab922e8cedf8ca90,FALSE,35.3418698,139.490725,〒251-0054 神奈川県藤沢市朝日町２０−６,藤沢キリスト教会
https://www.google.com/maps/place/%E7%B7%91%E3%81%AE%E7%89%A7%E5%A0%B4%E3%82%AD%E3%83%AA%E3%82%B9%E3%83%88%E6%95%99%E4%BC%9A/data=!4m2!3m1!1s0x601902afee658687:0x970ff9d6bc1f9aa0,FALSE,35.5835596,139.357026,〒252-0205 神奈川県相模原市中央区小山３丁目１３−３,緑の牧場キリスト教会
https://www.google.com/maps/place/%E9%9D%92%E8%91%89%E3%82%AD%E3%83%AA%E3%82%B9%E3%83%88%E6%95%99%E4%BC%9A/data=!4m2!3m1!1s0x6018fdbf7535edcb:0x790e136d21a59e9d,FALSE,35.5529762,139.3880856,〒252-0224 神奈川県相模原市中央区青葉１丁目３,青葉キリスト教会
https://www.google.com/maps/place/%E7%B4%94%E7%A6%8F%E9%9F%B3%E6%9D%B1%E4%BA%AC%E6%95%99%E4%BC%9A+%E8%97%A4%E6%B2%A2%E6%94%AF%E8%81%96%E6%AE%BF/data=!4m2!3m1!1s0x601851e509cca613:0x32858e6d6f20e5da,FALSE,35.392957,139.4693832,〒252-0804 神奈川県藤沢市湘南台１丁目３０−４,純福音東京教会 藤沢支聖殿
https://www.google.com/maps/place/%E3%82%A6%E3%82%A8%E3%82%B9%E3%83%AC%E3%83%BC%E3%83%BB%E3%83%81%E3%83%A3%E3%83%9A%E3%83%AB/data=!4m2!3m1!1s0x6018fdb20c72934d:0x6b89b140f93d31a2,FALSE,35.5667328,139.4028902,〒252-5258 神奈川県相模原市中央区淵野辺５丁目１０−1,ウエスレー・チャペル
https://www.google.com/maps/place/%E6%97%A5%E6%9C%AC%E5%9F%BA%E7%9D%A3%E6%95%99%E5%9B%A3%E7%A0%A7%E6%95%99%E4%BC%9A%E5%A0%A4%E4%BC%9D%E9%81%93%E6%89%80/data=!4m2!3m1!1s0x6018522c288fd38d:0xfdfac2582a567b66,FALSE,35.3664469,139.4395509,〒253-0006 神奈川県茅ヶ崎市堤１９−６,日本基督教団砧教会堤伝道所
https://www.google.com/maps/place/%E3%82%BB%E3%83%96%E3%83%B3%E3%82%B9%E3%83%87%E3%83%BC%E3%83%BB%E3%82%A2%E3%83%89%E3%83%99%E3%83%B3%E3%83%81%E3%82%B9%E3%83%88%E5%85%AC%E6%89%80%E3%82%AD%E3%83%AA%E3%82%B9%E3%83%88%E6%95%99%E4%BC%9A/data=!4m2!3m1!1s0x6019ac0c30db7bb5:0xb9b177c4269734e2,FALSE,35.3447595,139.3002455,〒254-0906 神奈川県平塚市公所５３４−３,セブンスデー・アドベンチスト公所キリスト教会
https://www.google.com/maps/place/%E3%81%8A%E3%81%8A%E3%81%AD%E3%83%90%E3%83%97%E3%83%86%E3%82%B9%E3%83%88%E6%95%99%E4%BC%9A/data=!4m2!3m1!1s0x6019a97ebda2bed5:0x1750a6498eb8f806,FALSE,35.3758995,139.2804201,〒257-0002 神奈川県秦野市鶴巻南２丁目１７,おおねバプテスト教会
https://www.google.com/maps/place/%E5%A4%A7%E7%A3%AF%E3%82%AD%E3%83%AA%E3%82%B9%E3%83%88%E6%95%99%E4%BC%9A/data=!4m2!3m1!1s0x6019ae8772be9765:0x561d90d613f0365f,FALSE,35.3061488,139.2771132,〒259-0112 神奈川県中郡大磯町国府新宿５０４−２１,大磯キリスト教会
https://www.google.com/maps/place/%E3%83%9B%E3%82%B5%E3%83%8A%E3%82%AD%E3%83%AA%E3%82%B9%E3%83%88%E6%95%99%E4%BC%9A/data=!4m2!3m1!1s0x602262216e96923b:0xd1edd072e212ad2f,FALSE,35.8309063,140.2614985,〒270-1513 千葉県印旛郡栄町酒直１３５０,ホサナキリスト教会
https://www.google.com/maps/place/%EF%BC%A8%EF%BC%AF%EF%BC%B0%EF%BC%A5%E3%83%BB%EF%BC%A3%EF%BC%A8%EF%BC%B5%EF%BC%B2%EF%BC%A3%EF%BC%A8/data=!4m2!3m1!1s0x601880c108fa3aad:0xa0e6cdb958cd65c0,FALSE,35.7090985,139.954472,〒273-0033 千葉県船橋市本郷町４６５−１,ＨＯＰＥ・ＣＨＵＲＣＨ
https://www.google.com/maps/place/%E4%B8%AD%E5%B1%B1%E3%82%AD%E3%83%AA%E3%82%B9%E3%83%88%E6%95%99%E4%BC%9A/data=!4m2!3m1!1s0x601880c5bf5e9369:0x9f6521ba0ce04933,FALSE,35.7095027,139.9484685,〒273-0034 千葉県船橋市二子町６０４−１,中山キリスト教会
https://www.google.com/maps/place/%E3%83%93%E3%82%AF%E3%83%88%E3%83%AA%E3%83%BC%E3%82%AF%E3%83%AA%E3%82%B9%E3%83%81%E3%83%A3%E3%83%B3%E3%82%BB%E3%83%B3%E3%82%BF%E3%83%BC/data=!4m2!3m1!1s0x6018877ffd73be67:0x6dfcd96c618eb684,FALSE,35.6644847,139.8961374,〒279-0002 千葉県浦安市北栄１丁目１−４,ビクトリークリスチャンセンター
https://www.google.com/maps/place/%E6%97%A5%E6%9C%AC%E3%82%AD%E3%83%AA%E3%82%B9%E3%83%88%E6%95%99%E5%9B%A3%E5%9B%9B%E8%A1%97%E9%81%93%E6%95%99%E4%BC%9A/data=!4m2!3m1!1s0x602285a281ed3943:0xa9dc009d0d46726d,FALSE,35.6669208,140.1625883,〒284-0005 千葉県四街道市四街道１５２２−６５,日本キリスト教団四街道教会
https://www.google.com/maps/place/%E8%81%96%E6%9B%B8%E7%A6%8F%E9%9F%B3%E6%95%99%E4%BC%9A/data=!4m2!3m1!1s0x602288939101a3df:0xec0586404154722f,FALSE,35.7352482,140.1994074,〒285-0825 千葉県佐倉市江原台１丁目３２−９,聖書福音教会
https://www.google.com/maps/place/%E9%85%92%E3%80%85%E4%BA%95%E3%82%AD%E3%83%AA%E3%82%B9%E3%83%88%E6%95%99%E4%BC%9A/data=!4m2!3m1!1s0x60228c067403d54b:0x8cb3aeb7ee3b8416,FALSE,35.7364354,140.2743803,〒285-0922 千葉県印旛郡印旛郡酒々井町中央台１丁目１７−２,酒々井キリスト教会
https://www.google.com/maps/place/%E9%85%92%E3%80%85%E4%BA%95%E8%81%96%E6%9B%B8%E3%82%AD%E3%83%AA%E3%82%B9%E3%83%88%E6%95%99%E4%BC%9A/data=!4m2!3m1!1s0x60228c1a5027d6ef:0x6b3d1a8edf3770a0,FALSE,35.728525,140.2772209,〒285-0923 千葉県印旛郡酒々井町東酒々井３丁目３−３８,酒々井聖書キリスト教会
https://www.google.com/maps/place/%E3%82%A4%E3%82%A8%E3%82%B9%E6%84%9B%E3%81%AE%E6%95%99%E4%BC%9A/data=!4m2!3m1!1s0x6022f63eb68ac9db:0xd1c0c4a3a0ac664f,FALSE,35.8740029,140.4579538,〒287-0044 千葉県香取市片野７２１,イエス愛の教会
https://www.google.com/maps/place/%E5%85%AB%E8%A1%97%E3%82%AD%E3%83%AA%E3%82%B9%E3%83%88%E6%95%99%E4%BC%9A/data=!4m2!3m1!1s0x60228d92e22008e3:0x6b58a2fb461ba8e7,FALSE,35.6837568,140.2879133,〒289-1106 千葉県八街市榎戸９２４−１５,八街キリスト教会
https://www.google.com/maps/place/%E3%82%B7%E3%82%AA%E3%83%B3%E3%82%AD%E3%83%AA%E3%82%B9%E3%83%88%E6%95%99%E4%BC%9A/data=!4m2!3m1!1s0x6022924da9efb089:0x3e46ba6913d1cf65,FALSE,35.6402209,140.2945747,〒289-1114 千葉県八街市東吉田９０６,シオンキリスト教会
https://www.google.com/maps/place/%E6%97%A5%E6%9C%AC%E8%81%96%E5%85%AC%E4%BC%9A%E9%A4%A8%E5%B1%B1%E8%81%96%E3%82%A2%E3%83%B3%E3%83%87%E3%83%AC%E6%95%99%E4%BC%9A/data=!4m2!3m1!1s0x6017f9fa1bb7190d:0x465122b2e2b05fcb,FALSE,34.9921747,139.8642761,〒294-0045 千葉県館山市北条１６７７,日本聖公会館山聖アンデレ教会
https://www.google.com/maps/place/%E3%82%BB%E3%83%96%E3%83%B3%E3%82%B9%E3%83%87%E3%83%BC%E3%83%BB%E3%82%A2%E3%83%89%E3%83%99%E3%83%B3%E3%83%81%E3%82%B9%E3%83%88+%E4%B8%89%E8%82%B2%E5%AD%A6%E9%99%A2%E3%82%AD%E3%83%AA%E3%82%B9%E3%83%88%E6%95%99%E4%BC%9A/data=!4m2!3m1!1s0x6022b361bd455555:0xd8bb6f3bd7be384f,FALSE,35.2415012,140.2632589,〒298-0251 千葉県夷隅郡大多喜町久我原１５００,セブンスデー・アドベンチスト 三育学院キリスト教会
https://www.google.com/maps/place/%E6%97%A5%E6%9C%AC%E3%82%AD%E3%83%AA%E3%82%B9%E3%83%88%E6%95%99%E5%9B%A3+%E5%A4%A7%E7%B6%B2%E6%95%99%E4%BC%9A/data=!4m2!3m1!1s0x6022bfc6d2824f25:0xd7678c48e18a2547,FALSE,35.5223947,140.3222425,〒299-3237 千葉県大網白里市仏島７４,日本キリスト教団 大網教会
https://www.google.com/maps/place/Salvation+in+Christ+-+Church/data=!4m2!3m1!1s0x60220ac060012a47:0x5b28b3e0779d99ac,FALSE,36.0319411,140.0405253,〒300-2401 茨城県つくばみらい市台５６１−１,Salvation in Christ - Church
https://www.google.com/maps/place/Igreja+Universal+do+Reino+de+Deus/data=!4m2!3m1!1s0x6018a1772e451007:0x5b6822007fd139db,FALSE,36.0256212,139.9904638,〒303-0003 茨城県常総市水海道橋本町３４７５−９,Igreja Universal do Reino de Deus
https://www.google.com/maps/place/Hosanna+Christian+Church/data=!4m2!3m1!1s0x6018b37fb2445555:0x1478d8116030513,FALSE,36.1676071,139.7747329,〒306-0204 茨城県古河市下大野７０６−３,Hosanna Christian Church
https://www.google.com/maps/place/%E5%A4%A7%E6%B4%97%E3%82%A4%E3%83%B3%E3%83%89%E3%83%8D%E3%82%B7%E3%82%A2%E7%A6%8F%E9%9F%B3%E6%95%99%E4%BC%9A/data=!4m2!3m1!1s0x6022314044e552f1:0x229c11211905026a,FALSE,36.3116179,140.564491,〒311-1311 茨城県東茨城郡大洗町大貫町５３７−１,大洗インドネシア福音教会
https://www.google.com/maps/place/%E3%82%B7%E3%82%AA%E3%83%B3%E3%82%AD%E3%83%AA%E3%82%B9%E3%83%88%E6%95%99%E4%BC%9A/data=!4m2!3m1!1s0x6022169ea517054f:0xada40a748a2d7d96,FALSE,36.1926024,140.2908942,〒315-0001 茨城県石岡市石岡１４０２０−１５,シオンキリスト教会
https://www.google.com/maps/place/%E3%82%AB%E3%83%88%E3%83%AA%E3%83%83%E3%82%AF%E4%BB%8A%E5%B8%82%E6%95%99%E4%BC%9A/data=!4m2!3m1!1s0x601f0ac82b5135c1:0x81b1b450cc53d32b,TRUE,36.7290102,139.6834404,〒321-1263 栃木県日光市瀬川１９９,カトリック今市教会
https://www.google.com/maps/place/%E6%97%A5%E5%85%89%E7%9C%9F%E5%85%89%E6%95%99%E4%BC%9A/data=!4m2!3m1!1s0x601fa71946c1c299:0x1fc246098a82a072,FALSE,36.7546816,139.5944985,〒321-1434 栃木県日光市本町１−６,日光真光教会
https://www.google.com/maps/place/%E6%97%A5%E5%85%89%E3%82%AD%E3%83%AA%E3%82%B9%E3%83%88%E6%95%99%E4%BC%9A/data=!4m2!3m1!1s0x601fa651b9900001:0x2175d9dafcb8a1c,FALSE,36.739224,139.5601054,〒321-1444 栃木県日光市清滝１丁目８−２４,日光キリスト教会
https://www.google.com/maps/place/Assembly+of+God+Church/data=!4m2!3m1!1s0x601f4f7f3b519f63:0x1f1b7a2c7fb4eddf,FALSE,36.2990968,139.8147663,〒323-0822 栃木県小山市駅南町６丁目１３−５,Assembly of God Church
https://www.google.com/maps/place/%E8%B6%B3%E5%88%A9%E3%82%AD%E3%83%AA%E3%82%B9%E3%83%88%E6%95%99%E4%BC%9A/data=!4m2!3m1!1s0x601f2233af3e5555:0x365176fdd6990609,FALSE,36.3320164,139.4598578,〒326-0053 栃木県足利市伊勢町２丁目９−３５,足利キリスト教会
https://www.google.com/maps/place/%E9%82%A3%E9%A0%88%E5%A1%A9%E5%8E%9F%E6%95%99%E4%BC%9A+Nasushiobara+Church/data=!4m2!3m1!1s0x60202bb100373d61:0x9bb4235e4bd39615,FALSE,36.926962,140.019778,〒329-3153 栃木県那須塩原市大原間１９７,那須塩原教会 Nasushiobara Church
https://www.google.com/maps/place/%EF%BD%A2%E7%BD%AA%E4%BA%BA%E3%81%AE%E5%8F%8B%EF%BD%A3%E4%B8%BB%E3%82%A4%E3%82%A8%E3%82%B9%E3%82%AD%E3%83%AA%E3%82%B9%E3%83%88%E6%95%99%E4%BC%9A/data=!4m2!3m1!1s0x601894c0ffffffff:0xfe1648811e500308,FALSE,35.8166172,139.7327708,〒334-0013 埼玉県川口市南鳩ヶ谷５丁目１６−１８,｢罪人の友｣主イエスキリスト教会
https://www.google.com/maps/place/%E3%82%B7%E3%82%AA%E3%83%B3%E3%82%AD%E3%83%AA%E3%82%B9%E3%83%88%E6%95%99%E4%BC%9A/data=!4m2!3m1!1s0x601894b425766ff5:0x686fcabdc7adad23,FALSE,35.8200038,139.695553,〒335-0003 埼玉県蕨市南町２丁目１６−３ 五月ビル１F,シオンキリスト教会
https://www.google.com/maps/place/Filipino+Nazarene+Christian+Fellowship+(FNCF)/data=!4m2!3m1!1s0x6018eaf0313f810d:0x3c8870acaf9595f4,FALSE,35.8376654,139.6596177,〒336-0026 埼玉県さいたま市南区辻２丁目２５−１０,Filipino Nazarene Christian Fellowship (FNCF)
https://www.google.com/maps/place/%E8%81%96%E6%AF%8D%E8%A2%AB%E6%98%87%E5%A4%A9%E4%BF%AE%E9%81%93%E9%99%A2/data=!4m2!3m1!1s0x60189543faf0a0a1:0x4b81db236a42125e,TRUE,35.8693084,139.708496,〒336-0926 埼玉県さいたま市緑区 東浦和6丁目4−11,聖母被昇天修道院
https://www.google.com/maps/place/%E6%97%A5%E6%9C%AC%E5%9F%BA%E7%9D%A3%E6%95%99%E5%9B%A3%E7%BE%BD%E7%94%9F%E3%81%AE%E6%A3%AE%E6%95%99%E4%BC%9A/@36.1742694139.51999517z/data=!4m8!1m2!2m1!1z5pel5pys5Z-6552j5pWZ5Zuj576955Sf44Gu5qOu5pWZ5Lya!3m4!1s0x601f2fd819f502d1:0x4bbc7716fbfc4863!8m2!3d36.1742467!4d139.5221731,FALSE,36.1742467,139.5221731,〒348-0043 埼玉県羽生市大字桑崎１３３１−２,日本基督教団羽生の森教会
https://www.google.com/maps/place/%E5%B7%9D%E8%B6%8A%E3%82%AD%E3%83%AA%E3%82%B9%E3%83%88%E6%95%99%E4%BC%9A/data=!4m2!3m1!1s0x6018d9609fdbadf3:0xa7c1b3f74d89f78,FALSE,35.9050412,139.4139019,〒350-1175 埼玉県川越市笠幡４９２２−６,川越キリスト教会
https://www.google.com/maps/place/%E6%A1%B6%E5%B7%9D%E8%81%96%E6%9B%B8%E6%95%99%E4%BC%9A/data=!4m2!3m1!1s0x6018cfaf05a2227b:0xa41ea34e5f21bd7c,FALSE,35.9976976,139.5603442,〒363-0022 埼玉県桶川市若宮１丁目８−１７,桶川聖書教会
https://www.google.com/maps/place/%E6%97%A5%E6%9C%AC%E3%82%AD%E3%83%AA%E3%82%B9%E3%83%88%E6%95%99%E5%9B%A3%E6%A1%B6%E5%B7%9D%E4%BC%9D%E9%81%93%E6%89%80/data=!4m2!3m1!1s0x6018cfcc885c2e83:0xf43a57e293bbec71,FALSE,35.996569,139.542545,〒363-0028 埼玉県桶川市下日出谷西３丁目１５−３４,日本キリスト教団桶川伝道所
https://www.google.com/maps/place/Igreja+do+Am%C3%A9m/data=!4m2!3m1!1s0x601ec29aefabffff:0x20d5b8f26fb880a7,FALSE,36.2412058,139.1744769,〒367-0047 埼玉県本庄市前原２丁目１１−２３,Igreja do Amém
https://www.google.com/maps/place/%E3%82%A4%E3%83%B3%E3%82%BF%E3%83%BC%E3%83%8A%E3%82%B7%E3%83%A7%E3%83%8A%E3%83%AB%E3%82%AD%E3%83%AA%E3%82%B9%E3%83%88%E6%95%99%E4%BC%9A/data=!4m2!3m1!1s0x601ee9cc66daaaab:0xb0538967b1c79305,FALSE,36.2552738,139.1597643,〒369-0305 埼玉県児玉郡上里町神保原町２０２２,インターナショナルキリスト教会
https://www.google.com/maps/place/%E3%82%A2%E3%83%83%E3%82%BB%E3%83%B3%E3%83%96%E3%83%AA%E3%83%BC%E3%83%BB%E3%82%AA%E3%83%96%E3%83%BB%E3%82%B4%E3%83%83%E3%83%89+-+%E3%82%A2%E3%83%83%E3%82%BB%E3%83%B3%E3%83%96%E3%83%AC%E3%82%A4%E3%82%A2%E3%83%BB+%E3%83%87%E3%83%BB+%E3%83%87%E3%82%A6%E3%82%B9+%E6%95%99%E4%BC%9A/data=!4m2!3m1!1s0x601ee77c7a576a4b:0xd8a4f4dc4979bd9a,FALSE,36.3146002,139.248165,〒370-0102 群馬県伊勢崎市境上渕名１１０２−１０３,アッセンブリー・オブ・ゴッド - アッセンブレイア・ デ・ デウス 教会
https://www.google.com/maps/place/%E4%BA%AC%E6%B5%9C%E3%82%AD%E3%83%AA%E3%82%B9%E3%83%88%E6%95%99%E4%BC%9A%E5%B0%BE%E5%B3%B6%E3%83%81%E3%83%A3%E3%83%9A%E3%83%AB/data=!4m2!3m1!1s0x601eded0297cc5b7:0xf078b8cc4eabf1ee,FALSE,36.2408502,139.3147945,〒370-0417 群馬県太田市二ツ小屋町７１−１,京浜キリスト教会尾島チャペル
https://www.google.com/maps/place/Avivamento+Jap%C3%A3o+-+Oizumi/data=!4m2!3m1!1s0x601f27b1245084af:0x86ae9f06d26e441e,FALSE,36.2569499,139.407261,〒370-0532 群馬県邑楽郡大泉町坂田２丁目１−２１３７−３２７,Avivamento Japão - Oizumi
https://www.google.com/maps/place/%E3%82%AD%E3%83%AA%E3%82%B9%E3%83%88%E3%81%AE%E6%95%91%E3%81%84%E5%9B%BD%E9%9A%9B%E6%95%99%E4%BC%9A/data=!4m2!3m1!1s0x601f26d86d4d4e1f:0x36d905bd829c1f9d,FALSE,36.2610479,139.406638,〒370-0532 群馬県邑楽郡大泉町坂田７丁目１−２,キリストの救い国際教会
https://www.google.com/maps/place/%E7%BE%A4%E9%A6%AC%E6%95%99%E4%BC%9A/data=!4m2!3m1!1s0x601eeb3f4398fdb3:0xd624814f4ef16f8,FALSE,36.2859399,139.118893,〒370-1127 群馬県佐波郡玉村町角渕２１１４−１,群馬教会
https://www.google.com/maps/place/%E3%82%AB%E3%83%88%E3%83%AA%E3%83%83%E3%82%AF%E5%AF%8C%E5%B2%A1%E6%95%99%E4%BC%9A/data=!4m2!3m1!1s0x601e906db1856885:0x43807f5df4e6c932,TRUE,36.2558822,138.8920818,〒370-2316 群馬県富岡市富岡１１６１,カトリック富岡教会
https://www.google.com/maps/place/%E8%81%96%E6%9B%B8%E3%82%AD%E3%83%AA%E3%82%B9%E3%83%88%E6%95%99%E4%BC%9A/data=!4m2!3m1!1s0x601ef2672bb5d465:0x6415c5c1ce2c8a7d,FALSE,36.3735752,139.0870019,〒371-0803 群馬県前橋市天川原町２丁目２４８−１２,聖書キリスト教会
https://www.google.com/maps/place/Assembleia+de+Deus+-+Belem/data=!4m2!3m1!1s0x601ee750913663d1:0xe7279120b3c9a866,FALSE,36.3258817,139.2046869,〒372-0014 群馬県伊勢崎市昭和町１６４９−１,Assembleia de Deus - Belem
https://www.google.com/maps/place/Point+Gospel+IPRJ+ISESAKI/data=!4m2!3m1!1s0x601ee873500e0aad:0x962b5d529effb62b,FALSE,36.2768349,139.1973944,〒372-0833 群馬県伊勢崎市富塚町３０２−１,Point Gospel IPRJ ISESAKI
https://www.google.com/maps/place/Iglesia+catedral/data=!4m2!3m1!1s0x601ee71044798099:0x12835bfd105d8fa3,FALSE,36.2791275,139.2097576,〒372-0842 群馬県伊勢崎市馬見塚町９４８,Iglesia catedral
https://www.google.com/maps/place/Congregacao+crista+no+japao/data=!4m2!3m1!1s0x601ede52a81c25d5:0x21c067694cd6c622,FALSE,36.2805206,139.3209099,〒373-0044 群馬県太田市上田島町,Congregacao crista no japao
https://www.google.com/maps/place/Assembl%C3%A9ia+de+Deus+Miss%C3%A3o+Mundial/data=!4m2!3m1!1s0x601f27bd671ac763:0x83cf3b001dec152f,FALSE,36.2454716,139.3799873,〒373-0826 群馬県太田市古戸町２３１−３,Assembléia de Deus Missão Mundial
https://www.google.com/maps/place/Igreja+Apost%C3%B3lica+Unidade+em+Cristo+-+Jap%C3%A3o/data=!4m2!3m1!1s0x601f27ebb283d50b:0x3eef6767cea3ea67,FALSE,36.259735,139.3822722,〒373-0861 群馬県太田市南矢島町４６２−１,Igreja Apostólica Unidade em Cristo - Japão
https://www.google.com/maps/place/Assembreia+de+Deus+Ministerio+da+restauracao/data=!4m2!3m1!1s0x601f27499e7576a5:0xab77a9f73dc6380c,FALSE,36.2565461,139.38315,〒373-0862 群馬県太田市末広町５３５−９,Assembreia de Deus Ministerio da restauracao
https://www.google.com/maps/place/%E8%97%A4%E5%B2%A1%E3%82%AD%E3%83%AA%E3%82%B9%E3%83%88%E9%9B%86%E4%BC%9A%E6%89%80/data=!4m2!3m1!1s0x601eeafc2194b467:0x5c13e80252914038,FALSE,36.2411467,139.0764141,〒375-0024 群馬県藤岡市藤岡１６７５−１,藤岡キリスト集会所
https://www.google.com/maps/place/%E3%82%AB%E3%83%88%E3%83%AA%E3%83%83%E3%82%AF%E8%8D%89%E6%B4%A5%E6%95%99%E4%BC%9A/data=!4m2!3m1!1s0x601de7461ee38abd:0x5b89ddb9d3dd5a2a,TRUE,36.6189844,138.6265585,〒377-1711 群馬県吾妻郡草津町草津６４７,カトリック草津教会
https://www.google.com/maps/place/%E3%82%BB%E3%83%96%E3%83%B3%E3%82%B9%E3%83%87%E3%83%BC%E3%83%BB%E3%82%A2%E3%83%89%E3%83%99%E3%83%B3%E3%83%81%E3%82%B9%E3%83%88%E5%AE%89%E4%B8%AD%E3%82%AD%E3%83%AA%E3%82%B9%E3%83%88%E6%95%99%E4%BC%9A/data=!4m2!3m1!1s0x601e85d26b6c68c1:0x7658639eb88bd55,FALSE,36.3204885,138.8435354,〒379-0136 群馬県安中市嶺６１５,セブンスデー・アドベンチスト安中キリスト教会
https://www.google.com/maps/place/%E4%B9%85%E9%81%A0%E5%9F%BA%E7%9D%A3%E6%95%99%E4%BC%9A/data=!4m2!3m1!1s0x601e1290855de8bd:0x24ee226b9f800d73,FALSE,36.7282992,138.8841547,〒379-1403 群馬県利根郡みなかみ町猿ヶ京温泉２６６８,久遠基督教会
https://www.google.com/maps/place/%E6%97%A5%E6%9C%AC%E3%82%AD%E3%83%AA%E3%82%B9%E3%83%88%E6%95%99%E5%9B%A3%E6%9D%BE%E4%BB%A3%E6%95%99%E4%BC%9A/data=!4m2!3m1!1s0x601d852af7d9209f:0x8e6114b83279e6b3,FALSE,36.5653994,138.198316,〒381-1231 長野県長野市松代町松代 殿町167,日本キリスト教団松代教会
https://www.google.com/maps/place/%E6%96%B0%E7%94%BA%E3%82%AD%E3%83%AA%E3%82%B9%E3%83%88%E6%95%99%E4%BC%9A/data=!4m2!3m1!1s0x601d7e9558b2faf1:0x5a94d3025e0f0234,FALSE,36.5727326,138.0199472,〒381-2404 長野県長野市信州新町上条９６−３,新町キリスト教会
https://www.google.com/maps/place/%E4%BF%A1%E4%BB%B0%E3%83%90%E3%83%97%E3%83%86%E3%82%B9%E3%83%88%E6%95%99%E4%BC%9A+Faith+Baptist+Church/data=!4m2!3m1!1s0x601c348eb8ed5caf:0x830b1cb93af2a662,FALSE,36.2057496,138.4537424,〒385-0045 長野県佐久市 大沢45−1,信仰バプテスト教会 Faith Baptist Church
https://www.google.com/maps/place/%E4%BF%A1%E5%B7%9E%E3%82%B3%E3%83%9F%E3%83%A5%E3%83%8B%E3%83%86%E3%82%A3%E3%83%BC%E6%95%99%E4%BC%9A+Shinshu+Community+Church/data=!4m2!3m1!1s0x601dd3771087714b:0xb30787741d0c1e4,FALSE,36.3181603,138.5060449,〒389-0206 長野県北佐久郡御代田町御代田２４２２−５５,信州コミュニティー教会 Shinshu Community Church
https://www.google.com/maps/place/%E9%87%8E%E5%B0%BB%E6%B9%96%E3%82%AB%E3%83%88%E3%83%AA%E3%83%83%E3%82%AF%E6%95%99%E4%BC%9A/data=!4m2!3m1!1s0x5ff623a167a9f693:0xf2cb74ebd404ba,TRUE,36.8222212,138.2354881,〒389-1312 長野県上水内郡信濃町富濃３９４１,野尻湖カトリック教会
https://www.google.com/maps/place/%E6%9D%BE%E6%9C%AC%E3%81%95%E3%81%8F%E3%82%89%E7%A6%8F%E9%9F%B3%E6%95%99%E4%BC%9A/data=!4m2!3m1!1s0x601d0f18dd0692b1:0xa52fbe45aadf6c8d,FALSE,36.209498,137.9792153,〒390-0825 長野県松本市並柳１丁目２６−１４,松本さくら福音教会
https://www.google.com/maps/place/%E3%82%B7%E3%82%AA%E3%83%B3%E3%81%AE%E4%B8%98%E3%82%AD%E3%83%AA%E3%82%B9%E3%83%88%E6%95%99%E4%BC%9A/data=!4m2!3m1!1s0x601d11870a3b94c1:0x7cbc01935189cbfe,FALSE,36.1703072,137.813101,〒390-1401 長野県松本市 波田1421−10,シオンの丘キリスト教会
https://www.google.com/maps/place/%E8%AB%8F%E8%A8%AA%E6%95%99%E4%BC%9A/data=!4m2!3m1!1s0x601c554431e4ab03:0x65182091673703f6,FALSE,36.0728979,138.0946578,〒393-0025 長野県諏訪郡下諏訪町本郷６５９５,日本福音ルーテル諏訪教会
https://www.google.com/maps/place/%E7%A6%8F%E5%B3%B6%E6%95%99%E4%BC%9A/data=!4m2!3m1!1s0x601cdf66e57a650f:0x8b21391da1bc5735,FALSE,35.8556894,137.6922884,〒397-0001 長野県木曽郡木曽町福島中畑５８２６,福島教会
https://www.google.com/maps/place/%ED%95%9C%EA%B5%AD+%EC%97%AC%EC%9D%98%EB%8F%84%EC%B4%9D%ED%9A%8C+%EC%88%9C%EB%B3%B5%EC%9D%8C%EA%B5%90%ED%9A%8C%E7%B4%94%E7%A6%8F%E9%9F%B3%E6%9D%BE%E6%9C%AC%E6%81%B5%E3%81%BF%E6%95%99%E4%BC%9A/data=!4m2!3m1!1s0x601d0f7501b0df83:0x5a8fd8fc83ceebe0,FALSE,36.1968841,137.9395325,〒399-0033 長野県松本市笹賀下二子５５０７−１,한국 여의도총회 순복음교회純福音松本恵み教会
https://www.google.com/maps/place/%E3%82%B8%E3%83%BC%E3%82%B5%E3%82%B9%E3%83%BB%E3%82%B6%E3%83%BB%E3%82%B4%E3%82%B9%E3%83%9A%E3%83%AB%E3%83%BB%E3%83%81%E3%83%A3%E3%83%BC%E3%83%81%E3%83%BB%E3%82%A4%E3%83%B3%E3%82%BF%E3%83%BC%E3%83%8A%E3%82%B7%E3%83%A7%E3%83%8A%E3%83%AB%E3%83%BB%E3%82%B8%E3%83%A3%E3%83%91%E3%83%B3/data=!4m2!3m1!1s0x601d048cf26aaaab:0x56feaca2e6d4930a,FALSE,36.0737151,137.9789362,〒399-0651 長野県塩尻市北小野２２６６−１,ジーサス・ザ・ゴスペル・チャーチ・インターナショナル・ジャパン
https://www.google.com/maps/place/%E3%82%AB%E3%83%88%E3%83%AA%E3%83%83%E3%82%AF%E6%9D%BE%E5%B7%9D%E6%95%99%E4%BC%9A/data=!4m2!3m1!1s0x601c902032c41551:0x9626934fe567f0c9,TRUE,35.5958936,137.9192406,〒399-3303 長野県下伊那郡松川町元大島１６７１,カトリック松川教会
https://www.google.com/maps/place/%E8%B5%A4%E7%A9%82%E3%82%AD%E3%83%AA%E3%82%B9%E3%83%88%E6%95%99%E4%BC%9A/data=!4m2!3m1!1s0x601cf2af89509c01:0x9c7ae23fc56a7595,FALSE,35.7349759,137.9301881,〒399-4114 長野県駒ヶ根市上穂南１８−２９,赤穂キリスト教会
https://www.google.com/maps/place/Iglesia+Ni+Cristo+Locale+of+Yamanashi/data=!4m2!3m1!1s0x601c09f402149c71:0x17a663f9fdc7a4f6,FALSE,35.6845621,138.484054,〒400-0107 山梨県甲斐市志田６４５−１,Iglesia Ni Cristo Locale of Yamanashi
https://www.google.com/maps/place/Igreja+Metodista+Renovada+-+Minami+Alps/data=!4m2!3m1!1s0x601bf1840732f781:0xce81593579c2678,FALSE,35.5989442,138.484827,〒400-0335 山梨県南アルプス市加賀美１０５３,Igreja Metodista Renovada - Minami Alps
https://www.google.com/maps/place/%E6%97%A5%E6%9C%AC%E5%9F%BA%E7%9D%A3%E6%95%99%E5%9B%A3%E5%B7%A8%E6%91%A9%E6%95%99%E4%BC%9A/data=!4m2!3m1!1s0x601bf3cf4a2fe977:0x660dc238c96c85da,FALSE,35.562111,138.4640332,〒400-0501 山梨県南巨摩郡富士川町青柳町160,日本基督教団巨摩教会
https://www.google.com/maps/place/%E5%A4%AA%E7%94%B0%E7%94%BA+%E3%82%AD%E3%83%AA%E3%82%B9%E3%83%88%E6%95%99%E4%BC%9A/data=!4m2!3m1!1s0x601bf9c284fbaf2f:0x7d72f306d7a0c8e3,FALSE,35.6536069,138.5707729,〒400-0865 山梨県甲府市太田町３−９,太田町 キリスト教会
https://www.google.com/maps/place/%E5%B8%82%E5%B7%9D%E6%95%99%E4%BC%9A/data=!4m2!3m1!1s0x601bf1a2680bb437:0x9bc418c984915f89,FALSE,35.5628382,138.4999121,〒409-3601 山梨県西八代郡市川三郷町市川大門９０７,市川教会
https://www.google.com/maps/place/%E3%81%84%E3%81%AE%E3%81%A1%E3%81%AE%E8%A8%80%E8%91%89%E6%95%99%E4%BC%9A/data=!4m2!3m1!1s0x601bf0d27070ee19:0xdb8e6bfb816fa27e,FALSE,35.6144457,138.5281405,〒409-3862 山梨県中巨摩郡昭和町上河東５４０−２,いのちの言葉教会
https://www.google.com/maps/place/%E6%B3%89%E3%82%AD%E3%83%AA%E3%82%B9%E3%83%88%E6%95%99%E4%BC%9A/data=!4m2!3m1!1s0x6019854472abe059:0xf0a602383b59048c,FALSE,35.1128826,138.8655462,〒410-0044 静岡県沼津市五月町１６−７,泉キリスト教会
https://www.google.com/maps/place/%E3%80%92412-0021+%E9%9D%99%E5%B2%A1%E7%9C%8C%E5%BE%A1%E6%AE%BF%E5%A0%B4%E5%B8%82%E4%BA%8C%E6%9E%9A%E6%A9%8B%EF%BC%91%EF%BC%94%EF%BC%94%E2%88%92%EF%BC%91%EF%BC%92/data=!4m2!3m1!1s0x6019765c439b6d5f:0xd89d37e1aa0d396,FALSE,35.3066312,138.9369425,〒412-0021 静岡県御殿場市二枚橋１４４−１２,日本キリスト大使御殿場教会
https://www.google.com/maps/place/%E6%97%A5%E6%9C%AC%E3%82%AD%E3%83%AA%E3%82%B9%E3%83%88%E6%95%99%E5%9B%A3%E5%AE%87%E4%BD%90%E7%BE%8E%E6%95%99%E4%BC%9A/data=!4m2!3m1!1s0x6019c0fe6f967d57:0x96ea36a1f628cd92,FALSE,35.0086119,139.0860737,〒414-0001 静岡県伊東市宇佐美１７１９−５,日本キリスト教団宇佐美教会
https://www.google.com/maps/place/%E5%9F%8E%E5%B1%B1%E3%82%AD%E3%83%AA%E3%82%B9%E3%83%88%E6%95%99%E4%BC%9A/data=!4m2!3m1!1s0x601bd1693ec4c419:0xed0ef9485604373f,FALSE,35.228641,138.6148301,〒418-0064 静岡県富士宮市元城町３０−７,城山キリスト教会
https://www.google.com/maps/place/%E6%97%A5%E6%9C%AC%E7%A6%8F%E9%9F%B3%E3%83%AB%E3%83%BC%E3%83%86%E3%83%AB%E9%9D%99%E5%B2%A1%E6%95%99%E4%BC%9A/data=!4m2!3m1!1s0x601a4a0188c486a5:0x2f87fe6bcb715caf,FALSE,34.9799085,138.3940501,〒420-0834 静岡県静岡市葵区音羽町８−１６,日本福音ルーテル静岡教会
https://www.google.com/maps/place/%E3%82%AB%E3%83%88%E3%83%AA%E3%83%83%E3%82%AF%E5%90%89%E7%94%B0%E6%95%99%E4%BC%9A/data=!4m2!3m1!1s0x601a435efef55dd7:0x503c18fa83d7a3ca,TRUE,34.7722095,138.256519,〒421-0303 静岡県榛原郡吉田町片岡１９９６−２,カトリック吉田教会
https://www.google.com/maps/place/assembleia+de+Deus+visao+missionaria/data=!4m2!3m1!1s0x601a5d0ee7b3c983:0xf3b47c9e1a5834f0,FALSE,34.7463691,138.2378909,〒421-0421 静岡県牧之原市細江３５２,assembleia de Deus visao missionaria
https://www.google.com/maps/place/Sagara+Christian+Fellowship/data=!4m2!3m1!1s0x601a5de78521bb31:0x4e78e0107cddf717,FALSE,34.6741088,138.1972866,〒421-0524 静岡県牧之原市須々木２６３３−４８,Sagara Christian Fellowship
https://www.google.com/maps/place/%E6%B8%85%E6%B0%B4%E3%82%AD%E3%83%AA%E3%82%B9%E3%83%88%E3%81%AE%E6%95%99%E4%BC%9A/data=!4m2!3m1!1s0x601a33f62e1cec8b:0x1f476ae7c3d4cef4,FALSE,35.0255327,138.4792295,〒424-0809 静岡県静岡市清水区天神２丁目５−２５,清水キリストの教会
https://www.google.com/maps/place/%E9%9D%99%E5%B2%A1%E6%A2%85%E5%B1%8B%E7%94%BA%E3%82%AD%E3%83%AA%E3%82%B9%E3%83%88%E6%95%99%E4%BC%9A%E3%81%B5%E3%81%98%E3%81%88%E3%81%A0%E3%83%81%E3%83%A3%E3%83%9A%E3%83%AB/data=!4m2!3m1!1s0x601a4fbc381820d5:0xd731a455f848b381,FALSE,34.8726106,138.265386,〒426-0017 静岡県藤枝市大手１丁目１７−１４,静岡梅屋町キリスト教会ふじえだチャペル
https://www.google.com/maps/place/%E6%97%A5%E6%9C%AC%E3%82%A2%E3%83%83%E3%82%BB%E3%83%B3%E3%83%96%E3%83%AA%E3%83%BC%E3%82%BA%E3%83%BB%E3%82%AA%E3%83%96%E3%83%BB%E3%82%B4%E3%83%83%E3%83%89%E6%95%99%E5%9B%A3%E5%B8%8C%E6%9C%9B%E3%82%AD%E3%83%AA%E3%82%B9%E3%83%88%E6%95%99%E4%BC%9A/data=!4m2!3m1!1s0x601a5074b46faf8b:0xaaa0a391eafde7fd,FALSE,34.8358089,138.2192386,〒427-0011 静岡県島田市東町２５４−１,日本アッセンブリーズ・オブ・ゴッド教団希望キリスト教会
https://www.google.com/maps/place/%E3%81%97%E3%81%BE%E3%81%A0%E3%83%93%E3%82%B8%E3%83%A7%E3%83%B3%E6%95%99%E4%BC%9A/data=!4m2!3m1!1s0x601a5b1defe9ea7b:0x8b360b7a26bde3b3,FALSE,34.803872,138.2118167,〒427-0112 静岡県島田市月坂１丁目１２−９,しまだビジョン教会
https://www.google.com/maps/place/%E3%82%AB%E3%83%88%E3%83%AA%E3%83%83%E3%82%AF%E5%BE%B3%E5%B1%B1%E6%95%99%E4%BC%9A/data=!4m2!3m1!1s0x601ba87c99ae422d:0x8d26498b44d98d48,TRUE,35.0733291,138.1150815,〒428-0301 静岡県榛原郡川根本町徳山１８６５,カトリック徳山教会
https://www.google.com/maps/place/Igreja+Vida+Nova/data=!4m2!3m1!1s0x601ae761c3fd62c1:0x483a8b17e073f826,FALSE,34.6920321,137.7646588,〒430-0813 静岡県浜松市南区芳川町１１５,Igreja Vida Nova
https://www.google.com/maps/place/%E3%83%8B%E3%83%A5%E3%83%BC%E3%83%9B%E3%83%BC%E3%83%97%E3%83%81%E3%83%A3%E3%83%BC%E3%83%81/data=!4m2!3m1!1s0x601ade78f5d5a319:0x12c8ee7c8d9b50c,FALSE,34.7006473,137.7315573,〒432-8033 静岡県浜松市中区海老塚１丁目３−６,ニューホープチャーチ
https://www.google.com/maps/place/IGREJA+PENTECOSTAL+DEUS+%C3%89+AMOR/data=!4m2!3m1!1s0x601adfb402635fe7:0x3f4d3e33e4864d08,FALSE,34.7435305,137.7396396,〒433-8122 静岡県浜松市中区上島６丁目３３−１１,IGREJA PENTECOSTAL DEUS É AMOR
https://www.google.com/maps/place/%E5%A4%A9%E7%AB%9C%E3%82%AD%E3%83%AA%E3%82%B9%E3%83%88%E7%A6%8F%E9%9F%B3%E6%95%99%E4%BC%9A/data=!4m2!3m1!1s0x601b1f75ddcfb561:0x7fe6091416efd088,FALSE,34.8297943,137.7789302,〒434-0002 静岡県浜松市浜北区尾野１５５６,天竜キリスト福音教会
https://www.google.com/maps/place/Assembl%C3%A9ia+de+Deus+Miss%C3%A3o+Vida+Nova/data=!4m2!3m1!1s0x601af9eb3ae2b40b:0xe6a434b69e9ada21,FALSE,34.7650917,138.0179059,〒436-0029 静岡県掛川市南２丁目１３,Assembléia de Deus Missão Vida Nova
https://www.google.com/maps/place/%E3%82%A2%E3%82%BB%E3%83%B3%E3%83%97%E3%83%AC%E3%82%A4%E3%82%A2%E3%83%87%E3%83%87%E3%82%A6%E3%82%B9%EF%BC%8E%E3%83%9F%E3%82%B7%E3%83%A7%E3%83%BC%E3%83%B3%E3%83%B4%E3%82%A3%E3%83%80%E3%83%8E%E3%83%B4%E3%82%A1%E7%A6%8F%E9%9F%B3%E6%95%99%E4%BC%9A/data=!4m2!3m1!1s0x601af9eb3b110d63:0xe46c63a492e8d8a3,FALSE,34.7649678,138.0176542,〒436-0029 静岡県掛川市南２丁目１３−１６,アセンプレイアデデウス．ミショーンヴィダノヴァ福音教会
https://www.google.com/maps/place/Assembleia+de+Deus+ADOMJ/data=!4m2!3m1!1s0x601ae4d079394ad5:0xea81823f4f636c48,FALSE,34.7464716,137.9122373,〒437-0064 静岡県袋井市川井１１４９,Assembleia de Deus ADOMJ
https://www.google.com/maps/place/%E3%82%A2%E3%83%83%E3%82%BB%E3%83%B3%E3%83%96%E3%83%AC%E3%82%A4%E3%82%A2%E3%83%87%E3%83%87%E3%82%A6%E3%82%B9%E3%82%AD%E3%83%AA%E3%82%B9%E3%83%88%E6%95%99%E4%BC%9A/data=!4m2!3m1!1s0x601af5b631557673:0x7a9ab2198f9bbdb3,FALSE,34.6681106,138.0477269,〒437-1421 静岡県掛川市大坂１４４６,アッセンブレイアデデウスキリスト教会
https://www.google.com/maps/place/%E3%82%BB%E3%83%96%E3%83%B3%E3%82%B9%E3%83%87%E3%83%BC%E3%83%BB%E3%82%A2%E3%83%89%E3%83%99%E3%83%B3%E3%83%81%E3%82%B9%E3%83%88%E8%8F%8A%E5%B7%9D%E3%83%95%E3%82%A3%E3%83%AA%E3%83%94%E3%83%B3%E4%BA%BA%E3%82%AD%E3%83%AA%E3%82%B9%E3%83%88%E6%95%99%E4%BC%9A/data=!4m2!3m1!1s0x601a5f2523d2ea1f:0xd934c11c6052f4a5,FALSE,34.7026757,138.1112313,〒437-1503 静岡県菊川市川上２５４７,セブンスデー・アドベンチスト菊川フィリピン人キリスト教会
https://www.google.com/maps/place/%E3%83%AB%E3%83%BC%E3%83%86%E3%83%AB%E3%81%BF%E3%81%AE%E3%82%8A%E6%95%99%E4%BC%9A%E7%94%B0%E5%8E%9F%E7%A4%BC%E6%8B%9D%E6%89%80/data=!4m2!3m1!1s0x6004da44a025dd6d:0xe84ccd5a5b2c716,FALSE,34.6718211,137.2678197,〒441-3421 愛知県田原市田原町殿町４５−２,ルーテルみのり教会田原礼拝所
https://www.google.com/maps/place/IPB+Cristo+%C3%A9+Vida+(%E5%91%BD%E3%82%AD%E3%83%AA%E3%82%B9%E3%83%88%E6%95%99%E4%BC%9A)/data=!4m2!3m1!1s0x6004e757ddf999cb:0x68d40a48bb29dafa,FALSE,34.6129499,137.0941991,〒441-3614 愛知県田原市保美町西武者詰８０－８４,IPB Cristo é Vida (命キリスト教会)
https://www.google.com/maps/place/%E3%80%92444-0077+%E6%84%9B%E7%9F%A5%E7%9C%8C%E5%B2%A1%E5%B4%8E%E5%B8%82%E4%BA%95%E7%94%B0%E7%94%BA%E8%8C%A8%E5%9D%AA%EF%BC%93%EF%BC%94%E2%88%92%EF%BC%93%EF%BC%92%EF%BC%90/data=!4m2!3m1!1s0x6004a328845b828d:0xd67cd845eee026d8,FALSE,34.9772402,137.1780889,〒444-0077 愛知県岡崎市井田町茨坪３４−３２０,日本キリスト教団岡崎茨坪伝道所
https://www.google.com/maps/place/International+Christian+Community/data=!4m2!3m1!1s0x600491a09f23b72d:0x27f19a7634da15d4,FALSE,34.8484038,137.0191824,〒444-0327 愛知県西尾市寺津３丁目３−１,International Christian Community
https://www.google.com/maps/place/%E5%90%8C%E7%9B%9F%E7%A6%8F%E9%9F%B3%E3%82%A4%E3%83%B3%E3%82%BF%E3%83%BC%E3%83%8A%E3%82%B7%E3%83%A7%E3%83%8A%E3%83%AB%E3%82%AD%E3%83%AA%E3%82%B9%E3%83%88%E6%95%99%E4%BC%9A/data=!4m2!3m1!1s0x6004bd1285462921:0x6ab036ce2fc29e94,FALSE,34.9330466,137.1575559,〒444-0843 愛知県岡崎市江口３丁目７−９,同盟福音インターナショナルキリスト教会
https://www.google.com/maps/place/%E5%AE%89%E5%9F%8E%E6%95%99%E4%BC%9A/data=!4m2!3m1!1s0x6004990850761a29:0x658c2da485e84e05,FALSE,34.966186,137.0856749,〒446-0065 愛知県安城市大東町１６−２,安城教会
https://www.google.com/maps/place/%E3%83%9F%E3%83%83%E3%82%B7%E3%83%A7%E3%83%B3%E3%83%BB%E3%82%A2%E3%83%9D%E3%82%A4%E3%82%AA%E3%82%AD%E3%83%AA%E3%82%B9%E3%83%88%E6%95%99%E4%BC%9A/data=!4m2!3m1!1s0x60049d2800700001:0x9e246761443e8d7b,FALSE,34.9948161,136.9901708,〒448-0831 愛知県刈谷市熊野町３丁目５−１０,ミッション・アポイオキリスト教会
https://www.google.com/maps/place/%E3%82%B0%E3%83%AC%E3%82%A4%E3%82%B9%E3%82%B7%E3%83%86%E3%82%A3%E3%83%81%E3%83%A3%E3%83%BC%E3%83%81%E3%83%BB%E5%90%8D%E5%8F%A4%E5%B1%8B+GraceCity+Church+-+Nagoya/data=!4m2!3m1!1s0x600370c09b9094ff:0x942cc3519620ab89,FALSE,35.1534525,136.9147386,〒460-0012 愛知県名古屋市中区千代田３丁目２８,グレイスシティチャーチ・名古屋 GraceCity Church - Nagoya
https://www.google.com/maps/place/%E7%A4%8E%E3%82%AD%E3%83%AA%E3%82%B9%E3%83%88%E6%95%99%E4%BC%9A/data=!4m2!3m1!1s0x60036ef7c3e12dcd:0x9c6dfc72eb20f2e3,FALSE,35.2341202,137.0203935,〒463-0003 愛知県名古屋市守山区下志段味長廻間２２７５−２,礎キリスト教会
https://www.google.com/maps/place/MUSTARD+SEED+%E3%82%AF%E3%83%AA%E3%82%B9%E3%83%81%E3%83%A3%E3%83%B3%E6%95%99%E4%BC%9A/data=!4m2!3m1!1s0x6003708b10eaaac5:0x5b19fe339e159187,FALSE,35.1684463,136.9385636,〒464-0850 愛知県名古屋市千種区今池５丁目３−２,MUSTARD SEED クリスチャン教会
https://www.google.com/maps/place/%E3%82%AD%E3%83%AA%E3%82%B9%E3%83%88%E6%A0%84%E5%85%89%E6%95%99%E4%BC%9A/data=!4m2!3m1!1s0x600365aa153ccaa5:0x4b6160ef14d73bb2,FALSE,35.1554032,137.0204991,〒465-0053 愛知県名古屋市名東区極楽３丁目６５−２,キリスト栄光教会
https://www.google.com/maps/place/%E3%82%AB%E3%83%AB%E3%83%90%E3%83%AA%E3%83%90%E3%83%97%E3%83%86%E3%82%B9%E3%83%88%E6%95%99%E4%BC%9A/data=!4m2!3m1!1s0x600364b37177fc4f:0x39158f13e41d0dbe,FALSE,35.1120061,136.9825032,〒468-0026 愛知県名古屋市天白区土原５丁目１１５,カルバリバプテスト教会
https://www.google.com/maps/place/%E3%82%AD%E3%83%AA%E3%82%B9%E3%83%88%E8%81%96%E5%8D%94%E5%9B%A3%E5%90%8D%E5%8F%A4%E5%B1%8B%E3%82%B0%E3%83%AD%E3%83%BC%E3%83%AA%E3%82%A2%E3%82%B9%E3%83%81%E3%83%A3%E3%83%9A%E3%83%AB/data=!4m2!3m1!1s0x600364d4fcf1701f:0x2249edceb0ca9e1e,FALSE,35.1329329,136.9825295,〒468-0058 愛知県名古屋市天白区植田西２丁目８０５,キリスト聖協団名古屋グローリアスチャペル
https://www.google.com/maps/place/%E3%83%9F%E3%83%83%E3%82%B7%E3%83%A7%E3%83%B3+%E3%82%A2%E3%83%9D%E3%82%A4%E3%82%AA+%E3%82%AD%E3%83%AA%E3%82%B9%E3%83%88%E6%95%99%E4%BC%9A/data=!4m2!3m1!1s0x600362ee924ff63f:0x58fef81cc4cea85d,FALSE,35.0612652,137.0066017,〒470-1131 愛知県豊明市二村台２−１９−２３,ミッション アポイオ キリスト教会
https://www.google.com/maps/place/%E8%8B%A5%E8%8D%89%E3%82%AD%E3%83%AA%E3%82%B9%E3%83%88%E6%95%99%E4%BC%9A/data=!4m2!3m1!1s0x600482e1831ed94d:0xfd70dba077c01b80,FALSE,34.982121,136.9567464,〒470-2102 愛知県知多郡東浦町緒川北大狭間４７−５,若草キリスト教会
https://www.google.com/maps/place/%E5%88%88%E8%B0%B7%E7%9F%A5%E7%AB%8B%E3%82%AD%E3%83%AA%E3%82%B9%E3%83%88%E6%95%99%E4%BC%9A/data=!4m2!3m1!1s0x60049c4b8c06b4cb:0x7c69d7245a185fd8,FALSE,35.0089501,137.0324025,〒472-0057 愛知県知立市西２丁目６−９,刈谷知立キリスト教会
https://www.google.com/maps/place/Igreja+Assembleia+de+Deus+Handa/data=!4m2!3m1!1s0x60048511abbc3c29:0x4e0e63d24fe1bb33,FALSE,34.8884164,136.9235703,〒475-0846 愛知県半田市栄町１丁目８,Igreja Assembleia de Deus Handa
https://www.google.com/maps/place/%E7%9F%A5%E5%A4%9A%E3%81%AE%E3%81%9E%E3%81%BF%E3%82%AD%E3%83%AA%E3%82%B9%E3%83%88%E6%95%99%E4%BC%9A/data=!4m2!3m1!1s0x600480282962dbd5:0x51f6e7683b00b43e,FALSE,34.9712942,136.8578598,〒478-0021 愛知県知多市岡田宝ノ脇６−３,知多のぞみキリスト教会
https://www.google.com/maps/place/%E6%97%A5%E6%9C%AC%E3%82%AD%E3%83%AA%E3%82%B9%E3%83%88%E6%95%99%E5%9B%A3%E4%B8%96%E7%9C%9F%E7%95%99(%E3%81%9B%E3%81%BE%E3%82%8B)%E6%95%99%E4%BC%9A/data=!4m2!3m1!1s0x60048006f3b52dfd:0xec7cbef0097c725c,FALSE,34.9533533,136.8286722,〒478-0036 愛知県知多市新舞子竜５０−１,日本キリスト教団世真留(せまる)教会
https://www.google.com/maps/place/%E3%83%AB%E3%83%BC%E3%83%86%E3%83%AB%E7%9F%A5%E5%A4%9A%E6%95%99%E4%BC%9A/data=!4m2!3m1!1s0x6004874092241401:0x154b2172da3a6b45,FALSE,34.8792545,136.8437202,〒479-0825 愛知県常滑市山方町６丁目２７,ルーテル知多教会
https://www.google.com/maps/place/Igreja+Assembleia+de+Deus+de+Iwakura/data=!4m2!3m1!1s0x60030b4502279ed3:0x173fc9b3680a69c7,FALSE,35.2858097,136.8906172,〒485-0073 愛知県小牧市舟津１２３７−１,Igreja Assembleia de Deus de Iwakura
https://www.google.com/maps/place/MIR+RESTORATION+CHURCH/data=!4m2!3m1!1s0x60030c8ed2315555:0xb536de2afa20a019,FALSE,35.3165548,136.9154399,〒485-0081 愛知県小牧市横内８５−５,MIR RESTORATION CHURCH
https://www.google.com/maps/place/Iglesia+Ni+Cristo+Locale+Of+Nagoya/data=!4m2!3m1!1s0x60037305c659d21d:0x85886b221fa4d8f2,FALSE,35.2338861,136.9520979,〒486-0944 愛知県春日井市大和通２丁目５３,Iglesia Ni Cristo Locale Of Nagoya
https://www.google.com/maps/place/%E3%80%92487-0033+%E6%84%9B%E7%9F%A5%E7%9C%8C%E6%98%A5%E6%97%A5%E4%BA%95%E5%B8%82%E5%B2%A9%E6%88%90%E5%8F%B0%EF%BC%91%E4%B8%81%E7%9B%AE%EF%BC%91%EF%BC%95%E2%88%92%EF%BC%97/data=!4m2!3m1!1s0x60036c1f6ec1930b:0x95617515f57024f6,FALSE,35.2712682,137.0396694,〒487-0033 愛知県春日井市岩成台１丁目１５−７,宗教法人　ホサナ・キリスト教会
https://www.google.com/maps/place/Iglesia+Ni+Cristo+-+Locale+of+Kanie/data=!4m2!3m1!1s0x60039db57c87a461:0x1957c498631db30b,FALSE,35.1393776,136.7885367,〒497-0032 愛知県海部郡蟹江町今川東上４２,Iglesia Ni Cristo - Locale of Kanie
https://www.google.com/maps/place/%E5%B1%B1%E7%9C%8C%E3%82%81%E3%81%90%E3%81%BF%E3%83%90%E3%83%96%E3%83%86%E3%82%B9%E3%83%88%E6%95%99%E4%BC%9A/data=!4m2!3m1!1s0x600254f1bf48f745:0x734b46a1b5f6e652,FALSE,35.5375365,136.7736047,〒501-2101 岐阜県山県市大桑２８５５−１,山県めぐみバブテスト教会
https://www.google.com/maps/place/%E8%81%96%E6%B3%89%E3%82%AD%E3%83%AA%E3%82%B9%E3%83%88%E6%95%99%E4%BC%9A/data=!4m2!3m1!1s0x6003ac733e550715:0xf346376ee0fbbab8,FALSE,35.4422582,136.7416635,〒502-0932 岐阜県岐阜市則武中４丁目７−５,聖泉キリスト教会
https://www.google.com/maps/place/%E3%82%A2%E3%83%83%E3%82%BB%E3%83%B3%E3%83%95%E3%83%AA%E3%83%BC%E3%82%BA%E3%82%AA%E3%83%96%E3%82%B4%E3%83%83%E3%83%89%E6%95%99%E4%BC%9A/data=!4m2!3m1!1s0x6003b3cebc7eaaab:0xd3aa515e89b7419,FALSE,35.3845801,136.6263241,〒503-0008 岐阜県大垣市楽田町７丁目８５,アッセンフリーズオブゴッド教会
https://www.google.com/maps/place/%E6%97%A5%E6%9C%AC%E7%A6%8F%E9%9F%B3%E3%83%AB%E3%83%BC%E3%83%86%E3%83%AB%E5%A4%A7%E5%9E%A3%E6%95%99%E4%BC%9A%E3%83%BB%E5%9E%82%E4%BA%95%E9%9B%86%E4%BC%9A%E6%89%80/data=!4m2!3m1!1s0x6003b507eded7491:0x7815bac39517e633,FALSE,35.3345835,136.5411256,〒503-2123 岐阜県不破郡垂井町栗原２０８１,日本福音ルーテル大垣教会・垂井集会所
https://www.google.com/maps/place/Igreja+Assembleia+de+Deus+Aos+P%C3%A9s+da+Cruz/data=!4m2!3m1!1s0x6003b5a0170d80c7:0x6fb900d58c65b480,FALSE,35.3665693,136.5361782,〒503-2125 岐阜県不破郡垂井町東神田３丁目１６２−１,Igreja Assembleia de Deus Aos Pés da Cruz
https://www.google.com/maps/place/Igreja+Batista+Reformada+JP/data=!4m2!3m1!1s0x6003b5a01bd5977b:0x16a631b88a7e3487,FALSE,35.3665729,136.5359525,〒503-2125 岐阜県不破郡垂井町東神田３丁目１６２−２,Igreja Batista Reformada JP
https://www.google.com/maps/place/%E3%82%A4%E3%82%A8%E3%82%B9%E3%81%AE%E5%BE%A1%E9%9C%8A%E3%82%AD%E3%83%AA%E3%82%B9%E3%83%88%E6%95%99%E4%BC%9A/data=!4m2!3m1!1s0x6003148c4cea576d:0x4fc64ad943ad1229,FALSE,35.3852854,137.0707909,〒507-0061 岐阜県多治見市姫町2丁目16−１,イエスの御霊キリスト教会
https://www.google.com/maps/place/New+Life+Church+-+Tajimi/data=!4m2!3m1!1s0x60036bd81cb7bbf1:0xf49e1ea6a0020103,FALSE,35.3304777,137.1240121,〒507-0836 岐阜県多治見市昭和町３−３,New Life Church - Tajimi
https://www.google.com/maps/place/%E3%83%8B%E3%83%A5%E3%83%BC%E3%83%9B%E3%83%BC%E3%83%97%E5%B2%90%E9%98%9C/data=!4m2!3m1!1s0x60030f1c7ec59dd3:0xc43be9fb189fe554,FALSE,35.403437,136.9292568,〒509-0135 岐阜県各務原市鵜沼羽場町５丁目１６３,ニューホープ岐阜
https://www.google.com/maps/place/%E3%82%B8%E3%83%A7%E3%82%A4%E3%83%95%E3%83%AB%E3%83%BB%E3%82%B0%E3%83%AC%E3%83%BC%E3%82%B9%E3%83%BB%E3%83%81%E3%83%A3%E3%83%BC%E3%83%81/data=!4m2!3m1!1s0x60034b11a564145d:0x326356286aff1bd5,FALSE,35.4589702,137.4215841,〒509-7201 岐阜県恵那市大井町２０１７−１３２,ジョイフル・グレース・チャーチ
https://www.google.com/maps/place/%E6%97%A5%E6%9C%AC%E3%82%AD%E3%83%AA%E3%82%B9%E3%83%88%E6%95%99%E5%9B%A3+%E5%B9%B8%E7%94%BA%E6%95%99%E4%BC%9A/data=!4m2!3m1!1s0x60038ee66597cbd7:0x1b1e217fecf0e53f,FALSE,34.962951,136.6240283,〒510-0068 三重県四日市市三栄町５−３,日本キリスト教団 幸町教会
https://www.google.com/maps/place/%E3%83%99%E3%82%B5%E3%83%8B%E3%83%BC%E3%82%AD%E3%83%AA%E3%82%B9%E3%83%88%E6%95%99%E4%BC%9A%E4%B8%89%E9%87%8D/data=!4m2!3m1!1s0x600474528cbd9fc3:0x41c2f473acc98c94,FALSE,34.8044444,136.563122,〒510-0303 三重県津市河芸町東千里９９０−１,ベサニーキリスト教会三重
https://www.google.com/maps/place/Igreja+Betel+Sasagawa/data=!4m2!3m1!1s0x60038c48076841c7:0x49e2b40c5a1d9d6d,FALSE,34.9414541,136.5762981,〒510-0944 三重県四日市市笹川８丁目６８−１５,Igreja Betel Sasagawa
https://www.google.com/maps/place/Igreja+Betel+%E6%A1%91%E5%90%8D/data=!4m2!3m1!1s0x600393bbb1a1701f:0xcb098ceff5f94a7f,FALSE,35.0351728,136.5676015,〒512-1201 三重県四日市市上海老町１６３３−４９,Igreja Betel 桑名
https://www.google.com/maps/place/%E3%83%95%E3%82%A3%E3%83%A9%E3%83%87%E3%83%AB%E3%83%95%E3%82%A3%E3%82%A2%E3%83%BB%E3%82%AD%E3%83%AA%E3%82%B9%E3%83%88%E6%95%99%E4%BC%9A/data=!4m2!3m1!1s0x60038adc357cbb3d:0x54972693a76774b6,FALSE,34.859166,136.5329993,〒513-0826 三重県鈴鹿市住吉４丁目７−８,フィラデルフィア・キリスト教会
https://www.google.com/maps/place/Comunidade+Evangelica+Internacional+Hikari/data=!4m2!3m1!1s0x6004730ada14b13d:0xc00f1aceca9b57d,FALSE,34.7492113,136.522975,〒514-0102 三重県津市栗真町屋町５２１−１０,Comunidade Evangelica Internacional Hikari
https://www.google.com/maps/place/Igreja+Evang%C3%A9lica+Avivamento+Jap%C3%A3o/data=!4m2!3m1!1s0x600412cce983ecff:0x505c196ab4eb7d4e,FALSE,34.6531666,136.5149646,〒514-0305 三重県津市雲出島貫町１０５１−１,Igreja Evangélica Avivamento Japão
https://www.google.com/maps/place/Igreja+Evang%C3%A9lica+Assembleia+de+Deus+-+JMEAD+Tsu/data=!4m2!3m1!1s0x60046dae0030e873:0x33de323a608b2872,FALSE,34.6541869,136.5461875,〒514-0312 三重県津市香良洲町小松６３６０−１,Igreja Evangélica Assembleia de Deus - JMEAD Tsu
https://www.google.com/maps/place/%E3%82%AD%E3%83%AA%E3%82%B9%E3%83%88%E7%A6%8F%E9%9F%B3%E6%95%99%E4%BC%9A/data=!4m2!3m1!1s0x60046b348ed2b45f:0xf0e4fdf7e83a743a,FALSE,34.5849447,136.5183491,〒515-0812 三重県松阪市船江町４５２−１,キリスト福音教会
https://www.google.com/maps/place/%E3%83%99%E3%83%86%E3%83%AB%E7%A6%8F%E9%9F%B3%E6%95%99%E4%BC%9A/data=!4m2!3m1!1s0x600150d47429555d:0xcec265c98b7d1d19,FALSE,34.7763322,136.1306816,〒518-0828 三重県伊賀市平野中川原５８７−１,ベテル福音教会
https://www.google.com/maps/place/Congregacao+crista+no+japao/data=!4m2!3m1!1s0x6003f406538db355:0x3da6388f50f17e76,FALSE,34.859926,136.4467694,〒519-0151 三重県亀山市若山町７−１０,Congregacao crista no japao
https://www.google.com/maps/place/%E6%97%A5%E6%9C%AC%E3%82%AD%E3%83%AA%E3%82%B9%E3%83%88%E6%95%99%E5%9B%A3%E4%BB%8A%E6%B4%A5%E6%95%99%E4%BC%9A/data=!4m2!3m1!1s0x6001923db5a65bf3:0xbb3a93dc27054de9,FALSE,35.4028071,136.0352432,〒520-1621 滋賀県高島市今津町今津１６５０−１,日本キリスト教団今津教会
https://www.google.com/maps/place/%E3%83%9E%E3%82%AD%E3%83%8E%E3%82%AD%E3%83%AA%E3%82%B9%E3%83%88%E6%A0%84%E5%85%89%E6%95%99%E4%BC%9A/data=!4m2!3m1!1s0x600193ca2b23a087:0xe31a0ff9e7bd5f9a,FALSE,35.4425986,136.0371999,〒520-1823 滋賀県高島市マキノ町中庄３００−１,マキノキリスト栄光教会
https://www.google.com/maps/place/Igreja+Presbiteriana+Renovada+de+Shiga/data=!4m2!3m1!1s0x60016fef1c6f9331:0xcea370164b9f216f,FALSE,35.0231173,136.0451103,〒520-3113 滋賀県湖南市石部北４丁目１−１２,Igreja Presbiteriana Renovada de Shiga
https://www.google.com/maps/place/%E3%80%92520-3242+%E6%BB%8B%E8%B3%80%E7%9C%8C%E6%B9%96%E5%8D%97%E5%B8%82%E8%8F%A9%E6%8F%90%E5%AF%BA%EF%BC%93%EF%BC%92%EF%BC%97%E2%88%92%EF%BC%94/data=!4m2!3m1!1s0x60016545d94c47ff:0x7eb232a6899fc395,FALSE,35.0404279,136.0705171,〒520-3242 滋賀県湖南市菩提寺３２７−４,日本基督教団甲西伝道所
https://www.google.com/maps/place/%E3%82%A2%E3%82%BB%E3%83%B3%E3%83%96%E3%83%AA%E3%83%BC%E3%82%BA%E3%83%BB%E3%82%AA%E3%83%96%E3%83%BB%E3%82%B4%E3%83%83%E3%83%89%E6%95%99%E4%BC%9A/data=!4m2!3m1!1s0x600166a0a766a2c1:0x5e27253a12977a5b,FALSE,35.0003559,136.1175314,〒520-3254 滋賀県湖南市岩根中央１丁目５１,アセンブリーズ・オブ・ゴッド教会
https://www.google.com/maps/place/Igreja+Assembleia+de+Deus+Konan-Shi/data=!4m2!3m1!1s0x600165ca9d343aad:0xc369dd5f774868fc,FALSE,35.0009566,136.117699,〒520-3254 滋賀県湖南市岩根中央２丁目１２,Igreja Assembleia de Deus Konan-Shi
https://www.google.com/maps/place/%E5%B8%8C%E6%9C%9B%E3%83%B6%E4%B8%98%E3%82%AD%E3%83%AA%E3%82%B9%E3%83%88%E6%95%99%E4%BC%9A/data=!4m2!3m1!1s0x60015f281ca6fde1:0x74ece1d4048e9761,FALSE,34.9479835,136.1771514,〒520-3332 滋賀県甲賀市甲南町希望ケ丘本町２丁目２５０１−７１,希望ヶ丘キリスト教会
https://www.google.com/maps/place/Igreja+Evang%C3%A9lica+Alian%C3%A7a+Eterna+das+Na%C3%A7%C3%B5es/data=!4m2!3m1!1s0x6003e203b3b5232f:0xa99c62ead5587dc5,FALSE,34.8994615,136.2157886,〒520-3433 滋賀県甲賀市甲賀町大原市場１−２１,Igreja Evangélica Aliança Eterna das Nações
https://www.google.com/maps/place/%E5%BD%A6%E6%A0%B9%E3%82%AD%E3%83%AA%E3%82%B9%E3%83%88%E6%95%99%E4%BC%9A/data=!4m2!3m1!1s0x6003d4f936c7c3cb:0x8defaa4d212d98dc,FALSE,35.2431396,136.2525422,〒522-0201 滋賀県彦根市高宮町１３３４,彦根キリスト教会
https://www.google.com/maps/place/%E3%82%A2%E3%83%90%E3%82%A4%E3%82%A8%E3%82%B9%E3%82%AD%E3%83%AA%E3%82%B9%E3%83%88%E6%95%99%E4%BC%9A/data=!4m2!3m1!1s0x60017b9e88e3f75d:0xc7626891417e0026,FALSE,35.1102391,136.1176244,〒523-0015 滋賀県近江八幡市上田町１８１−４,アバイエスキリスト教会
https://www.google.com/maps/place/Igreja+Evang%C3%A9lica+Alian%C3%A7a+Eterna+das+Na%C3%A7%C3%B5es/data=!4m2!3m1!1s0x60017d51572822e5:0x63337061d283e3f1,FALSE,35.1158371,136.2039416,〒527-0004 滋賀県東近江市建部堺町２７０−６,Igreja Evangélica Aliança Eterna das Nações
https://www.google.com/maps/place/%E6%97%A5%E6%9C%AC%E3%82%AD%E3%83%AA%E3%82%B9%E3%83%88%E6%95%99%E5%9B%A3%E5%85%AB%E6%97%A5%E5%B8%82%E6%95%99%E4%BC%9A/data=!4m2!3m1!1s0x60017d4dfcd6f6cb:0xb964bac7e30ff871,FALSE,35.1132531,136.1991028,〒527-0029 滋賀県東近江市八日市町３−２３,日本キリスト教団八日市教会
https://www.google.com/maps/place/%E3%82%B7%E3%82%AA%E3%83%B3%E3%82%AD%E3%83%AA%E3%82%B9%E3%83%88%E6%95%99%E4%BC%9A/data=!4m2!3m1!1s0x600162b030f263ef:0xffc3daf36a52eb72,FALSE,35.1015267,136.198561,〒527-0038 滋賀県東近江市聖徳町４−１０,シオンキリスト教会
https://www.google.com/maps/place/%E3%82%AA%E3%83%96%E3%83%AC%E3%82%A4%E3%83%AD%E3%82%B9+%E3%82%A4%E3%82%A8%E3%82%B9+%E3%82%AD%E3%83%AA%E3%82%B9%E3%83%88%E6%95%99%E4%BC%9A/data=!4m2!3m1!1s0x600160f9636c4bc5:0x2098179fbaff8820,FALSE,34.9810633,136.1664764,〒528-0035 滋賀県甲賀市水口町名坂１１２９−２３,オブレイロス イエス キリスト教会
https://www.google.com/maps/place/%E6%9C%A8%E4%B9%8B%E6%9C%AC%E3%82%AD%E3%83%AA%E3%82%B9%E3%83%88%E6%95%99%E4%BC%9A/data=!4m2!3m1!1s0x60022092606c6a3b:0xf5081f9f00300bb0,FALSE,35.5021208,136.2276758,〒529-0425 滋賀県長浜市木之本町木之本８４６,木之本キリスト教会
https://www.google.com/maps/place/Congregacao+Crist%C3%A3/data=!4m2!3m1!1s0x6003de02a3915555:0x889a921560a5c9c4,FALSE,35.0015997,136.2771091,〒529-1628 滋賀県蒲生郡日野町西大路２４９２−３３,Congregacao Cristã
https://www.google.com/maps/place/%E8%81%96%E3%83%94%E3%82%AA%E5%8D%81%E4%B8%96%E4%BC%9A+%E8%81%96%E6%AF%8D%E3%81%AE%E6%B1%9A%E3%82%8C%E3%81%AA%E3%81%8D%E5%BE%A1%E5%BF%83%E8%81%96%E5%A0%82/data=!4m2!3m1!1s0x6000e44f6a930185:0x20dba60749bc8025,TRUE,34.7406503,135.4958598,〒532-0002 大阪府大阪市淀川区東三国４丁目１０−２,聖ピオ十世会 聖母の汚れなき御心聖堂
https://www.google.com/maps/place/%E8%81%96%E3%82%AC%E3%83%96%E3%83%AA%E3%82%A8%E3%83%AB%E6%95%99%E4%BC%9A/data=!4m2!3m1!1s0x6000de33ec0df1f5:0x591a7e4ec1c6e1c2,FALSE,34.6626501,135.559168,〒544-0003 大阪府大阪市生野区小路東１丁目１７−２８,聖ガブリエル教会
https://www.google.com/maps/place/%E5%A4%A7%E9%98%AA%E3%82%AD%E3%83%AA%E3%82%B9%E3%83%88%E6%95%99%E4%BC%9A/data=!4m2!3m1!1s0x6000e7ba502d9079:0x73f5770e51b48970,FALSE,34.6969555,135.472947,〒553-0001 大阪府大阪市福島区海老江２丁目６−５,大阪キリスト教会
https://www.google.com/maps/place/%E4%BD%8F%E5%90%89%E6%95%99%E4%BC%9A/data=!4m2!3m1!1s0x6000dc5466b2221f:0xf24a08c1eaad25f8,FALSE,34.6058905,135.4912239,〒558-0033 大阪府大阪市住吉区清水丘１丁目３３−９,住吉教会
https://www.google.com/maps/place/%E6%B1%A0%E7%94%B0%E3%82%AD%E3%83%AA%E3%82%B9%E3%83%88%E6%95%99%E4%BC%9A/@34.8180345135.42577115z/data=!4m12!1m6!3m5!1s0x0:0x315146eee512eb85!2z44Kr44OI44Oq44OD44Kv5rGg55Sw5pWZ5Lya!8m2!3d34.8180345!4d135.425771!3m4!1s0x0:0xd5b385baf721aeb9!8m2!3d34.8151884!4d135.4264605,FALSE,34.8151884,135.4264619,〒563-0043 大阪府池田市神田１丁目７−１,池田キリスト教会
https://www.google.com/maps/place/%E6%97%A5%E6%9C%AC%E3%82%AD%E3%83%AA%E3%82%B9%E3%83%88%E6%95%99%E4%BC%9A%E6%B1%A0%E7%94%B0/@34.820983135.42517515z/data=!4m2!3m1!1s0x0:0xe39b44b093f8d625?sa=X&ved=2ahUKEwjkvYTPjvPtAhVBFogKHYRaBrwQ_BIwCnoECBcQBQ,FALSE,34.8209788,135.4251905,〒563-0048 大阪府池田市呉服町２−６,日本キリスト教会池田
https://www.google.com/maps/place/%E3%83%8B%E3%83%A5%E3%83%BC%E3%83%A9%E3%82%A4%E3%83%95%E3%82%AD%E3%83%AA%E3%82%B9%E3%83%88%E6%95%99%E4%BC%9A/data=!4m2!3m1!1s0x6000d5d286e40cf7:0x27947323a2b43d68,FALSE,34.429326,135.5575851,〒586-0077 大阪府河内長野市南花台２丁目３−１５,ニューライフキリスト教会
https://www.google.com/maps/place/Bethany+Christian+Church/data=!4m2!3m1!1s0x6000d1028a56cc8d:0xd41eedf6be40417c,FALSE,34.4665816,135.4946497,〒590-0136 大阪府堺市南区美木多上２１１１−１,Bethany Christian Church
https://www.google.com/maps/place/%EF%BC%AA%EF%BC%B4%EF%BC%AA%E6%B3%89%E5%8D%97%E3%83%90%E3%82%A4%E3%83%96%E3%83%AB%E3%82%BB%E3%83%B3%E3%82%BF%E3%83%BC/data=!4m2!3m1!1s0x6000b70bc693ffff:0x9ebcc6d6414f2da8,FALSE,34.3733243,135.2586514,〒590-0521 大阪府泉南市樽井４丁目３８−７,ＪＴＪ泉南バイブルセンター
https://www.google.com/maps/place/%E3%81%8F%E3%81%99%E3%81%AE%E3%81%8D%E3%82%AD%E3%83%AA%E3%82%B9%E3%83%88%E6%95%99%E4%BC%9A/data=!4m2!3m1!1s0x6000dcaf7db42b53:0x2799c77c6fda8489,FALSE,34.5643621,135.4590905,〒590-0836 大阪府堺市堺区楠町３丁４−３,くすのきキリスト教会
https://www.google.com/maps/place/%E3%83%9B%E3%82%B5%E3%83%8A%E3%83%BB%E3%82%AD%E3%83%AA%E3%82%B9%E3%83%88%E6%95%99%E4%BC%9A/data=!4m2!3m1!1s0x6000db542f299f6f:0x577a8e3c619555e,FALSE,34.5627626,135.4952728,〒591-8031 大阪府堺市北区百舌鳥梅北町１丁５５−４,ホサナ・キリスト教会
https://www.google.com/maps/place/Sakai+Ikubaku+Christian+Church/data=!4m2!3m1!1s0x6000db30c79c8dc3:0xcae5b3f751f26716,FALSE,34.5346288,135.4579939,〒593-8327 大阪府堺市西区鳳中町２丁３４−４,Sakai Ikubaku Christian Church
https://www.google.com/maps/place/%E3%81%BF%E3%81%9F%E3%81%BE%E3%82%AD%E3%83%AA%E3%82%B9%E3%83%88%E6%95%99%E4%BC%9A/data=!4m2!3m1!1s0x60010e146a77e7e9:0x49c251182e77987a,FALSE,34.9482196,135.8125524,〒601-1361 京都府京都市伏見区醍醐御霊ケ下町３８−１１,みたまキリスト教会
https://www.google.com/maps/place/Kyoto+Int'l+Church+Parsonage%EF%BC%88%E7%89%A7%E5%B8%AB%E9%A4%A8%EF%BC%89/@34.9128714135.685147812z/data=!4m8!1m2!2m1!1sKyoto+international+church!3m4!1s0x6001064ac1743c0d:0x7a9f52292bb490c5!8m2!3d35.0064066!4d135.7287919,FALSE,35.0184381,135.7677786,〒602-0867 京都市上京区寺町通丸太町上ル松蔭町140-4,京都インターナショナルチャーチ
https://www.google.com/maps/place/%E3%82%AB%E3%83%88%E3%83%AA%E3%83%83%E3%82%AF%E5%B0%8F%E5%B1%B1%E6%95%99%E4%BC%9A/data=!4m2!3m1!1s0x600108004b301cc3:0xddc264510faedc01,TRUE,35.047979,135.7543806,〒603-8171 京都府京都市北区小山上初音町１２−１,カトリック小山教会
https://www.google.com/maps/place/MUSTARD+SEED+%E3%82%AF%E3%83%AA%E3%82%B9%E3%83%81%E3%83%A3%E3%83%B3%E6%95%99%E4%BC%9A+%E4%BA%AC%E9%83%BD/data=!4m2!3m1!1s0x6001088fca576481:0x790d8e4dbad5ca45,FALSE,35.0039396,135.7669581,〒604-8042 京都府京都市中京区中之町寺町通四条上る５５９,MUSTARD SEED クリスチャン教会 京都
https://www.google.com/maps/place/%E3%82%AF%E3%83%AA%E3%82%B9%E3%83%81%E3%83%A3%E3%83%B3%E3%83%BB%E3%83%95%E3%82%A7%E3%83%AD%E3%82%B7%E3%83%83%E3%83%97%E3%82%BB%E3%83%B3%E3%82%BF%E3%83%BC/data=!4m2!3m1!1s0x600109b2d9c14ff7:0x81142d1c8605486,FALSE,35.0411146,135.7906922,〒606-8161 京都府京都市左京区一乗寺木ノ本町２０,クリスチャン・フェロシップセンター
https://www.google.com/maps/place/%E5%9C%A8%E6%97%A5%E5%A4%A7%E9%9F%93%E5%9F%BA%E7%9D%A3%E6%95%99%E4%BC%9A+%E4%BA%AC%E9%83%BD%E6%9D%B1%E5%B1%B1%E6%95%99%E4%BC%9A/data=!4m2!3m1!1s0x6001084495df5b63:0xdae00d5d468ff9bd,FALSE,35.0341562,135.7767687,〒606-8216 京都府京都市左京区田中南西浦町９０−３,在日大韓基督教会 京都東山教会
https://www.google.com/maps/place/%E4%BA%AC%E9%83%BD%E3%82%A4%E3%83%B3%E3%82%BF%E3%83%BC%E3%83%8A%E3%82%B7%E3%83%A7%E3%83%8A%E3%83%AB%E3%83%81%E3%83%A3%E3%83%9A%E3%83%AB/@34.8190949135.783683915z/data=!4m12!1m6!3m5!1s0x0:0x318b3e5817549904!2z5Lqs6YO944Kk44Oz44K_44O844OK44K344On44OK44Or44OB44Oj44Oa44Or!8m2!3d34.8190949!4d135.7836839!3m4!1s0x0:0x318b3e5817549904!8m2!3d34.8190949!4d135.7836839,FALSE,34.8189971,135.7839824,〒610-0311 京都府京田辺市草内一ノ坪１−１,京都インターナショナルチャペル
https://www.google.com/maps/place/%E6%9D%B1%E6%96%B9%E5%85%B8%E7%A4%BC%E3%82%AB%E3%83%88%E3%83%AA%E3%83%83%E3%82%AF%E6%95%99%E4%BC%9A/data=!4m2!3m1!1s0x600110f03d85bb81:0x1451daccfe0d59c7,TRUE,34.8746257,135.7793324,〒611-0031 京都府宇治市広野町西裏７７,東方典礼カトリック教会
https://www.google.com/maps/place/Jesus+Life+Church/data=!4m2!3m1!1s0x60010f40543e1243:0xbe9d8594dd24a60b,FALSE,34.9549125,135.7731608,〒612-0876 京都府京都市伏見区伏見区 深草西伊達町87番地70,Jesus Life Church
https://www.google.com/maps/place/%E3%82%AB%E3%83%88%E3%83%AA%E3%83%83%E3%82%AF%E5%85%AB%E5%B9%A1%E6%95%99%E4%BC%9A/data=!4m2!3m1!1s0x600104cd285ca4e1:0x6bd926a86015347c,TRUE,34.8841685,135.702285,〒614-8002 京都府八幡市八幡５４,カトリック八幡教会
https://www.google.com/maps/place/%E4%BA%AC%E9%83%BD%E3%83%8B%E3%83%A5%E3%83%BC%E3%83%A9%E3%82%A4%E3%83%95+%E3%82%AD%E3%83%AA%E3%82%B9%E3%83%88%E6%95%99%E4%BC%9A/data=!4m2!3m1!1s0x60011affd8ae3b05:0x7ff271f5842cb007,FALSE,34.854458,135.714238,〒614-8272 京都府八幡市美濃山１−１２,京都ニューライフ キリスト教会
https://www.google.com/maps/place/%E3%82%AB%E3%83%88%E3%83%AA%E3%83%83%E3%82%AF%E5%B3%B0%E5%B1%B1%E7%A4%BC%E6%8B%9D%E5%A0%82/data=!4m2!3m1!1s0x5fffbc5ebb334059:0xa1c4bf381db6a475,TRUE,35.6234334,135.0558886,〒627-0037 京都府京丹後市峰山町千歳６６１,カトリック峰山礼拝堂
https://www.google.com/maps/place/%E3%82%AB%E3%83%88%E3%83%AA%E3%83%83%E3%82%AF%E4%B8%B9%E5%BE%8C%E6%95%99%E4%BC%9A%E5%8A%A0%E6%82%A6%E8%81%96%E5%A0%82/data=!4m2!3m1!1s0x5fff934c8954ada5:0x4dd8eb285f89baf7,TRUE,35.5064122,135.0903068,〒629-2403 京都府与謝郡与謝野町加悦８１０−４,カトリック丹後教会加悦聖堂
https://www.google.com/maps/place/%E3%83%9B%E3%83%BC%E3%83%97%E3%83%81%E3%83%A3%E3%83%9A%E3%83%AB/data=!4m2!3m1!1s0x6001235d347282dd:0xa1e4e9676c10bdf3,FALSE,34.6960401,135.7322791,〒631-0077 奈良県奈良市富雄川西２−２−２０,ホープチャペル
https://www.google.com/maps/place/%E3%82%B0%E3%83%AC%E3%83%BC%E3%82%B9%E3%83%BB%E3%82%AD%E3%83%AA%E3%82%B9%E3%83%88%E6%95%99%E4%BC%9A/data=!4m2!3m1!1s0x60014ba69885b3c1:0x4e8f7669587c2e92,FALSE,34.6097564,135.9550986,〒632-0251 奈良県奈良市針町２４５５−２,グレース・キリスト教会
https://www.google.com/maps/place/%E6%B4%BB%E3%81%91%E3%82%8B%E3%82%AD%E3%83%AA%E3%82%B9%E3%83%88%E9%AB%98%E7%94%B0%E4%B8%80%E9%BA%A6%E6%95%99%E4%BC%9A/data=!4m2!3m1!1s0x60012d82c3095199:0x562f94eae76bac77,FALSE,34.5113511,135.7436812,〒635-0083 奈良県大和高田市永和町９−３３,活けるキリスト高田一麦教会
https://www.google.com/maps/place/%E5%A4%A7%E5%92%8C%E9%83%A1%E5%B1%B1%E8%81%96%E6%9B%B8%E3%82%AD%E3%83%AA%E3%82%B9%E3%83%88%E6%95%99%E4%BC%9A/@34.6301273135.756670117z/data=!3m1!4b1!4m5!3m4!1s0x60013b505ce90f2d:0xe8fa3ee0343741b6!8m2!3d34.6301229!4d135.7588588,FALSE,34.6301229,135.7588588,〒639-1042 奈良県大和郡山市小泉町９１８,大和郡山聖書キリスト教会
https://www.google.com/maps/place/%E8%B2%B4%E5%BF%97%E5%B7%9D%E5%9F%BA%E7%9D%A3%E6%95%99%E4%BC%9A/data=!4m2!3m1!1s0x6007358760668c31:0x9f44030d804c069d,FALSE,34.2157097,135.3094701,〒640-0412 和歌山県紀の川市貴志川町上野山３０２−１,貴志川基督教会
https://www.google.com/maps/place/%E8%81%96%E3%82%A4%E3%82%A8%E3%82%B9%E4%BC%9A%E8%81%96%E5%BE%92%E6%95%99%E4%BC%9A/data=!4m2!3m1!1s0x6000b39e33f2ae07:0xadf5063b78079da7,FALSE,34.2651775,135.2082022,〒640-8482 和歌山県和歌山市六十谷５４５−１,聖イエス会聖徒教会
https://www.google.com/maps/place/%E6%97%A5%E6%9C%AC%E3%82%A4%E3%82%A8%E3%82%B9%E3%82%AD%E3%83%AA%E3%82%B9%E3%83%88%E6%95%99%E5%9B%A3%E7%94%B1%E8%89%AF%E6%95%99%E4%BC%9A/data=!4m2!3m1!1s0x60075c8de5e4ad99:0xd8eb46b1c09a3ca7,FALSE,33.9604485,135.1205299,〒649-1111 和歌山県日高郡由良町里２００,日本イエスキリスト教団由良教会
https://www.google.com/maps/place/%E7%94%B0%E4%B8%A6%E3%82%AD%E3%83%AA%E3%82%B9%E3%83%88%E6%95%99%E4%BC%9A/data=!4m2!3m1!1s0x6006305366a81f41:0x9c24ac72c6410a8f,FALSE,33.4869576,135.7156456,〒649-3515 和歌山県東牟婁郡串本町田並１０３７,田並キリスト教会
https://www.google.com/maps/place/%E5%B1%B1%E6%89%8B%E6%95%99%E4%BC%9A/data=!4m2!3m1!1s0x60008f054b8ab11d:0x39d29a2fcfb38fa0,FALSE,34.6856279,135.1784395,〒650-0011 兵庫県神戸市中央区下山手通８−５−１５,山手教会
https://www.google.com/maps/place/%E6%97%A5%E6%9C%AC%E3%82%A4%E3%82%A8%E3%82%B9%E3%83%BB%E3%82%AD%E3%83%AA%E3%82%B9%E3%83%88%E6%95%99%E5%9B%A3%E9%AB%98%E5%92%8C%E6%95%99%E4%BC%9A/data=!4m2!3m1!1s0x60007f99026f5879:0x3c18fd6ac9c46d74,FALSE,34.736764,135.016206,〒651-2204 兵庫県神戸市西区押部谷町８５−２,日本イエス・キリスト教団高和教会
https://www.google.com/maps/place/%E7%A5%9E%E6%88%B8%E6%95%99%E4%BC%9A/data=!4m2!3m1!1s0x60008f8352549b8f:0xf97884723ee49d83,FALSE,34.6631794,135.1586594,〒653-0021 兵庫県神戸市長田区梅ケ香町１丁目２,神戸教会
https://www.google.com/maps/place/%E7%A5%9E%E6%88%B8%E3%82%AD%E3%83%AA%E3%82%B9%E3%83%88%E6%95%99%E4%BC%9A/data=!4m2!3m1!1s0x60008f814cbf2333:0x1602f147f9313e04,FALSE,34.6609309,135.1533059,〒653-0025 兵庫県神戸市長田区真野町７−４,神戸キリスト教会
https://www.google.com/maps/place/%E6%96%B0%E7%A5%9E%E6%88%B8%E6%95%99%E4%BC%9A/data=!4m2!3m1!1s0x600085635acc6805:0x803c4a4769283cd4,FALSE,34.65212,135.145367,〒653-0041 兵庫県神戸市長田区久保町７丁目４−５,新神戸教会
https://www.google.com/maps/place/%E8%81%96%E3%83%A8%E3%83%8F%E3%83%8D%E7%97%85%E9%99%A2+%E4%BF%AE%E9%81%93%E4%BC%9A/data=!4m2!3m1!1s0x600085a6096e6a83:0x552cefc5b869db43,TRUE,34.6550531,135.1222103,〒654-0015 兵庫県神戸市須磨区奥山畑町２,聖ヨハネ病院 修道会
https://www.google.com/maps/place/%E3%82%A2%E3%82%AC%E3%83%9A%E8%81%96%E6%9B%B8%E6%95%99%E4%BC%9A/data=!4m2!3m1!1s0x60008681c6b4e683:0x7e774c0bc29745bb,FALSE,34.6807358,135.1089425,〒654-0121 兵庫県神戸市須磨区妙法寺トン松４−２０,アガペ聖書教会
https://www.google.com/maps/place/%E8%A5%BF%E9%A0%88%E7%A3%A8%E3%83%AB%E3%83%BC%E3%83%86%E3%83%AB%E6%95%99%E4%BC%9A/data=!4m2!3m1!1s0x600084690602b3f9:0x26532b82d3206af9,FALSE,34.6479311,135.0907764,〒655-0863 兵庫県神戸市垂水区塩屋北町４丁目１−５,西須磨ルーテル教会
https://www.google.com/maps/place/Kobe+International+Baptist+Church/data=!4m2!3m1!1s0x6000f2a28616ff59:0xc78be8ebb59d2228,FALSE,34.7135271,135.3141928,〒659-0034 兵庫県芦屋市陽光町３−１,Kobe International Baptist Church
https://www.google.com/maps/place/%E5%BE%A9%E6%B4%BB%E3%82%A4%E3%82%A8%E3%82%B9%E3%82%AD%E3%83%AA%E3%82%B9%E3%83%88%E6%95%99%E4%BC%9A/data=!4m2!3m1!1s0x6000ef9e938bf74d:0x35761067e3f1dc6a,FALSE,34.7277078,135.4347096,〒660-0802 兵庫県尼崎市長洲中通１丁目１２−38,復活イエスキリスト教会
https://www.google.com/maps/place/%E6%97%A5%E6%9C%AC%E3%82%AD%E3%83%AA%E3%82%B9%E3%83%88%E6%95%99%E5%9B%A3%E8%B1%8A%E5%B2%A1%E6%95%99%E4%BC%9A/data=!4m2!3m1!1s0x5fffc412f0044ed3:0xaa28c2c82e7eac25,FALSE,35.5442085,134.821666,〒668-0033 兵庫県豊岡市中央町４−３,日本キリスト教団豊岡教会
https://www.google.com/maps/place/%E6%97%A5%E6%9C%AC%E3%82%A2%E3%83%83%E3%82%BB%E3%83%B3%E3%83%96%E3%83%AA%E3%83%BC%E3%82%BA%E3%83%BB%E3%82%AA%E3%83%96%E3%83%BB%E3%82%B4%E3%83%83%E3%83%89%E6%95%99%E5%9B%A3%E4%BD%86%E9%A6%AC%E7%A5%9E%E6%84%9B%E3%82%AD%E3%83%AA%E3%82%B9%E3%83%88%E6%95%99%E4%BC%9A/data=!4m2!3m1!1s0x5fffdda98e7d1d8d:0x67d9e70484b5c52e,FALSE,35.4715121,134.7891695,〒669-5313 兵庫県豊岡市日高町鶴岡,日本アッセンブリーズ・オブ・ゴッド教団但馬神愛キリスト教会
https://www.google.com/maps/place/%E6%97%A5%E6%9C%AC%E3%82%AD%E3%83%AA%E3%82%B9%E3%83%88%E6%95%99%E5%9B%A3%E5%9F%8E%E5%B4%8E%E6%95%99%E4%BC%9A/data=!4m2!3m1!1s0x5fffc83ba614eff9:0xd43e1c2ad0e88a1e,FALSE,35.6243621,134.8123875,〒669-6101 兵庫県豊岡市城崎町湯島３００,日本キリスト教団城崎教会
https://www.google.com/maps/place/%E6%98%8E%E7%9F%B3%E3%82%AD%E3%83%AA%E3%82%B9%E3%83%88%E3%81%AE%E6%95%99%E4%BC%9A/data=!4m2!3m1!1s0x3554d47a09e651ad:0xdb40df0c2bdf6aee,FALSE,34.6561986,134.9534575,〒673-0044 兵庫県明石市藤江２０７,明石キリストの教会
https://www.google.com/maps/place/%E6%B3%89%E3%82%AD%E3%83%AA%E3%82%B9%E3%83%88%E6%95%99%E4%BC%9A/data=!4m2!3m1!1s0x3554d4441d3f2039:0x858899d12b74360e,FALSE,34.6758952,134.9487723,〒674-0067 兵庫県明石市大久保町７４７−２,泉キリスト教会
https://www.google.com/maps/place/%E6%97%A5%E6%9C%AC%E3%82%AD%E3%83%AA%E3%82%B9%E3%83%88%E6%95%99%E5%9B%A3%E3%83%99%E3%83%86%E3%83%AB%E6%B8%85%E6%B0%B4%E6%95%99%E4%BC%9A/data=!4m2!3m1!1s0x3554d7875670c9bf:0x8bd070c17585c0a5,FALSE,34.7213256,134.8988249,〒674-0074 兵庫県明石市魚住町清水２４２７−２,日本キリスト教団ベテル清水教会
https://www.google.com/maps/place/%E3%80%92675-0054+%E5%85%B5%E5%BA%AB%E7%9C%8C%E5%8A%A0%E5%8F%A4%E5%B7%9D%E5%B8%82%E7%B1%B3%E7%94%B0%E7%94%BA%E5%B9%B3%E6%B4%A5%EF%BC%94%EF%BC%97%EF%BC%97%E2%88%92%EF%BC%91%EF%BC%91/data=!4m2!3m1!1s0x3554d88730e147a7:0xda02e8fe955e710b,FALSE,34.7831186,134.8115725,〒675-0054 兵庫県加古川市米田町平津４７７−１１,高砂国際キリスト教会
https://www.google.com/maps/place/%E3%81%BF%E3%81%8E%E3%82%8F%E6%95%99%E4%BC%9A/data=!4m2!3m1!1s0x35553449ba9ff52b:0x28bd43c3a65ca47e,FALSE,34.9667652,134.9457271,〒677-0064 兵庫県西脇市八坂町２１３−２０,みぎわ教会
https://www.google.com/maps/place/%E6%97%A5%E6%9C%AC%E3%82%AD%E3%83%AA%E3%82%B9%E3%83%88%E6%95%99%E5%9B%A3%E7%B1%B3%E5%AD%90%E6%95%99%E4%BC%9A/data=!4m2!3m1!1s0x3556f7e9525d7c49:0x894cce4e2232c40f,FALSE,35.4437658,133.3441567,〒683-0802 鳥取県米子市東福原５丁目５−５,日本キリスト教団米子教会
https://www.google.com/maps/place/%E7%BE%8E%E4%BF%9D%E3%82%AD%E3%83%AA%E3%82%B9%E3%83%88%E6%95%99%E4%BC%9A/data=!4m2!3m1!1s0x355655fe803d7ed3:0xbec97da5dc8a5109,FALSE,35.503162,133.249644,〒684-0054 鳥取県境港市財ノ木町６５６−３１,美保キリスト教会
https://www.google.com/maps/place/Igreja+Dunamis+Izumo/data=!4m2!3m1!1s0x355744885d490599:0x9b75997de64cf1a0,FALSE,35.3524651,132.7447923,〒693-0005 島根県出雲市天神町８６８,Igreja Dunamis Izumo
https://www.google.com/maps/place/%E6%B5%9C%E7%94%B0%E3%82%AD%E3%83%AA%E3%82%B9%E3%83%88%E6%95%99%E4%BC%9A/data=!4m2!3m1!1s0x355a59db773ca391:0x2e0d6d3224cfca8,FALSE,34.8989337,132.0858407,〒697-0033 島根県浜田市朝日町４２−１,浜田キリスト教会
https://www.google.com/maps/place/%E5%8A%A0%E8%8C%82%E3%82%AD%E3%83%AA%E3%82%B9%E3%83%88%E6%95%99%E4%BC%9A/data=!4m2!3m1!1s0x35573e3611b535ad:0xd514223cce7ae906,FALSE,35.3456344,132.9083305,〒699-1106 島根県雲南市加茂町加茂中１０１９−４,加茂キリスト教会
https://www.google.com/maps/place/%E6%97%A5%E6%9C%AC%E5%9F%BA%E7%9D%A3%E6%95%99%E5%9B%A3%E5%85%89%E6%98%8E%E5%9C%92%E5%AE%B6%E6%97%8F%E6%95%99%E4%BC%9A/data=!4m2!3m1!1s0x35546fa186ace53b:0x20c6e05c8aecfc45,FALSE,34.6710117,134.2243604,〒701-4501 岡山県瀬戸内市邑久町虫明６２５３,日本基督教団光明園家族教会
https://www.google.com/maps/place/%E5%92%8C%E6%B0%97%E6%95%99%E4%BC%9A/data=!4m2!3m1!1s0x35546a0c5632134f:0x899716ceb39c8f8a,FALSE,34.7993526,134.1554335,〒709-0441 岡山県和気郡和気町衣笠９６８−５,和気教会
https://www.google.com/maps/place/%E6%B0%B4%E5%B3%B6%E8%81%96%E7%B4%84%E3%82%AD%E3%83%AA%E3%82%B9%E3%83%88%E6%95%99%E4%BC%9A/data=!4m2!3m1!1s0x355159b054cb13f1:0xfe1a07018e195fc6,FALSE,34.5363044,133.7453951,〒712-8032 岡山県倉敷市北畝１丁目１２−３０,水島聖約キリスト教会
https://www.google.com/maps/place/%E7%A6%8F%E5%B1%B1%E3%83%AB%E3%83%BC%E3%83%86%E3%83%AB%E6%95%99%E4%BC%9A/data=!4m2!3m1!1s0x35511101129f331b:0xaa47a834a7438e42,FALSE,34.4786181,133.3713015,〒720-0805 広島県福山市御門町３丁目２−４,福山ルーテル教会
https://www.google.com/maps/place/%E4%B8%AD%E5%9B%BD%E3%82%A4%E3%82%A8%E3%82%B9%E4%B9%8B%E5%BE%A1%E9%9C%8A%E6%95%99%E4%BC%9A/data=!4m2!3m1!1s0x355110643cd988e7:0x884733d327c7adc1,FALSE,34.481816,133.3432758,〒720-0835 広島県福山市佐波町８９９,中国イエス之御霊教会
https://www.google.com/maps/place/%E8%81%96%E3%82%A4%E3%82%A8%E3%82%B9%E4%BC%9A%E6%81%B5%E6%B3%89%E6%95%99%E4%BC%9A/data=!4m2!3m1!1s0x35511452585c7fa9:0xeec00125b063266f,FALSE,34.5159548,133.4372736,〒721-0913 広島県福山市幕山台８丁目３−１８,聖イエス会恵泉教会
https://www.google.com/maps/place/%E5%90%91%E5%B3%B6%E3%82%AD%E3%83%AA%E3%82%B9%E3%83%88%E6%95%99%E4%BC%9A/data=!4m2!3m1!1s0x35510047ea5c7f1d:0xe099f3a271f75c1b,FALSE,34.3981493,133.1952207,〒722-0073 広島県尾道市向島町１６０５８−２２,向島キリスト教会
https://www.google.com/maps/place/%E7%AB%B9%E5%8E%9F%E3%82%AD%E3%83%AA%E3%82%B9%E3%83%88%E6%95%99%E4%BC%9A/data=!4m2!3m1!1s0x3550432fed13a8a1:0xac4a7f9f1685e291,FALSE,34.3421094,132.9114115,〒725-0026 広島県竹原市中央２丁目１７−１１,竹原キリスト教会
https://www.google.com/maps/place/%E6%97%A5%E6%9C%AC%E3%82%A2%E3%83%A9%E3%82%A4%E3%82%A2%E3%83%B3%E3%82%B9%E6%95%99%E5%9B%A3%E5%BA%9C%E4%B8%AD%E3%82%AD%E3%83%AA%E3%82%B9%E3%83%88%E6%95%99%E4%BC%9A/data=!4m2!3m1!1s0x35511ea3d8cbfb0b:0x2e6a5f1559882ce8,FALSE,34.57538,133.2359969,〒726-0003 広島県府中市元町５４１,日本アライアンス教団府中キリスト教会
https://www.google.com/maps/place/Miyoshi+bible+church/data=!4m2!3m1!1s0x3550c034833a8bdb:0x2c77194dccc110a,FALSE,34.8034669,132.9009512,〒728-0016 広島県三次市四拾貫町909,Miyoshi bible church
https://www.google.com/maps/place/%E3%82%B7%E3%83%86%E3%82%A3%E3%83%90%E3%82%A4%E3%83%96%E3%83%AB%E3%83%81%E3%83%A3%E3%83%BC%E3%83%81%EF%BC%88%E5%AE%97%E6%95%99%E6%B3%95%E4%BA%BA%EF%BC%89/data=!4m2!3m1!1s0x3550c0349cb296b7:0xfcb36f3186674735,FALSE,34.8034959,132.9009125,〒728-0016 広島県三次市四拾貫町９０９−５,三次シティバイブルチャーチ（キリスト教会）
https://www.google.com/maps/place/%E6%97%A5%E6%9C%AC%E3%83%90%E3%83%97%E3%83%86%E3%82%B9%E3%83%88%E5%BA%83%E5%B3%B6%E3%82%AD%E3%83%AA%E3%82%B9%E3%83%88%E6%95%99%E4%BC%9A/@34.3886686132.443963220.39z/data=!4m13!1m7!3m6!1s0x355aa26814e9b39d:0x7c29d4b02c3755db!2z44CSNzMwLTA4NDEg5bqD5bO255yM5bqD5bO25biC5Lit5Yy66Iif5YWl55S677yR77yS4oiS77yX!3b1!8m2!3d34.3887894!4d132.4442423!3m4!1s0x355aa2686aa1c133:0x48237e5260c3e18a!8m2!3d34.388642!4d132.443948,FALSE,34.3887894,132.4442423,〒730-0841 広島県広島市中区舟入町１２−７,日本バプテスト広島キリスト教会
https://www.google.com/maps/place/%E5%BA%83%E5%B3%B6%E3%82%AD%E3%83%AA%E3%82%B9%E3%83%88%E6%95%99%E4%BC%9A/data=!4m2!3m1!1s0x355a9eaace54f0c5:0x74d9abcba9a610f4,FALSE,34.4648519,132.4729373,〒731-0103 広島県広島市安佐南区緑井２丁目２１−２１,広島キリスト教会
https://www.google.com/maps/place/%E5%BA%83%E5%B3%B6%E5%8F%AF%E9%83%A8%E3%82%AD%E3%83%AA%E3%82%B9%E3%83%88%E6%95%99%E4%BC%9A/data=!4m2!3m1!1s0x355a9cd0b9cb2737:0xc2d05d32765950ef,FALSE,34.5168826,132.5061463,〒731-0221 広島県広島市安佐北区可部４丁目１９−６,広島可部キリスト教会
https://www.google.com/maps/place/%E5%BA%83%E5%B3%B6+%E5%B9%B3%E5%92%8C%E6%95%99%E4%BC%9A/data=!4m2!3m1!1s0x355aa1e3a0da1429:0x54573a6d76bef218,FALSE,34.3852897,132.4848179,〒734-0021 広島県広島市南区上東雲町９−１０,広島 平和教会
https://www.google.com/maps/place/Faith+Baptist+Church/data=!4m2!3m1!1s0x354535eb4a985555:0x19f7834b92ea23df,FALSE,34.1535322,132.2201981,〒740-0027 山口県岩国市中津町３丁目５−３,Faith Baptist Church
https://www.google.com/maps/place/Iglesia+Ni+Cristo+%2F+Church+of+Christ/data=!4m2!3m1!1s0x354537ddb073a2c1:0x6c1aecef26edd4a6,FALSE,34.1198327,132.1974367,〒740-0034 山口県岩国市南岩国町５丁目５７−１０,Iglesia Ni Cristo / Church of Christ
https://www.google.com/maps/place/%E3%82%84%E3%81%AA%E3%81%84%E3%82%B0%E3%83%AC%E3%83%BC%E3%82%B9%E3%83%81%E3%83%A3%E3%83%9A%E3%83%AB/data=!4m2!3m1!1s0x354517fad5360423:0xcf8f7f206bbb2045,FALSE,33.96264,132.1012276,〒742-0031 山口県柳井市南町６丁目１−３,やないグレースチャペル
https://www.google.com/maps/place/%E3%83%AB%E3%83%BC%E3%83%86%E3%83%AB%E6%9F%B3%E4%BA%95%E6%95%99%E4%BC%9A/data=!4m2!3m1!1s0x35453d638621c2cd:0x3317bdddc8adb30,FALSE,33.9681117,132.1047815,〒742-0035 山口県柳井市中央３丁目１４−１５,日本福音ルーテルシオン教会柳井チャペル
https://www.google.com/maps/place/%E6%97%A5%E6%9C%AC%E3%82%AD%E3%83%AA%E3%82%B9%E3%83%88%E6%95%99%E5%9B%A3%E5%85%89%E6%95%99%E4%BC%9A/data=!4m2!3m1!1s0x35451e7447298a27:0x7ba8c07c7a57c61b,FALSE,33.960847,131.9430732,〒743-0013 山口県光市中央４丁目４−８,日本キリスト教団光教会
https://www.google.com/maps/place/%E5%85%89%E3%82%AD%E3%83%AA%E3%82%B9%E3%83%88%E6%95%99%E4%BC%9A/data=!4m2!3m1!1s0x35451f011f9b6cd7:0xd894bfcc5e1479f8,FALSE,33.9900473,131.9619178,〒743-0065 山口県光市上島田３丁目１−２８,光キリスト教会
https://www.google.com/maps/place/%E3%83%8F%E3%83%AC%E3%83%AB%E3%83%A4%E3%83%81%E3%83%A3%E3%83%BC%E3%83%81/data=!4m2!3m1!1s0x3544e01755ec13f9:0xd049fe5824b6bbcf,FALSE,34.0311819,131.9097039,〒744-0042 山口県下松市切山１１−２１,ハレルヤチャーチ
https://www.google.com/maps/place/%E5%BE%B3%E5%B1%B1%E7%A6%8F%E9%9F%B3%E3%82%AD%E3%83%AA%E3%82%B9%E3%83%88%E6%95%99%E4%BC%9A/data=!4m2!3m1!1s0x3544e72c59d451e5:0x59c97436d6584704,FALSE,34.0446919,131.8375463,〒745-0807 山口県周南市城ケ丘１丁目４−１,徳山福音キリスト教会
https://www.google.com/maps/place/%E6%97%A5%E6%9C%AC%E5%9F%BA%E7%9D%A3%E6%95%99%E5%9B%A3+%E9%95%B7%E5%BA%9C%E6%95%99%E4%BC%9A/data=!4m2!3m1!1s0x3543983815be4309:0x73d089dce679c6bb,FALSE,33.9967104,130.9879739,〒752-0976 山口県下関市長府南之町６−２０,日本基督教団 長府教会
https://www.google.com/maps/place/%E3%82%B0%E3%83%AC%E3%82%A4%E3%82%B9%E3%83%81%E3%83%A3%E3%83%9A%E3%83%AB/data=!4m2!3m1!1s0x3544969c49a6cd11:0x9131646710d6e5c5,FALSE,34.1577409,131.5183262,〒753-0211 山口県山口市大内長野６３３−１,グレイスチャペル
https://www.google.com/maps/place/%E3%82%AB%E3%83%88%E3%83%AA%E3%83%83%E3%82%AF%E3%83%BB%E3%82%AD%E3%83%AA%E3%82%B9%E3%83%88%E3%82%A4%E3%82%A8%E3%82%BA%E3%82%B9%E5%AE%A3%E6%95%99%E4%BC%9A/data=!4m2!3m1!1s0x35438231ac9e77fb:0x22b3506042871844,TRUE,34.0163467,131.1882928,〒756-0080 山口県山陽小野田市楴山３丁目５−３,カトリック・キリストイエズス宣教会
https://www.google.com/maps/place/%E5%A4%A7%E5%B7%9D%E3%82%AD%E3%83%AA%E3%82%B9%E3%83%88%E6%95%99%E4%BC%9A/data=!4m2!3m1!1s0x355397242facdeb9:0xa61812faf78b3ebb,FALSE,34.2663704,134.2152212,〒761-0901 香川県さぬき市大川町富田西２９６１−８,大川キリスト教会
https://www.google.com/maps/place/%E8%81%96%E3%82%A4%E3%82%A8%E3%82%B9%E4%BC%9A%E3%83%91%E3%82%A6%E3%83%AD%E6%95%99%E4%BC%9A/data=!4m2!3m1!1s0x35530cc52a94a92d:0x658765e44fef2871,FALSE,34.0644836,134.502959,〒770-0047 徳島県徳島市名東町１丁目２０６−２,聖イエス会パウロ教会
https://www.google.com/maps/place/%E3%82%AB%E3%83%88%E3%83%AA%E3%83%83%E3%82%AF%E9%B3%B4%E9%96%80%E6%95%99%E4%BC%9A/data=!4m2!3m1!1s0x35536596c3845429:0x43e192321935ee87,TRUE,34.1883702,134.6003751,〒772-0001 徳島県鳴門市撫養町黒崎松島２０８,カトリック鳴門教会
https://www.google.com/maps/place/%E5%AF%8C%E5%B2%A1%E3%82%AD%E3%83%AA%E3%82%B9%E3%83%88%E6%95%99%E4%BC%9A/data=!4m2!3m1!1s0x355316897d67179f:0x82fa4e57b2094f64,FALSE,33.9188241,134.6601515,〒774-0030 徳島県阿南市富岡町あ石１−２,富岡キリスト教会
https://www.google.com/maps/place/%E6%97%A5%E6%9C%AC%E5%9F%BA%E7%9D%A3%E6%95%99%E5%9B%A3%E6%B5%B7%E5%8D%97%E4%BC%9D%E9%81%93%E6%89%80/data=!4m2!3m1!1s0x35525f01db3efc35:0x6bbbc0bc55b29c81,FALSE,33.603939,134.3621121,〒775-0203 徳島県海部郡海陽町大里松原３５−７１,日本基督教団海南伝道所
https://www.google.com/maps/place/%E3%82%AB%E3%83%88%E3%83%AA%E3%83%83%E3%82%AF%E6%B1%A0%E7%94%B0%E6%95%99%E4%BC%9A/data=!4m2!3m1!1s0x3552298a64d8ba6f:0x32b80e69148a6d18,TRUE,34.026518,133.8127962,〒778-0004 徳島県三好市池田町シンマチ１４３６−１,カトリック池田教会
https://www.google.com/maps/place/%E6%97%A5%E6%9C%AC%E3%82%AD%E3%83%AA%E3%82%B9%E3%83%88%E6%95%99%E5%9B%A3%E9%A6%99%E7%BE%8E%E6%95%99%E4%BC%9A/data=!4m2!3m1!1s0x354e01eba71b29e1:0xfcbde9c7bd1b9302,FALSE,33.5416533,133.7302217,〒781-5331 高知県香南市香我美町岸本１０−２,日本キリスト教団香美教会
https://www.google.com/maps/place/%E6%97%A5%E6%9C%AC%E3%82%AD%E3%83%AA%E3%82%B9%E3%83%88%E6%95%99%E5%9B%A3%E5%AE%A4%E6%88%B8%E6%95%99%E4%BC%9A/data=!4m2!3m1!1s0x354d8c71d2533a7f:0x63e537895752ddcc,FALSE,33.2919911,134.1460683,〒781-7105 高知県室戸市浮津二番町４３,日本キリスト教団室戸教会
https://www.google.com/maps/place/%E5%AE%97%E6%95%99%E6%B3%95%E4%BA%BA%E6%97%A5%E6%9C%AC%E3%82%A2%E3%83%83%E3%82%BB%E3%83%B3%E3%83%96%E3%83%AA%E3%83%BC%E3%82%BA%E3%83%BB%E3%82%AA%E3%83%96%E3%83%BB%E3%82%B4%E3%83%83%E3%83%89%E6%95%99%E5%9B%A3+%E4%B8%AD%E6%9D%91%E7%A6%8F%E9%9F%B3%E3%82%AD%E3%83%AA%E3%82%B9%E3%83%88%E6%95%99%E4%BC%9A/data=!4m2!3m1!1s0x354f3ef6a7a09a81:0xdb8a331d8941d2c9,FALSE,32.9923719,132.9173067,〒787-0020 高知県四万十市入田３２０２−１,宗教法人日本アッセンブリーズ・オブ・ゴッド教団 中村福音キリスト教会
https://www.google.com/maps/place/%E6%97%A5%E6%9C%AC%E7%A6%8F%E9%9F%B3%E5%AE%A3%E6%95%99%E4%BC%9A/data=!4m2!3m1!1s0x354fe66030950bc7:0x1ae6987250c5696e,FALSE,33.8501673,132.8033751,〒791-0101 愛媛県松山市溝辺町３２２,日本福音宣教会
https://www.google.com/maps/place/%E6%97%A5%E6%9C%AC%E3%82%AD%E3%83%AA%E3%82%B9%E3%83%88%E6%95%99%E5%9B%A3%E7%A0%A5%E9%83%A8%E6%95%99%E4%BC%9A/data=!4m2!3m1!1s0x354febf0eb7daddd:0x5bbab7d0e4e6b49b,FALSE,33.735677,132.7921897,〒791-2132 愛媛県伊予郡砥部町大南７６６,日本キリスト教団砥部教会
https://www.google.com/maps/place/%E6%97%A5%E6%9C%AC%E3%82%AD%E3%83%AA%E3%82%B9%E3%83%88%E6%95%99%E5%9B%A3+%E6%9D%BE%E5%89%8D%E6%95%99%E4%BC%9A/data=!4m2!3m1!1s0x354fee19620d068d:0xd52358fb533bb7d3,FALSE,33.793206,132.7140616,〒791-3134 愛媛県伊予郡松前町西古泉１０２−２,日本キリスト教団 松前教会
https://www.google.com/maps/place/%E3%82%AD%E3%83%AA%E3%82%B9%E3%83%88%E6%95%99%E4%BC%9A/data=!4m2!3m1!1s0x35503a5bd46721c3:0x5f12bb6475bd6220,FALSE,34.0656932,132.9929332,〒794-0028 愛媛県今治市北宝来町３丁目１−２２,今治ホーリネス教会
https://www.google.com/maps/place/%E6%97%A5%E6%9C%AC%E5%9F%BA%E7%9D%A3%E6%95%99%E5%9B%A3%E5%B2%A9%E5%9F%8E%E6%95%99%E4%BC%9A/data=!4m2!3m1!1s0x3550529df5e10d41:0x2ef1a54e9cb2ee8b,FALSE,34.2470524,133.1496153,〒794-2410 愛媛県越智郡上島町岩城８６２,日本基督教団岩城教会
https://www.google.com/maps/place/%E5%90%89%E7%94%B0%E3%82%AD%E3%83%AA%E3%82%B9%E3%83%88%E6%95%99%E4%BC%9A/data=!4m2!3m1!1s0x354589e8ac9cd49f:0xc355d3968710e212,FALSE,33.2796678,132.5409875,〒799-3703 愛媛県宇和島市吉田町東小路甲６９,吉田キリスト教会
https://www.google.com/maps/place/%E6%97%A5%E6%9C%AC%E3%82%AD%E3%83%AA%E3%82%B9%E3%83%88%E6%95%99%E5%9B%A3%E5%8C%97%E4%B9%9D%E5%B7%9E%E5%BE%A9%E8%88%88%E6%95%99%E4%BC%9A%E6%9B%BD%E6%A0%B9%E9%9B%86%E4%BC%9A%E6%89%80/data=!4m2!3m1!1s0x3543c031043090b3:0x434cecebcb3c243,FALSE,33.8168068,130.9457,〒800-0223 福岡県北九州市小倉南区上曽根２丁目６−２２,日本キリスト教団北九州復興教会曽根集会所
https://www.google.com/maps/place/%E6%97%A5%E6%9C%AC%E3%82%AD%E3%83%AA%E3%82%B9%E3%83%88%E6%95%99%E5%9B%A3%E8%8B%A5%E6%9D%BE%E6%95%99%E4%BC%9A/data=!4m2!3m1!1s0x3543c7f8c2974e4b:0x971a2b450a902635,FALSE,33.9028843,130.8032517,〒808-0053 福岡県北九州市若松区修多羅１丁目８−１,日本キリスト教団若松教会
https://www.google.com/maps/place/%E3%82%A2%E3%82%AC%E3%83%9A%E3%83%BB%E3%82%AD%E3%83%AA%E3%82%B9%E3%83%88%E6%95%99%E4%BC%9A/data=!4m2!3m1!1s0x3541971a23a8d6e3:0x1f58217adee15239,FALSE,33.5014593,130.439994,〒811-1251 福岡県那珂川市松木６丁目７−２９,アガペ・キリスト教会
https://www.google.com/maps/place/%E6%97%A5%E6%9C%AC%E3%82%AD%E3%83%AA%E3%82%B9%E3%83%88%E6%95%99%E4%BC%9A%E7%A6%8F%E5%B2%A1%E7%AD%91%E7%B4%AB%E9%87%8E%E6%95%99%E4%BC%9A/data=!4m2!3m1!1s0x354190f19448d3d1:0xe5317378e20783af,FALSE,33.5526682,130.445492,〒811-1302 福岡県福岡市南区井尻３丁目７−３１,日本キリスト教会福岡筑紫野教会
https://www.google.com/maps/place/%E6%97%A5%E6%9C%AC%E5%9F%BA%E7%9D%A3%E6%95%99%E5%9B%A3%E7%A6%8F%E5%B2%A1%E6%B8%A1%E8%BE%BA%E9%80%9A%E6%95%99%E4%BC%9A%E7%B2%95%E5%B1%8B%E9%9B%86%E4%BC%9A%E6%89%80/data=!4m2!3m1!1s0x35418f80d0ade7bb:0xbac8c042ef540c5b,FALSE,33.6219027,130.4698177,〒811-2308 福岡県糟屋郡粕屋町内橋６−２２,日本基督教団福岡渡辺通教会粕屋集会所
https://www.google.com/maps/place/%E3%82%AB%E3%83%88%E3%83%AA%E3%83%83%E3%82%AF%E5%A3%B1%E5%B2%90%E6%95%99%E4%BC%9A/data=!4m2!3m1!1s0x356a93e45781ff71:0x439cf31255b0de9e,TRUE,33.7459086,129.6966168,〒811-5136 長崎県壱岐市郷ノ浦町片原触４２−２,カトリック壱岐教会
https://www.google.com/maps/place/Japanese+Christian+Churches/data=!4m2!3m1!1s0x354191ebf6615555:0x5b6cfa64d134976f,FALSE,33.5987938,130.4059096,〒812-0023 福岡県福岡市博多区奈良屋町５−１８ 上田第一ビル,Japanese Christian Churches
https://www.google.com/maps/place/%E7%AC%AC%E4%B8%80%E3%83%90%E3%83%97%E3%83%86%E3%82%B9%E3%83%88%E6%95%99%E4%BC%9A/data=!4m2!3m1!1s0x35419bbcf13bd9ff:0x768771c5a0731fd4,FALSE,33.516197,130.5296387,〒818-0125 福岡県太宰府市五条１丁目１４−１８,第一バプテスト教会
https://www.google.com/maps/place/%E6%97%A5%E6%9C%AC%E5%9F%BA%E7%9D%A3%E6%95%99%E5%9B%A3%E7%8A%80%E5%B7%9D%E6%95%99%E4%BC%9A/data=!4m2!3m1!1s0x3543dd94751103f9:0x17f7d2b71bdedeea,FALSE,33.6470356,130.9436824,〒824-0231 福岡県京都郡みやこ町犀川本庄７４５,日本基督教団犀川教会
https://www.google.com/maps/place/%E4%B9%85%E7%95%99%E7%B1%B3%E3%82%AD%E3%83%AA%E3%82%B9%E3%83%88%E6%95%99%E4%BC%9A/data=!4m2!3m1!1s0x3541a5adb1388bb9:0x7e2cae10b9b86e56,FALSE,33.3027497,130.5206071,〒830-0038 福岡県久留米市西町８５１,久留米キリスト教会
https://www.google.com/maps/place/%E6%97%A5%E6%9C%AC%E3%82%AD%E3%83%AA%E3%82%B9%E3%83%88%E6%95%99%E4%BC%9A%E7%8A%AC%E5%A1%9A%E6%95%99%E4%BC%9A/data=!4m2!3m1!1s0x3541b1d1835d0001:0x1d7d92bc80c12182,FALSE,33.2478764,130.4641049,〒830-0112 福岡県久留米市三潴町玉満１９１８−３,日本キリスト教会犬塚教会
https://www.google.com/maps/place/%E8%A5%BF%E6%97%A5%E6%9C%AC%E3%82%A4%E3%83%B1%E3%82%B9%E4%B9%8B%E5%BE%A1%E9%9C%8A%E6%95%99%E4%BC%9A%E5%90%89%E4%BA%95%E4%BC%9D%E9%81%93%E6%89%80/data=!4m2!3m1!1s0x354172e8dd1fe5d3:0x3f3cfab4662face5,FALSE,33.3434006,130.7685,〒839-1311 福岡県うきは市吉井町若宮２９６−１,西日本イヱス之御霊教会吉井伝道所
https://www.google.com/maps/place/%E8%81%96%E6%9B%B8%E6%95%99%E4%BC%9A/data=!4m2!3m1!1s0x356a787a125c6c61:0x7896ac234868ee1,FALSE,33.4517839,129.9749983,〒847-0016 佐賀県唐津市東城内１７−１１,聖書教会
https://www.google.com/maps/place/%E3%83%9A%E3%83%8C%E3%82%A8%E3%83%AB%E6%95%99%E4%BC%9A/data=!4m2!3m1!1s0x356a8529b5d40e33:0xc50caa060261b1c6,FALSE,33.2631025,129.8823193,〒848-0027 佐賀県伊万里市立花町１６０４−２０,ペヌエル教会
https://www.google.com/maps/place/%E6%97%A5%E6%9C%AC%E3%82%AD%E3%83%AA%E3%82%B9%E3%83%88%E6%95%99%E5%9B%A3%E4%BC%8A%E4%B8%87%E9%87%8C%E6%95%99%E4%BC%9A/data=!4m2!3m1!1s0x356a843e245457df:0x95c2d2cb340c22f8,FALSE,33.2760464,129.8780366,〒848-0046 佐賀県伊万里市 伊万里町乙相生町59,日本キリスト教団伊万里教会
https://www.google.com/maps/place/%E3%82%AB%E3%83%88%E3%83%AA%E3%83%83%E3%82%AF%E9%B9%BF%E5%B3%B6%E6%95%99%E4%BC%9A/data=!4m2!3m1!1s0x35402508191da6ff:0x724b59f07dfc7f03,TRUE,33.1017129,130.1047076,〒849-1312 佐賀県鹿島市納富分３１５１,カトリック鹿島教会
https://www.google.com/maps/place/Church+of+St+Philip/data=!4m2!3m1!1s0x35155330a277e423:0xbc62429f6c462733,TRUE,32.7546388,129.8721457,〒850-0051 長崎県長崎市西坂町８−１１,Church of St Philip
https://www.google.com/maps/place/%E3%82%AB%E3%83%88%E3%83%AA%E3%83%83%E3%82%AF%E5%B0%8F%E7%80%AC%E6%88%B8%E9%9B%86%E4%BC%9A%E6%89%80/data=!4m2!3m1!1s0x3515526ea7115555:0x1f1e7d74e07ecc8d,TRUE,32.7271954,129.8311846,〒850-0077 長崎県長崎市小瀬戸町８０６,カトリック小瀬戸集会所
https://www.google.com/maps/place/%E3%82%AB%E3%83%88%E3%83%AA%E3%83%83%E3%82%AF%E5%A4%A7%E5%B1%B1%E6%95%99%E4%BC%9A/data=!4m2!3m1!1s0x351553c4bdaf1235:0x8e0837b71522d063,TRUE,32.6982734,129.8727182,〒850-0964 長崎県長崎市大山町５６６−１,カトリック大山教会
https://www.google.com/maps/place/%E3%82%AB%E3%83%88%E3%83%AA%E3%83%83%E3%82%AF%E6%A8%AB%E5%B1%B1%E6%95%99%E4%BC%9A/data=!4m2!3m1!1s0x3514be7f62489575:0x76f1acb1025fc92a,TRUE,32.8126958,129.736915,〒851-2202 長崎県長崎市樫山町３０５９,カトリック樫山教会
https://www.google.com/maps/place/%E3%82%AB%E3%83%88%E3%83%AA%E3%83%83%E3%82%AF%E3%81%95%E3%81%8F%E3%82%89%E3%81%AE%E9%87%8C%E8%81%96%E5%AE%B6%E6%97%8F%E6%95%99%E4%BC%9A/data=!4m2!3m1!1s0x356ab33fae0ef2a3:0x676d535c69d3be84,TRUE,32.8246272,129.7572087,〒851-2207 長崎県長崎市さくらの里３丁目１７００,カトリックさくらの里聖家族教会
https://www.google.com/maps/place/%E3%82%AB%E3%83%88%E3%83%AA%E3%83%83%E3%82%AF%E7%89%A7%E9%87%8E%E6%95%99%E4%BC%9A/data=!4m2!3m1!1s0x356a93e45781ff71:0xf7cdfee235648d07,TRUE,32.8572017,129.7106582,〒851-2323 長崎県長崎市新牧野町５９１−９,カトリック牧野教会
https://www.google.com/maps/place/%E3%81%8A%E5%91%8A%E3%81%92%E3%81%AE%E3%83%9E%E3%83%AA%E3%82%A2%E4%BF%AE%E9%81%93%E4%BC%9A%E9%BB%92%E5%B4%8E%E4%BF%AE%E9%81%93%E9%99%A2/data=!4m2!3m1!1s0x356ab4bfa51ac34b:0x5f164f7ebf9908d2,TRUE,32.8402343,129.7154702,〒851-2324 長崎県長崎市上黒崎町６５,お告げのマリア修道会黒崎修道院
https://www.google.com/maps/place/%E3%82%AB%E3%83%88%E3%83%AA%E3%83%83%E3%82%AF%E5%A4%A7%E9%87%8E%E6%95%99%E4%BC%9A/data=!4m2!3m1!1s0x356ab51ac13d53a7:0xb8bc842061524660,TRUE,32.8604231,129.6892228,〒851-2427 長崎県長崎市下大野町２６１９,カトリック大野教会
https://www.google.com/maps/place/%E3%82%AB%E3%83%88%E3%83%AA%E3%83%83%E3%82%AF%E7%94%9F%E6%B6%AF%E9%A4%8A%E6%88%90%E5%A7%94%E5%93%A1%E4%BC%9A/data=!4m2!3m1!1s0x356aacdad5f28a51:0xfb47ba5829a27b06,TRUE,32.7772562,129.8679893,〒852-8113 長崎県長崎市上野町１０−３４,カトリック生涯養成委員会
https://www.google.com/maps/place/%E5%8E%9F%E7%88%86%E7%AC%AC%EF%BC%92%E4%BF%AE%E9%81%93%E9%99%A2/data=!4m2!3m1!1s0x356aab8d8461f33b:0xde4f1a464453948b,TRUE,32.803337,129.9090494,〒852-8142 長崎県長崎市三ツ山町139-2,原爆第２修道院
https://www.google.com/maps/place/%E3%81%8A%E5%91%8A%E3%81%92%E3%81%AE%E3%83%9E%E3%83%AA%E3%82%A2%E4%BF%AE%E9%81%93%E4%BC%9A%E9%AF%9B%E3%81%AE%E6%B5%A6%E4%BF%AE%E9%81%93%E9%99%A2/data=!4m2!3m1!1s0x3514ce917bdd16fd:0xcf0cbd5186836a35,TRUE,32.9640042,129.0993557,〒853-3321 長崎県南松浦郡新上五島町鯛ノ浦郷３００−３,お告げのマリア修道会鯛の浦修道院
https://www.google.com/maps/place/%E3%82%AB%E3%83%88%E3%83%AA%E3%83%83%E3%82%AF%E8%88%B9%E9%9A%A0%E6%95%99%E4%BC%9A/data=!4m2!3m1!1s0x3514cf5c376332c9:0x421b84021a26726e,TRUE,32.9106346,129.0889399,〒853-3323 長崎県南松浦郡新上五島町東神ノ浦郷４８−１１,カトリック船隠教会
https://www.google.com/maps/place/%E3%82%AB%E3%83%88%E3%83%AA%E3%83%83%E3%82%AF%E6%84%9B%E9%87%8E%E6%95%99%E4%BC%9A/data=!4m2!3m1!1s0x35401005550e1357:0x390448ac0309a12f,TRUE,32.8164261,130.1552507,〒854-0301 長崎県雲仙市愛野町甲３９３４,カトリック愛野教会
https://www.google.com/maps/place/Sasebo+International+Christian+Assembly/data=!4m2!3m1!1s0x356a96f7035e1185:0x1bd4847bf1190667,FALSE,33.1493699,129.7630212,〒857-1163 長崎県佐世保市大岳台町２３−２５,Sasebo International Christian Assembly
https://www.google.com/maps/place/%E3%82%AB%E3%83%88%E3%83%AA%E3%83%83%E3%82%AF%E8%88%B9%E8%B6%8A%E6%95%99%E4%BC%9A/data=!4m2!3m1!1s0x356a9573d2f661a1:0x5ca3cfe8a9d5031f,TRUE,33.1528179,129.685532,〒857-1231 長崎県佐世保市船越町１３１−１０,カトリック船越教会
https://www.google.com/maps/place/%E3%82%AB%E3%83%88%E3%83%AA%E3%83%83%E3%82%AF%E5%A4%A7%E7%80%AC%E6%88%B8%E6%95%99%E4%BC%9A/data=!4m2!3m1!1s0x356ac9fa7b4bbb47:0x774b7af2f5e8585b,TRUE,32.9336589,129.6421424,〒857-2302 長崎県西海市大瀬戸町瀬戸樫浦郷２２４５,カトリック大瀬戸教会
https://www.google.com/maps/place/%E3%82%AB%E3%83%88%E3%83%AA%E3%83%83%E3%82%AF%E9%96%93%E7%80%AC%E6%95%99%E4%BC%9A/data=!4m2!3m1!1s0x356ac7b730fa5145:0x9fd4b9aada18a5c1,TRUE,33.0347919,129.6188261,〒857-2427 長崎県西海市大島町１９２０−３,カトリック間瀬教会
https://www.google.com/maps/place/%E3%82%AB%E3%83%88%E3%83%AA%E3%83%83%E3%82%AF%E8%B7%A1%E6%AC%A1%E6%95%99%E4%BC%9A/data=!4m2!3m1!1s0x3514bdd5f5c84289:0xbf022d26c381eeec,TRUE,32.974558,129.0549,〒857-4412 長崎県南松浦郡新上五島町三日ノ浦郷跡次,カトリック跡次教会
https://www.google.com/maps/place/%E3%82%AB%E3%83%88%E3%83%AA%E3%83%83%E3%82%AF%E5%B0%8F%E9%95%B7%E4%BA%95%E6%95%99%E4%BC%9A/data=!4m2!3m1!1s0x35403d609116580b:0x3c33039f66e00fd1,TRUE,32.9588554,130.16695,〒859-0167 長崎県諫早市小長井町遠竹２７４７,カトリック小長井教会
https://www.google.com/maps/place/%E3%82%AB%E3%83%88%E3%83%AA%E3%83%83%E3%82%AF%E5%BE%A1%E5%8E%A8%E6%95%99%E4%BC%9A/data=!4m2!3m1!1s0x356a8ca44271e99f:0x210ddfa5dc19b40f,TRUE,33.3663577,129.665909,〒859-4752 長崎県松浦市御厨町里免１２６,カトリック御厨教会
https://www.google.com/maps/place/%E9%95%B7%E5%B4%8E%E7%B4%94%E5%BF%83%E8%81%96%E6%AF%8D%E4%BC%9A+%E5%A4%A7%E6%B1%9F%E4%BF%AE%E9%81%93%E9%99%A2/data=!4m2!3m1!1s0x353fd8b05c61212b:0x24aa75ed5457f6c4,TRUE,32.3295118,129.9936014,〒863-2801 熊本県天草市天草町大江１７８７,長崎純心聖母会 大江修道院
https://www.google.com/maps/place/%E6%97%A5%E6%9C%AC%E7%A6%8F%E9%9F%B3%E3%83%AB%E3%83%BC%E3%83%86%E3%83%AB%E5%AE%87%E5%9C%9F%E6%95%99%E4%BC%9A/data=!4m2!3m1!1s0x3540898c8b705113:0x2587dd9be5cfa393,FALSE,32.6825451,130.6572784,〒869-0431 熊本県宇土市本町１丁目６７,日本福音ルーテル宇土教会
