url,catholic,lat,lng,address,name
https://www.google.com/maps?cid=3205518963065137639,FALSE,34.701565,135.511856,〒530-0041 大阪府大阪市北区天神橋３丁目６−２０ 救世軍大阪セントラルホール,救世軍西日本連隊本部
https://www.google.com/maps?cid=14137319173375910589,FALSE,33.571574,133.51553,〒780-0972 高知県高知市中万々８５９,救世軍高知小隊
https://www.google.com/maps?cid=15516975061922122437,FALSE,35.0031595,135.7647421,富小路通四条下る37 救世軍京都小隊 徳正寺町 下京区 京都市 京都府 600-8051,Salvation Army
https://www.google.com/maps?cid=12195122116129180032,FALSE,34.662742,135.539076,〒544-0031 大阪府大阪市生野区鶴橋５丁目１９−１３,救世軍鶴橋小隊
https://www.google.com/maps?cid=12555144456329744242,FALSE,34.346571,134.041896,〒760-0020 香川県高松市錦町２丁目９−２６,救世軍高松錦町
https://www.google.com/maps?cid=4122436984106887497,FALSE,34.662799,135.473766,〒551-0031 大阪府大阪市大正区泉尾１丁目１４−１６ 救世軍,救世軍泉尾小隊
https://www.google.com/maps?cid=754507873664762643,FALSE,34.641044,135.500028,〒557-0014 大阪府大阪市西成区天下茶屋１丁目１６−８ 救世軍 西成小隊,救世軍西成小隊
https://www.google.com/maps?cid=5434326456881337648,FALSE,35.1843667,136.9282318,〒461-0023 愛知県名古屋市東区徳川町１４０１,救世軍名古屋小隊
https://www.google.com/maps?cid=7134923321631511755,FALSE,35.2745696,139.6766467,〒238-0012 神奈川県横須賀市安浦町１丁目 横須賀小隊,救世軍
https://www.google.com/maps?cid=10842286970321227381,FALSE,34.701565,135.511856,〒530-0041 大阪府大阪市北区天神橋３丁目６−２０ 救世軍大阪セントラルホール,救世軍天満小隊
https://www.google.com/maps?cid=17474787844634736871,FALSE,33.868072,130.84278,〒805-0013 福岡県北九州市八幡東区昭和２丁目４−５,救世軍八幡小隊
https://www.google.com/maps?cid=2392120852607572164,FALSE,33.577048,130.402641,〒810-0014 福岡県福岡市中央区平尾１丁目８−１ 救世軍福岡小隊会館,救世軍 福岡小隊
https://www.google.com/maps?cid=2949226754933343894,FALSE,33.0398079,130.4547307,〒836-0802 福岡県大牟田市日出町２丁目２−６ 大牟田小隊,救世軍
https://www.google.com/maps?cid=9979197360626511981,FALSE,35.7020078,139.8166958,〒130-0012 東京都墨田区太平４丁目１１−３,救世軍江東小隊
https://www.google.com/maps?cid=3604898314257968644,FALSE,35.6786381,139.8151177,〒135-0051 東京都江東区센고쿠 ２丁目３−１８,東京東部教会
https://www.google.com/maps?cid=10581469247477567279,FALSE,31.9454479,131.3540779,〒880-2114 宮崎県宮崎市富吉２４５２−１,ワールドミッション教団 宮崎ラヴチャーチ
https://www.google.com/maps?cid=6308370371356143183,FALSE,32.0601961,131.3586842,〒881-0113 宮崎県西都市下三財３３８９,児湯キリスト教会【三財会堂】
https://www.google.com/maps?cid=4350190825755952160,FALSE,31.709147,131.049589,〒885-0083 宮崎県都城市都島町５２７２−１,セブンスデー・アドベンチスト都城キリスト教会
https://www.google.com/maps?cid=7714438853069324783,FALSE,31.3410446,130.862113,〒893-0041 鹿児島県鹿屋市星塚町４２０４,恵生教会
https://www.google.com/maps?cid=17758384332040605590,FALSE,35.6112443,138.4609415,７４９ 小笠原 南アルプス市 山梨県 400-0306,Igreja quadrangular minami alps
https://www.google.com/maps?cid=12519421537257999556,FALSE,36.0737775,138.0821166,５３５７ 曙町 下諏訪町 諏訪郡 長野県 393-0066,Lift Jesus Worldwide Ministries Japan
https://www.google.com/maps?cid=9862118212665323504,FALSE,35.760904,137.98971,〒399-4321 長野県駒ヶ根市東伊那火山７７８８−１,駒ヶ根パノラマ愛の家
https://www.google.com/maps?cid=11453591887340031433,FALSE,35.518411,137.826385,〒395-0085 長野県飯田市吾妻町１１３−１,吾妻町教会
https://www.google.com/maps?cid=6491436141196371842,FALSE,35.7205121,137.9473529,〒399-4117 長野県駒ヶ根市赤穂市場割,主イエス・キリストの小町屋集会
https://www.google.com/maps?cid=10412125994567791804,FALSE,36.192584,137.924303,〒390-1243 長野県松本市神林１４８４−１ 行政書士井上治夫,讃美イエス教会
https://www.google.com/maps?cid=6213356777458015939,FALSE,36.194692,137.973262,〒399-0035 長野県松本市村井町北２丁目１４−２０,松本筑摩野伝道所
https://www.google.com/maps?cid=5393034585423212084,FALSE,35.5826052,137.5247477,〒509-9232 岐阜県中津川市坂下５８６,日本基督教団坂下教会
https://www.google.com/maps?cid=7574809620101260584,FALSE,35.838023,137.9838911,〒396-0009 長野県伊那市日影71,MAC Ina ミションアポイオキリスト教会
https://www.google.com/maps?cid=8548186877474442455,FALSE,35.107698,136.994336,〒468-0029 愛知県名古屋市天白区島田が丘２０１,天白キリスト教会
https://www.google.com/maps?cid=11185843503577305784,FALSE,35.1468079,136.9327659,〒466-0034 愛知県名古屋市昭和区明月町２丁目５３−１,日本聖公会名古屋聖マタイ教会
https://www.google.com/maps?cid=8495752883148045457,FALSE,35.1450707,136.8589883,〒454-0873 愛知県名古屋市中川区上高畑１丁目３１,名古屋シオンチャーチ（中川）
https://www.google.com/maps?cid=3634055670299286968,FALSE,35.1762304,136.9048038,〒460-0002 愛知県名古屋市中区丸の内３丁目８−１６,名古屋 地の果て宣教教会
https://www.google.com/maps?cid=1150373723691823420,FALSE,35.15797,136.861239,〒453-0851 愛知県名古屋市中村区畑江通７丁目１０−１,ホープチャーチ名古屋
https://www.google.com/maps?cid=14784313184194322863,FALSE,35.12311,136.995036,〒468-0015 愛知県名古屋市天白区原４丁目１０８,ニューライフ・チャーチ原チャペル
https://www.google.com/maps?cid=2209945804209312065,FALSE,35.1568906,136.8655086,〒453-0851 愛知県名古屋市中村区畑江通４丁目18−1 803,New Testament Grace Church
https://www.google.com/maps?cid=11218019931001485666,FALSE,35.1017622,136.9072978,〒457-0846 愛知県名古屋市南区道徳通２丁目５９,基督兄弟団名古屋教会（宗教法人）
https://www.google.com/maps?cid=14654613567790790958,FALSE,35.182778,136.875037,〒451-0051 愛知県名古屋市西区則武新町４丁目３−１２,愛知キリスト教会
https://www.google.com/maps?cid=8600464889889220719,FALSE,35.1754551,136.9070632,〒460-0002 愛知県名古屋市中区丸の内３丁目１８−７,シティ リジョイス チャーチ
https://www.google.com/maps?cid=15756765712237034021,FALSE,35.117838,136.922623,〒467-0841 愛知県名古屋市瑞穂区苗代町１６−１６ 苗代コーポ,名古屋新生キリスト教会
https://www.google.com/maps?cid=10220805026571084812,FALSE,35.1817311,137.0383936,〒480-1166 愛知県長久手市野田農５０２,ソフィア・キリスト教会
https://www.google.com/maps?cid=8487072760258470554,FALSE,35.1099262,136.910755,〒457-0863 愛知県名古屋市南区豊２丁目１４−４８,名古屋南恵みキリスト教会
https://www.google.com/maps?cid=5229444419024437117,FALSE,35.1207798,136.8822952,〒454-0055 愛知県名古屋市中川区十番町５丁目１０,恵と命キリスト教会
https://www.google.com/maps?cid=9629972279283128146,FALSE,35.4313122,137.0028241,〒505-0043 岐阜県美濃加茂市深田町２丁目６−３１ Grace & Life Church,Ministério Sem Limites
https://www.google.com/maps?cid=9832955740419305138,FALSE,35.1886018,137.0429368,〒480-1103 愛知県長久手市岩作隅田７５−２,長久手キリスト教会
https://www.google.com/maps?cid=136304138829751204,FALSE,35.141325,136.831371,〒454-0996 愛知県名古屋市中川区伏屋３丁目２０５,伏屋キリスト教会
https://www.google.com/maps?cid=11580851743429154599,FALSE,35.159139,136.917653,〒460-0012 愛知県名古屋市中区千代田５丁目１６−１３,名古屋愛知キリスト教会
https://www.google.com/maps?cid=4903337765280102660,FALSE,34.96039,137.1607658,１丁目 魚町 岡崎市 愛知県 444-0058,Assembleia de Deus Belém Okazaki
https://www.google.com/maps?cid=17818972525623470230,FALSE,34.977356,137.0753967,〒446-0073 愛知県安城市篠目町古林畔９８−１,IGREJA PENTECOSTAL DEUS É AMOR
https://www.google.com/maps?cid=12307032383022671534,FALSE,34.9331003,137.15749,〒444-0843 愛知県岡崎市江口３丁目,IAEI Okazaki sede
https://www.google.com/maps?cid=12472743378770052800,FALSE,34.8965895,136.8489576,２丁目-３-２２ 飛香台 常滑市 愛知県 479-0868,Igreja Batista Reformada Japão (Handa)
https://www.google.com/maps?cid=14529949408552899107,FALSE,34.954312,137.058325,東山-２０５ 箕輪町 安城市 愛知県 446-0051,Jmead Anjo Igreja Evangélica
https://www.google.com/maps?cid=16985246183097902467,FALSE,34.9086188,137.0145996,〒447-0082 愛知県碧南市湖西町５丁目9,SOLA CHURCH AICHI
https://www.google.com/maps?cid=10122809858696225630,FALSE,34.9586777,137.086127,〒446-0032 愛知県安城市御幸本町８−２,希望バプテスト教会
https://www.google.com/maps?cid=9658482300399626203,FALSE,34.9583513,136.8292132,〒478-0036 愛知県知多市新舞子郷戸９４−１,名古屋華人之家
https://www.google.com/maps?cid=15469466219994872167,FALSE,34.8975629,136.8870937,〒475-0946 愛知県半田市 横山町168,聖い水の教会・清水
https://www.google.com/maps?cid=10442834540730577836,FALSE,35.002579,136.928289,〒474-0046 愛知県大府市吉川町２丁目４３,大府キリスト集会所
https://www.google.com/maps?cid=16952009066935016560,FALSE,34.9424904,137.1628883,〒444-0864 愛知県岡崎市明大寺町銭堤３７,アビバメント ダ フェ
https://www.google.com/maps?cid=12993927793182112275,FALSE,34.8418816,137.383902,〒442-0006 愛知県豊川市三蔵子町宮前８−２０,豊川キリスト愛の教会
https://www.google.com/maps?cid=8050251350152523519,FALSE,34.963483,137.1321107,〒444-0944 愛知県岡崎市北本郷町河原１９,イチジク・キリスト教会
https://www.google.com/maps?cid=12294625178887890087,FALSE,35.0046905,137.0395554,〒472-0025 愛知県知立市池端2−２ Chishou Dai-Ichi Bldg 1F,ユニバーサルキリスト教会
https://www.google.com/maps?cid=8194828922631043317,FALSE,34.8182161,137.0277005,〒444-0423 愛知県西尾市一色町一色西荒子３６,アドラムチャーチ
https://www.google.com/maps?cid=10588712657326857348,FALSE,34.7407703,137.4201207,〒440-0842 愛知県豊橋市岩屋町岩屋下１０８,ユニバーサルキリスト教会
https://www.google.com/maps?cid=3949854728819595373,FALSE,34.713843,137.8520162,〒438-0078 静岡県磐田市中泉２４６−１,ユニバーサルキリスト教会
https://www.google.com/maps?cid=16055934044789780029,FALSE,34.6932877,137.7413024,〒430-0924 静岡県浜松市中区龍禅寺町６２２,ユニバーサルキリスト教会
https://www.google.com/maps?cid=8357528581614006510,FALSE,34.6949136,135.1974097,〒651-0096 兵庫県神戸市中央区雲井通５丁目１−２,Logos International Church
https://www.google.com/maps?cid=12796199002300308272,FALSE,35.8350452,139.3847726,〒358-0003 埼玉県入間市豊岡２丁目３−１８,カルバリーチャペル入間
https://www.google.com/maps?cid=3330611222097340406,FALSE,35.7019649,139.6961433,〒169-0073 東京都新宿区百人町２丁目２７−５,PBWM東京教会
https://www.google.com/maps?cid=7148385860609914311,FALSE,33.6045144,130.4213902,〒812-0045 福岡県福岡市博多区東公園４−５,JOY CHURCH(ジョイチャーチ／ジョイ教会／カフェのある教会)
https://www.google.com/maps?cid=13026122846493791784,FALSE,33.5928492,130.4290909,〒812-0007 福岡県福岡市博多区東比恵２丁目２−２４,博多ニューライフ教会
https://www.google.com/maps?cid=3092343429284978175,FALSE,35.7092842,139.7119878,ラ・メゾンナカジマ ２丁目-１７ 西早稲田 新宿区 東京都 169-0051,愛の教会
https://www.google.com/maps?cid=5346574421233264943,FALSE,35.7114299,139.7046437,〒169-0075 東京都新宿区高田馬場１丁目２８−２ コーア諏訪ビル地下1階,ビサイドチャーチ東京
https://www.google.com/maps?cid=17500688155088146039,FALSE,35.7026572,139.6968977,〒169-0073 東京都新宿区百人町２丁目２３−４３,Igreja Universal do Reino de Deus
https://www.google.com/maps?cid=1220583174458763400,FALSE,33.6540266,130.427314,〒813-0016 福岡県東区香椎浜２丁目６−６,日本福岡华人教会（锡安宣道所）
https://www.google.com/maps?cid=7692322556648956661,FALSE,35.0404279,136.0705171,〒520-3242 滋賀県湖南市菩提寺３２７−４,甲西伝道所
https://www.google.com/maps?cid=524932960748444747,FALSE,34.9772402,137.1780889,〒444-0077 愛知県岡崎市井田町茨坪３４−３２０,日本キリスト教団 岡崎茨坪伝道所
https://www.google.com/maps?cid=4634293046652404453,FALSE,34.7831186,134.8115725,〒675-0054 兵庫県加古川市米田町平津４７７−１１,高砂国際キリスト教会
https://www.google.com/maps?cid=2951239984822474576,FALSE,35.3418698,139.490725,〒251-0054 神奈川県藤沢市朝日町２０−６,藤沢キリスト教会
https://www.google.com/maps?cid=5198027347308883312,FALSE,35.663906,139.7802744,〒104-0052 東京都中央区月島３丁目３−１１,東京センターチャーチ
https://www.google.com/maps?cid=11129209684194860262,FALSE,35.1991206,136.8934778,〒451-0021 愛知県名古屋市西区天塚町３丁目７,天塚キリスト教会
https://www.google.com/maps?cid=12692515305835618478,FALSE,35.1265818,137.0364301,〒470-0115 愛知県日進市折戸町定納２２,ハレルヤコミュニティーチャーチ名古屋教会・日進チャペル
https://www.google.com/maps?cid=14781952640576176734,FALSE,35.1775039,136.9372035,〒464-0076 愛知県名古屋市千種区豊年町８−３,グレーストゥルースチャーチ（キリスト教会）
https://www.google.com/maps?cid=13289447337968272674,FALSE,35.114724,136.953254,〒467-0058 愛知県名古屋市瑞穂区関取町１４６ 聖ヨハネ教会,日本聖公会名古屋聖ヨハネ教会
https://www.google.com/maps?cid=9427316701124608891,FALSE,35.084868,137.131588,〒471-0036 愛知県豊田市広久手町３丁目４０,豊田聖ペテロ聖パウロ教会
https://www.google.com/maps?cid=8481301310147172313,FALSE,34.954719,137.073423,〒446-0045 愛知県安城市横山町石ナ曽根１７１−２,安城恵みキリスト教会
https://www.google.com/maps?cid=2936006732914698099,FALSE,34.8990106,136.993036,〒447-0056 愛知県碧南市千福町１丁目７１,日本基督教団碧南教会
https://www.google.com/maps?cid=15116137696003916034,FALSE,35.1411841,136.9278273,〒466-0045 愛知県名古屋市昭和区丸屋町３丁目,日本基督教団東海教会
https://www.google.com/maps?cid=6435124028606436306,FALSE,34.966447,137.165649,〒444-0075 愛知県岡崎市伊賀町地蔵ケ入１２−３,愛宕山教会
https://www.google.com/maps?cid=16827658395717731260,FALSE,34.9816699,137.1715508,〒444-2122 愛知県岡崎市鴨田本町８−２３,日本キリスト教典礼団グレイスチャペル
https://www.google.com/maps?cid=6718250329168286904,FALSE,34.9422036,137.1633657,〒444-0864 愛知県岡崎市明大寺町銭堤８−１４,日本キリスト教会岡崎伝道所
https://www.google.com/maps?cid=14821420878260595685,FALSE,35.2712696,137.0396813,〒487-0033 愛知県春日井市岩成台１丁目１５−７ ホサナキリスト教会,ホサナ・
https://www.google.com/maps?cid=11664002676891332258,FALSE,33.7916647,132.8800794,〒791-0211 愛媛県東温市見奈良１１２５,インターナショナルクリスチャンチャーチ愛媛
https://www.google.com/maps?cid=11315346522454695590,FALSE,35.7042077,139.6705329,〒164-0001 東京都中野区中野２丁目７−２,MARIPOSA HOUSE CHRISTIAN FELLOWSHIP
https://www.google.com/maps?cid=87732932551760437,FALSE,34.9842277,138.4191591,〒422-8005 静岡県静岡市駿河区池田１３５−１,静岡清水キリスト教会
https://www.google.com/maps?cid=18177138780848770715,FALSE,35.9785814,139.5985742,〒362-0017 埼玉県上尾市二ツ宮７５０,JCOB Ageo
https://www.google.com/maps?cid=18360605505668988988,FALSE,35.7153731,139.6873029,〒161-0032 東京都新宿区中落合１丁目１８−６,キリスト大使 新宿中井教会
https://www.google.com/maps?cid=16458388341741628448,FALSE,35.3066312,138.9369425,〒412-0021 静岡県御殿場市二枚橋１４４−１２,キリスト大使 御殿場教会
https://www.google.com/maps?cid=14863517673753377740,FALSE,24.4541321,124.1940187,〒907-0451 沖縄県石垣市桴海５２９,米原伝道所
https://www.google.com/maps?cid=1105958304376960193,FALSE,24.3446925,124.1969685,〒907-0001 沖縄県石垣市大浜７４−２,大浜伝道所
https://www.google.com/maps?cid=14201628632991768728,FALSE,33.7962113,132.9111157,〒791-0301 愛媛県東温市南方７３９−８,川内キリスト教会
https://www.google.com/maps?cid=2252580132157333433,FALSE,33.3204754,131.4891212,〒874-0025 大分県別府市亀川四の湯町 2−1,別府イエス之御霊教会
https://www.google.com/maps?cid=15647383042726994410,FALSE,33.8512171,132.7568674,〒790-0813 愛媛県松山市萱町５丁目１０−１０,愛媛箱舟キリスト教会
https://www.google.com/maps?cid=17018403239113972009,FALSE,34.3936954,132.4581587,和光ダイヤモンドビル 2F ５-１１ 本通 中区 広島市 広島県 730-0035,Lifehouse Hiroshima International Church - Online Services every week. 毎週オンライン礼拝をやってます！
https://www.google.com/maps?cid=2889247478518663809,FALSE,34.276717,132.5237877,６-１８ 大山町 呉市 広島県 737-0878,セブンスデー・アドベンチスト広島南キリスト教会
https://www.google.com/maps?cid=6491592585950132025,FALSE,34.405319,132.571046,〒739-0322 広島県広島市安芸区中野町２１９５,安芸教会
https://www.google.com/maps?cid=15219628376713836070,FALSE,34.2258243,132.4899149,〒737-2131 広島県江田島市江田島町秋月２丁目５０−３,秋月キリスト教会
https://www.google.com/maps?cid=8392465085714153832,FALSE,34.3960635,132.4697733,〒730-0015 広島県広島市中区橋本町１−４,広島キリスト集会
https://www.google.com/maps?cid=15483748126447531298,FALSE,34.1830106,131.4736767,〒753-0072 山口県山口市大手町３−６ 大手町ビル 4階,山口地の果て宣教教会
https://www.google.com/maps?cid=13621450380645076647,FALSE,34.4027948,132.580117,〒739-0321 広島県広島市安芸区中野５丁目１５−１０ 日本アライアンス教団,広島瀬野川キリスト教会
https://www.google.com/maps?cid=16420385517748306046,FALSE,34.676189,131.839265,〒698-0024 島根県益田市駅前町１３−７,島根イエス之御霊教会
https://www.google.com/maps?cid=2808794933903600184,FALSE,34.4785974,132.5171394,〒739-1731 広島県広島市安佐北区１４ 安佐北区落合５丁目１４−１１,広島福音自由教会
https://www.google.com/maps?cid=6294351617688733576,FALSE,34.860328,133.016269,〒727-0012 広島県庄原市中本町２丁目７−７,日本キリスト教団庄原教会
https://www.google.com/maps?cid=10041239205697819535,FALSE,35.0629432,133.9851409,〒708-0006 岡山県津山市小田中１８６７−１０,HCCライブチャーチ津山
https://www.google.com/maps?cid=11838975968667370180,FALSE,35.5451745,133.2322249,〒684-0026 鳥取県境港市末広町２７,境復活教会
https://www.google.com/maps?cid=1810276533039281733,FALSE,35.432052,133.075225,〒690-0035 島根県松江市佐草町１２６−１,主イエス・キリスト松江教会
https://www.google.com/maps?cid=4622159698307599979,FALSE,35.5189836,134.1792436,〒680-0941 鳥取県鳥取市湖山町北1−５５,日本基督教団湖山教会
https://www.google.com/maps?cid=14569632591303304478,FALSE,35.4644501,134.2286056,〒680-1131 鳥取県鳥取市馬場５６,鳥取復活教会
https://www.google.com/maps?cid=4382484995368696228,FALSE,35.0586515,133.9567808,〒708-0014 岡山県津山市院庄９００−１７,ＳＤＡ津山キリスト教会
https://www.google.com/maps?cid=5429016678871423979,FALSE,35.083495,133.696513,〒717-0013 岡山県真庭市勝山８０４−９,基督兄弟団 勝山教会
https://www.google.com/maps?cid=6648039973798411618,FALSE,35.0832266,134.0093319,〒708-0806 岡山県津山市大田９１−４,津山聖約キリスト教会
https://www.google.com/maps?cid=4940737343123445835,FALSE,35.3076755,135.260886,〒623-0011 京都府綾部市青野町鳩瀬８７,聖イエス会綾部教会
https://www.google.com/maps?cid=15617723672715360666,FALSE,35.302991,135.240875,〒623-0042 京都府綾部市岡町舘ノ内９−１,聖神めぐみ教会
https://www.google.com/maps?cid=13151325443019364472,FALSE,35.637018,136.069548,〒914-0046 福井県敦賀市長沢１３−１３−２,敦賀宣教教会
https://www.google.com/maps?cid=6998718311098336443,FALSE,35.5006403,136.1228593,〒529-0721 滋賀県長浜市西浅井町大浦１１１４,永原チャペル
https://www.google.com/maps?cid=16992978021986008848,FALSE,35.6559576,136.0679918,〒914-0062 福井県敦賀市相生町１４−３,敦賀基督教会
https://www.google.com/maps?cid=8587582507567610079,FALSE,36.2252568,136.1356101,〒913-0057 福井県坂井市三国町米ケ脇５丁目８−３,三国ライトハウス
https://www.google.com/maps?cid=4616739003497740926,FALSE,36.523121,136.645348,〒921-8151 石川県金沢市窪１丁目４１,金沢イエス之御霊教会
https://www.google.com/maps?cid=515054188181200046,FALSE,36.873002,139.089554,〒379-1721 群馬県利根郡みなかみ町藤原６２８９−１４,日本バイブルホーム
https://www.google.com/maps?cid=5860918094021669878,FALSE,36.703464,137.364099,〒930-0353 富山県中新川郡上市町法音寺３１,上市クリスチャンセンター
https://www.google.com/maps?cid=17322522219043475536,FALSE,36.664539,139.098389,〒378-0005 群馬県沼田市久屋原町２３７−１８,沼田ロマンチック街道キリスト教会
https://www.google.com/maps?cid=12110882044389909903,FALSE,35.7064415,139.5814257,１丁目-６-２７ 吉祥寺東町 武蔵野市 東京都 180-0002,Double O Cross Church
https://www.google.com/maps?cid=14534160915871318986,FALSE,26.325291,127.769808,〒904-0103 沖縄県中頭郡北谷町桑江５８６−１０,ザイオンクリスチャンフェローシップ
https://www.google.com/maps?cid=3028813393590531390,FALSE,26.313514,127.792021,〒901-2304 沖縄県中頭郡北中城村屋宜原２２８,屋宜原家の教会
https://www.google.com/maps?cid=7672578416315542441,FALSE,26.297654,127.787239,〒901-2316 沖縄県中頭郡北中城村安谷屋１４５３−７,沖縄世の光教会
https://www.google.com/maps?cid=2850934503611555374,FALSE,26.2614353,127.7004634,城間 浦添市 沖縄県 901-2133,Camp Kinser Chapel
https://www.google.com/maps?cid=2296152329376096614,FALSE,35.5358932,139.5588901,〒224-0065 神奈川県横浜市都筑区高山１−４７,ニュータウンカルバリーフェローシップ
https://www.google.com/maps?cid=406838388803278259,FALSE,35.1881483,137.0357461,〒480-1182 愛知県長久手市池田１１−１,名古屋ホライズンチャペル
https://www.google.com/maps?cid=12850492384627742532,FALSE,34.798137,135.674265,〒576-0053 大阪府交野市郡津３丁目７３−５,京阪中央教会 カリスチャペル
https://www.google.com/maps?cid=10672783551945904306,FALSE,26.2774537,127.7493088,１丁目-１８ 大山 宜野湾市 沖縄県 901-2223,MCAS Futenma Chapel
https://www.google.com/maps?cid=17299586478614825651,FALSE,26.3807304,127.843802,川崎 うるま市 沖縄県 904-2203,Camp McTureous Chapel
https://www.google.com/maps?cid=4745138871210250384,FALSE,26.36916,127.812087,〒904-2143 沖縄県沖縄市知花５丁目３６−１６,知花キリストの教会
https://www.google.com/maps?cid=13744618492579375969,FALSE,26.3182769,127.7708242,〒904-0105 沖縄県中頭郡北谷町吉原１０１,Church Anglican All souls
https://www.google.com/maps?cid=809433759033562178,FALSE,26.3011442,127.7968383,２６６−４ 喜舎場 北中城村 中頭郡 沖縄県 901-2311,Calvary International Church of God in Christ
https://www.google.com/maps?cid=4700557023920551769,FALSE,26.311442,127.790019,〒901-2304 沖縄県中頭郡北中城村屋宜原６７１,ネイバーフッドクリスチャンチャーチ
https://www.google.com/maps?cid=6702831272734599248,FALSE,26.3226927,127.8152547,〒904-2171 沖縄県沖縄市高原４丁目２８−３ 4 904 2171,Bethel Church
https://www.google.com/maps?cid=14279032955983450740,FALSE,26.3086172,127.8122327,〒904-2174 沖縄県沖縄市与儀１丁目２９−２３,沖縄Covenant Church
https://www.google.com/maps?cid=18399943014455207835,FALSE,26.3039047,127.7707369,〒904-0107 沖縄県中頭郡北谷町大村,キャンプフォスター チャペル
https://www.google.com/maps?cid=6702912998761588160,FALSE,26.3495884,127.7954997,嘉良川 沖縄市 沖縄県 904-0000,Kadena Chapel 3
https://www.google.com/maps?cid=6991354240070562781,FALSE,26.3418704,127.7840333,上地 沖縄市 沖縄県 904-0031,Kadena Chapel 2
https://www.google.com/maps?cid=286073534680683087,FALSE,26.331956,127.759662,〒904-0100 沖縄県中頭郡北谷町下勢頭,カデナ教会
https://www.google.com/maps?cid=4789178544553723977,FALSE,33.0827951,129.7828803,Unnamed Road kenH 江上町 佐世保市 長崎県 859-3244,Hario Chapel
https://www.google.com/maps?cid=8215601379340191530,FALSE,40.687146,141.3631611,〒033-0001 青森県三沢市中央町２丁目１０−４７,Misawa AB Chapel
https://www.google.com/maps?cid=9770083266020218835,FALSE,35.7445613,139.3393793,〒197-0001 東京都福生市横田基地内,Yokota AB Friendship Chapel
https://www.google.com/maps?cid=11810723944142338613,FALSE,35.7414961,139.3627682,岸 武蔵村山市 東京都 208-0031,Yokota AB East Chapel
https://www.google.com/maps?cid=1771386991272438353,FALSE,35.6953223,139.824629,〒136-0071 東京都江東区亀戸１丁目３３−４,Tokyo Happy Presbyterian Church
https://www.google.com/maps?cid=16701322568209139613,FALSE,43.1972472,141.7678626,〒068-0029 北海道岩見沢市９条西４丁目１−１,ぶどうの木キリスト教会
https://www.google.com/maps?cid=14282530372783466095,FALSE,34.742771,135.3393127,〒662-0856 兵庫県西宮市城ケ堀町６−１５ ２Ｆ,ゴスペルチャーチみことば教会
https://www.google.com/maps?cid=16665764994268255629,FALSE,35.3329164,137.1094744,〒507-0048 岐阜県多治見市池田町１丁目１７,多治見ビンヤードチャーチ
https://www.google.com/maps?cid=16277695526100751730,FALSE,34.8196992,134.6935993,〒670-0948 兵庫県姫路市北条宮の町２００,聖イエス会姫路教会
https://www.google.com/maps?cid=7247782546054769613,FALSE,35.6881531,139.5350744,〒181-0015 東京都三鷹市大沢３丁目１０−２０,West Tokyo Union Church
https://www.google.com/maps?cid=17408113524330984484,FALSE,35.1770064,136.9230582,〒461-0002 愛知県東区代官町２２−１２,Nagoya Union Church
https://www.google.com/maps?cid=8382608076589513580,FALSE,35.717476,139.704232,〒161-0033 東京都新宿区下落合２丁目１３−３,東京シティチャーチ
https://www.google.com/maps?cid=8823847190180825917,FALSE,35.7627614,139.7116823,〒173-0002 東京都板橋区稲荷台１９−１１,HIS Church Tokyo
https://www.google.com/maps?cid=13050209628330346680,FALSE,35.7167462,139.700641,〒161-0033 東京都新宿区下落合２丁目６−２１,東京愛の教会
https://www.google.com/maps?cid=337475071247861495,FALSE,35.1611007,135.9109015,〒520-0529 滋賀県大津市和邇春日１丁目８７９−２２,香りキリスト教会
https://www.google.com/maps?cid=1895044305072442520,FALSE,34.9872883,135.8035265,１０−４ 西野楳本町 山科区 京都市 京都府 607-8358,KYOTO泉チャーチ
https://www.google.com/maps?cid=16417491341157933802,FALSE,34.7034783,135.6924219,〒630-0243 奈良県生駒市俵口町９８３−２,生駒インターナショナルチャペル
https://www.google.com/maps?cid=18200287486564788290,FALSE,34.722683,135.231204,〒657-0068 兵庫県神戸市灘区篠原北町１丁目１−１５,神戸聖書教会
https://www.google.com/maps?cid=8003788520392987114,FALSE,34.7251741,135.221069,２丁目-４-４ 長峰台 灘区 神戸市 兵庫県 657-0811,Kobe Union Church
https://www.google.com/maps?cid=2843057365664174489,FALSE,26.2795941,127.7480359,〒901-2223 沖縄県宜野湾市大山５丁目２−２,Lighthouse Baptist Church
https://www.google.com/maps?cid=3298321729761948056,FALSE,35.7329688,139.7776614,〒116-0014 東京都荒川区東日暮里６丁目２４−１９,イエス教日本世界宣教会
https://www.google.com/maps?cid=3060551600842119388,FALSE,35.6687248,139.7396944,〒107-0052 東京都港区赤坂２丁目１８−１０,若松イエス之御霊教会東京教会
https://www.google.com/maps?cid=5548374074264630222,FALSE,34.6113883,135.5137279,3rd Floor Room C ４丁目-２-3 長居東 ２ 住吉区 大阪市 大阪府 558-0004,Abide-Osaka
https://www.google.com/maps?cid=6782505172198313318,FALSE,35.3682512,139.9201321,〒292-0823 千葉県木更津市桜井新町３丁目４−２１,Jesus The Gospel Church Chiba
https://www.google.com/maps?cid=5064858029284174490,FALSE,35.7137167,139.9274627,〒272-0023 千葉県市川市南八幡２丁目２０−１,ロードオブザハーベスト市川教会
https://www.google.com/maps?cid=14289869573129063674,FALSE,36.3148179,139.2017398,〒372-0031 群馬県伊勢崎市今泉町２丁目９３４−６,ロードオブザハーベスト群馬教会
https://www.google.com/maps?cid=17049756220602173173,FALSE,35.799729,140.0015102,〒273-0135 千葉県鎌ケ谷市中佐津間２丁目５,LORD OF THE HARVEST GLOBAL MINISTRIES
https://www.google.com/maps?cid=11112034168884738166,FALSE,35.82673,139.8237351,５丁目-１４-２１ 緑町 八潮市 埼玉県 340-0808,Lord of the Harvest Global Ministries Saitama
https://www.google.com/maps?cid=16184195378590236808,FALSE,34.9788256,138.9528777,６１６−１ 柏久保 伊豆市 静岡県 410-2407,Every Nation Church Izu
https://www.google.com/maps?cid=12313381300691988502,FALSE,36.3439094,139.0367175,〒370-0018 群馬県高崎市新保町４２,高崎グレイスバイブルチャーチ
https://www.google.com/maps?cid=5285089651708855424,FALSE,35.732691,139.7846324,１丁目-５８-６ 荒川 荒川区 東京都 116-0002,Christian Fellowship
https://www.google.com/maps?cid=5189409483338919416,FALSE,36.0443631,140.1661537,〒300-0843 茨城県土浦市中村南１丁目１−２０,Nippon Bible Baptist Church
https://www.google.com/maps?cid=13082262769651928068,FALSE,35.7322998,139.8797727,〒133-0057 東京都江戸川区西小岩１丁目１９−３３,LIGHT Church Int'l. Tokyo Japan
https://www.google.com/maps?cid=4388122897151923285,FALSE,34.701136,137.647772,〒432-8066 静岡県浜松市西区志都呂町西区 1565-1,恵みの救い教会
https://www.google.com/maps?cid=14426956813470869250,FALSE,34.9450018,137.0765118,〒446-0026 愛知県安城市安城町広美１０−１,JCCM NAGOYA
https://www.google.com/maps?cid=13009697708259245545,FALSE,35.2074507,137.0939994,〒489-0861 愛知県瀬戸市八幡台１丁目１２０−１,Iglesia Cristiana Cristo La Roca Sede - Japón
https://www.google.com/maps?cid=1162580972330559949,FALSE,34.8493371,136.562724,３丁目-２-６ 野町中 鈴鹿市 三重県 510-0216,House of Worship with Vision Church Intl. - Mie
https://www.google.com/maps?cid=14050505073637909170,FALSE,36.0225195,139.7446856,〒345-0024 埼玉県北葛飾郡杉戸町堤根４７４２−１,Lighthouse Christian for the Nation Sugito Japan ECOFI
https://www.google.com/maps?cid=1033685490107057389,FALSE,34.6923111,136.5099822,〒514-0821 三重県津市垂水６０９−１,Tsu Evangelistic Center - Japan UPC
https://www.google.com/maps?cid=142399092617968722,FALSE,33.6005603,130.4138827,２丁目-１８-４ 千代 博多区 福岡市 福岡県 812-0044,LIBERATION ASSEMBLY
https://www.google.com/maps?cid=5071227213700142001,FALSE,35.2747952,139.6713644,〒238-0016 神奈川県横須賀市深田台４５−１,Cadence Light House
https://www.google.com/maps?cid=400030700616097254,FALSE,36.7583344,137.0058164,〒933-0948 富山県高岡市上四屋１−３０,日本ユナイテッド・ペンテコステ教団
https://www.google.com/maps?cid=5048650034918097764,FALSE,35.6929322,139.8166598,〒135-0001 東京都江東区毛利２丁目１０−１４,Connect Church
https://www.google.com/maps?cid=17162442550918879421,FALSE,26.2364263,127.6978274,〒900-0004 沖縄県那覇市銘苅,グローバル インパクト センター (Global Impact Center)
https://www.google.com/maps?cid=13819435469684781112,FALSE,34.6548068,135.5472733,〒544-0004 大阪府大阪市生野区巽北１丁目２２−１６,イエス教長老会 平安教会
https://www.google.com/maps?cid=17121982792741932968,FALSE,34.694043,135.641553,〒579-8004 大阪府東大阪市布市町１丁目８−３４,ペテラキリスト教会
https://www.google.com/maps?cid=4305275256776870648,FALSE,34.6741536,135.6441474,〒579-8024 大阪府東大阪市南荘町９−１８,大韓キリスト教会枚岡教会
https://www.google.com/maps?cid=4856560687661782033,FALSE,34.6628871,135.6349488,〒579-8046 大阪府東大阪市昭和町２２−１２ HSKビル４F,クロスプレイス
https://www.google.com/maps?cid=7933631962003178875,FALSE,34.645528,135.616787,〒581-0831 大阪府八尾市山本町北７丁目８−２,日本キリスト教団 八尾東教会
https://www.google.com/maps?cid=17435396115225733697,FALSE,34.6617978,135.6383419,６-６−２１ 神田町 東大阪市 大阪府 579-8058,レムエル キリスト 教会 Lemuel Christ Church
https://www.google.com/maps?cid=8140689387444955026,FALSE,34.6682814,135.6052919,〒578-0941 大阪府東大阪市岩田町５丁目１５−２８,大阪シオン教会
https://www.google.com/maps?cid=125672054960290857,FALSE,34.6634009,135.6304439,〒578-0924 大阪府東大阪市吉田８丁目１−５,キリスト兄弟団東花園教会
https://www.google.com/maps?cid=15822006361720027593,FALSE,34.6751451,135.6422587,〒579-8024 大阪府東大阪市南荘町３−１９,日本基督教団 東大阪教会
https://www.google.com/maps?cid=1078395559809352572,FALSE,34.6622624,135.6194418,〒578-0937 大阪府東大阪市花園本町１丁目２−８,花園キリスト教会
https://www.google.com/maps?cid=12251840670349959992,FALSE,35.1654878,136.855583,〒453-0832 愛知県名古屋市中村区乾出町３丁目３４,名古屋シオンチャーチ
https://www.google.com/maps?cid=12934922559123132255,FALSE,34.7412624,135.2944152,２４-１３ 山芦屋町 芦屋市 兵庫県 659-0082,Grapevine Christian Church
https://www.google.com/maps?cid=8549570162157329471,FALSE,34.8360698,135.5978511,〒569-0818 大阪府高槻市桜ケ丘南町２２,アッセンブリー教団高槻キリスト教会
https://www.google.com/maps?cid=6724646682444673784,FALSE,34.838187,135.599168,〒569-0811 大阪府高槻市東五百住町３丁目１−２,高槻キリスト集会
https://www.google.com/maps?cid=15808046590303488278,FALSE,34.8419431,135.5896972,〒569-1142 大阪府高槻市宮田町２丁目９−２０,Ｓ・Ｄ・Ａ摂津富田集会所
https://www.google.com/maps?cid=9946486441901807841,FALSE,34.772295,137.43232,〒440-0012 愛知県豊橋市東小鷹野４丁目２１−２７,シオンチャーチ
https://www.google.com/maps?cid=5332972694336025371,FALSE,38.2572462,140.8758396,〒980-0811 宮城県仙台市青葉区一番町１丁目８−３４,Grace Center Church Sendai
https://www.google.com/maps?cid=3263722845377509886,FALSE,35.7178104,139.3396686,〒196-0003 東京都昭島市松原町５丁目２３−５,ジャパンキングダム教会
https://www.google.com/maps?cid=1618053235372333904,FALSE,34.6990873,135.5071728,〒530-0047 大阪府大阪市北区１１ 5丁目11−9,Ｊ・ｈｏｕｓｅ
https://www.google.com/maps?cid=8844140991863171898,FALSE,35.701407,139.707883,〒169-0072 東京都新宿区大久保２丁目６−１６ 平安 ビル 8A（8 階,ライトハウス新宿チャーチ
https://www.google.com/maps?cid=11709962146220546493,FALSE,37.9231364,139.0438765,〒951-8061 新潟県新潟市中央区西堀通６番町８７６ 千歳ビル 4F,ライトハウス・バプティスト・チャーチ
https://www.google.com/maps?cid=9727141689216723477,FALSE,34.7093978,135.4924285,〒531-0071 大阪府大阪市北区中津６丁目１−１３ 中津ビル 3F,MUSTARD SEEDクリスチャン教会
https://www.google.com/maps?cid=8916786103073896923,FALSE,34.7599958,135.5003037,江坂 パーク サイド スクエア 2 階 １丁目-１８-8 江坂町 吹田市 大阪府 564-0063,ライフチャーチ
https://www.google.com/maps?cid=16488187581150320671,FALSE,34.7601576,135.5017542,〒564-0062 大阪府吹田市垂水町３丁目２４−１２,ゴスペルセンター
https://www.google.com/maps?cid=9589151442456747269,FALSE,33.5823862,130.361307,〒814-0003 福岡県福岡市早良区城西１丁目８−３６,Lifetree Christ Church
https://www.google.com/maps?cid=9741250665890176388,FALSE,34.6820908,135.4822235,〒550-0021 大阪府大阪市西区川口１丁目３−８ 川口教会,日本聖公会 川口基督教会
https://www.google.com/maps?cid=2692335647001434476,FALSE,34.6895124,135.5037795,〒541-0043 大阪府大阪市中央区高麗橋２丁目６−２,日本基督教団浪花教会
https://www.google.com/maps?cid=14062288898324670891,FALSE,34.67767,135.49045,〒550-0013 大阪府大阪市西区新町３丁目１−１２ 日本基督協会大阪西協会,日本キリスト教会大阪西教会
https://www.google.com/maps?cid=4892423758963877923,FALSE,34.6916435,135.4908467,〒530-0005 大阪府大阪市北区中之島４丁目３−１３,日本キリスト教会大阪北教会
https://www.google.com/maps?cid=8819140821421048781,FALSE,34.68959,135.513996,〒540-0033 大阪府大阪市中央区中央区石町２丁目２−１,大阪天満橋キリスト教会
https://www.google.com/maps?cid=11855925130783905172,FALSE,34.692413,135.515955,〒530-0043 大阪府大阪市北区天満２丁目２−１０ ＳＤＡ大阪センタービル,SDA大阪センター 教会
https://www.google.com/maps?cid=991831340349007245,FALSE,34.6759187,135.5266844,〒540-0004 大阪府大阪市中央区玉造２丁目２６−４７,大阪インターナショナルチャーチ
https://www.google.com/maps?cid=2431940057078407137,FALSE,34.6770828,135.5091351,〒542-0081 大阪府大阪市中央区南船場１丁目８−５ 南船場SKビル 7F,ニュー・ホープ大阪インタナショナル・チャーチ
https://www.google.com/maps?cid=5829710879977767717,FALSE,34.650025,133.907359,〒700-0927 岡山県岡山市北区西古松１丁目２４−６,岡山ジョイフル プレイズチャーチ
https://www.google.com/maps?cid=8747569804912524753,FALSE,26.2381764,127.7769281,〒901-2417 沖縄県中頭郡中城村伊集１２１,カルバリーチャペル西原
https://www.google.com/maps?cid=9034240976843849230,FALSE,35.448116,139.381242,〒243-0421 神奈川県海老名市さつき町５１,グレース ガーデン チャーチ
https://www.google.com/maps?cid=10186794812083443870,FALSE,35.7124227,139.8677996,〒124-0024 東京都葛飾区新小岩３丁目２８−２１,Tokyo Immanuel Church / 東京インマヌエル教会/동경임마누엘교회
https://www.google.com/maps?cid=2793245112528218185,FALSE,35.7306396,139.7067954,〒171-0021 東京都豊島区西池袋３丁目３０ フェリース西池袋 2階,池袋マナ教会
https://www.google.com/maps?cid=11958493878318707484,FALSE,35.8067832,139.9481572,〒270-2251 千葉県松戸市金ケ作２１４,松戸聖パウロ教会・日本聖公会
https://www.google.com/maps?cid=1792390929918631996,FALSE,34.929887,137.1975343,〒444-0802 愛知県岡崎市美合町五反田３３−１,岡崎キリスト集会所
https://www.google.com/maps?cid=11083425916084208109,FALSE,35.7684149,139.5193549,〒352-0032 埼玉県新座市新堀３丁目９−３１,清瀬グレースチャペル
https://www.google.com/maps?cid=1208139788340288590,FALSE,40.8093973,140.383974,〒038-3135 青森県つがる市木造有楽町６４−４,日本基督教団木造教会
https://www.google.com/maps?cid=15078076321698014406,FALSE,34.337313,134.051874,〒760-0054 香川県高松市常磐町２丁目５−１５,高松コミュニティチャーチ
https://www.google.com/maps?cid=12937274588002016975,FALSE,34.3332097,134.0459542,〒760-0008 香川県高松市中野町２９−１８,グローリーチャーチ高松・ＪＥＣＡ
https://www.google.com/maps?cid=11861147128239686235,FALSE,38.2541177,140.8898163,〒984-0051 宮城県仙台市若林区新寺３丁目１３−３０,仙台あいのひかり教会
https://www.google.com/maps?cid=12272705506011227856,FALSE,36.3615914,139.0592344,〒371-0825 群馬県前橋市大利根町１丁目３８−７ CIT大利根ビル１０２,サンライズチャーチ前橋
https://www.google.com/maps?cid=2353017299382862450,FALSE,33.5788624,130.380077,〒810-0044 福岡県福岡市中央区六本松３丁目１０−３０,愛多キリスト教会
https://www.google.com/maps?cid=16530179224999860452,FALSE,34.5021836,135.4005986,〒595-0046 大阪府泉大津市上之町１−２２,オアシスチャーチ
https://www.google.com/maps?cid=12441907389483222646,FALSE,34.6531083,135.4909368,〒557-0021 大阪府大阪市西成区北開１丁目３−２４,エペソキリスト教会
https://www.google.com/maps?cid=15995916114590601296,FALSE,34.6823345,135.5020465,〒541-0054 大阪府大阪市中央区南本町３丁目３−２２ 本町エイトビル4階,Be One Osaka ビーワン大阪キリスト教会
https://www.google.com/maps?cid=6175830594248073226,FALSE,38.4181847,141.3656371,〒986-2121 宮城県石巻市渡波町１丁目９−２,カルバリーチャペル石巻
https://www.google.com/maps?cid=8156524602687240920,FALSE,34.7491045,135.5306604,〒533-0006 大阪府大阪市東淀川区上新庄２丁目１４−１８,大阪聖書教会
https://www.google.com/maps?cid=7059518344457591983,FALSE,26.4207542,127.7283888,８３ 瀬名波 読谷村 中頭郡 沖縄県 904-0325,カルバリーチャペル読谷 Calvary Chapel Yomitan
https://www.google.com/maps?cid=481838171575834560,FALSE,26.27342,127.7724463,１丁目-３-５ 赤道 宜野湾市 沖縄県 901-2205,Calvary Chapel Ginowan / Koinonia Surf Cafe
https://www.google.com/maps?cid=2701713444717267795,FALSE,35.7296851,139.9097372,〒272-0034 千葉県市川市市川１丁目３−１８,ニュー・クリエイション・チャーチ
https://www.google.com/maps?cid=7834234074420771498,FALSE,35.7013718,140.0894892,〒276-0034 千葉県八千代市八千代台西１丁目６−２,GFCF Yachiyodai
https://www.google.com/maps?cid=10611054322471624625,FALSE,35.7324776,139.7131973,２８山京ビル １丁目-４２-１４ 東池袋 豊島区 東京都 170-0013,Tokyo Life Church
https://www.google.com/maps?cid=1897990329851282943,FALSE,35.4532619,137.0168556,３５０１−２１ 蜂屋町 美濃加茂市 岐阜県 505-0004,Church of God Minokamo
https://www.google.com/maps?cid=6567691525312877700,FALSE,35.9018287,136.1569205,２丁目-３-９ 中央 越前市 福井県 915-0814,JCOB Fukui
https://www.google.com/maps?cid=8210780824926512804,FALSE,35.828161,139.3901413,〒358-0023 埼玉県入間市扇台３丁目９−３,JCOB入間市教会
https://www.google.com/maps?cid=7678082184218570929,FALSE,35.110693,138.9153636,3-19 ３ 南田町 三島市 静岡県 411-0837,JCOB Mishima
https://www.google.com/maps?cid=7822472363732342812,FALSE,35.1181351,138.8604745,1-45 １ 江原町 沼津市 静岡県 410-0049,JCOB Numazu
https://www.google.com/maps?cid=5946450316541803467,FALSE,35.8394869,139.7159603,２丁目-３６-１８ 前川 川口市 埼玉県 333-0842,JCOB Kawaguchi
https://www.google.com/maps?cid=1450716067479716707,FALSE,35.807537,139.9064096,６丁目-４４３−１７ 栄町 松戸市 千葉県 271-0062,JCOB Matsudo
https://www.google.com/maps?cid=15345364087326133825,FALSE,35.8931164,139.4911358,〒350-1137 埼玉県川越市砂新田１４３−５,JCOB川越教会
https://www.google.com/maps?cid=11605452669925164111,FALSE,35.9004266,139.7778801,２丁目-２４-２２ 北越谷 越谷市 埼玉県 343-0026,JCOB Koshigaya
https://www.google.com/maps?cid=3205053697326410510,FALSE,35.7100947,139.8291892,４丁目-４-５ 立花 墨田区 東京都 131-0043,JCOB Sumida Church / JCOB Japan Tokyo Office
https://www.google.com/maps?cid=2934282365588833874,FALSE,35.8070163,139.4509436,〒359-1111 埼玉県所沢市緑町４丁目７−１３ Excel Midori Bldg 3F,JCOB Tokorozawa
https://www.google.com/maps?cid=5379771867539876384,FALSE,36.0786253,139.9787123,〒300-2506 茨城県常総市三坂町1418ｰ4,コミュニティーチャーチ
https://www.google.com/maps?cid=16645889079828984184,FALSE,34.6948495,137.7545287,〒430-0852 静岡県浜松市中区領家３丁目２２−２,浜松恵みキリスト教会
https://www.google.com/maps?cid=4567480110679449868,FALSE,35.1060544,138.857815,〒410-0056 静岡県沼津市高島町２８−５,沼津イエス教会
https://www.google.com/maps?cid=17019435329758987986,FALSE,34.9933192,139.0590246,〒414-0001 静岡県伊東市宇佐美３２２６−２８６,HOUSE CHURCH イエスのあかしびと
https://www.google.com/maps?cid=6251139307768325219,FALSE,34.7342382,137.4204452,〒440-0843 愛知県 豊橋市東幸町東明１３５−３,FBCFI TOYOHASHI CHURCH
https://www.google.com/maps?cid=14392998400343544221,FALSE,35.0716879,138.8784621,〒410-0822 静岡県沼津市下香貫塚田２２９６−６,聖書友の会
https://www.google.com/maps?cid=18436621624007358948,FALSE,35.2248455,138.601054,〒418-0043 静岡県富士宮市泉町２０７,富士宮キリスト教会
https://www.google.com/maps?cid=9247878852229120664,FALSE,35.1088159,138.8965745,〒411-0906 静岡県駿東郡清水町八幡１６５,シオンクリスチャンフェロシップ伊豆
https://www.google.com/maps?cid=16549120757367215115,FALSE,34.994372,138.9409058,〒410-2323 静岡県伊豆の国市大仁１４１−１５,大仁キリスト教会
https://www.google.com/maps?cid=14708377521639504032,FALSE,34.6661248,135.6405441,〒579-8041 大阪府東大阪市喜里川町２−１８,アドラム キリスト教会
https://www.google.com/maps?cid=3006657650131411393,FALSE,35.1653284,138.679561,〒417-0073 静岡県富士市浅間本町１,イエス愛の教会
https://www.google.com/maps?cid=14484190715297855568,FALSE,34.6769193,133.7505745,〒719-1126 岡山県総社市総社２丁目２０−６,日本基督教団総社教会
https://www.google.com/maps?cid=3483537833253512691,FALSE,34.7409251,135.7974856,〒619-0221 京都府木津川市吐師松葉３５−１,カリスチャペル木津川
https://www.google.com/maps?cid=9001824557537390948,FALSE,34.7207433,135.7189096,〒630-0131 奈良県生駒市上町２２２６,カリスチャペル白庭台
https://www.google.com/maps?cid=3056990058324751871,FALSE,33.472022,130.560197,〒818-0013 福岡県筑紫野市岡田２丁目４５−２,カリスチャペル福岡
https://www.google.com/maps?cid=10571678750993675009,FALSE,44.4816663,142.3444234,〒098-2251 北海道中川郡美深町西１条北１丁目,基督聖協団美深教会
https://www.google.com/maps?cid=18032852645680915047,FALSE,43.7288889,143.7411111,〒099-1431 北海道常呂郡訓子府町東町２８−４,くんねっぷホープチャペル
https://www.google.com/maps?cid=18205942872320268098,FALSE,43.7592134,142.3307978,〒070-8015 北海道旭川市神居５条９丁目２−１２,Peace Community Church ピース コミュニティ チャーチ
https://www.google.com/maps?cid=953160461797667977,FALSE,43.785412,143.61217,〒091-0033 北海道北見市留辺蘂町栄町３２,キリスト兄弟団留辺蘂教会
https://www.google.com/maps?cid=7301039142131886313,FALSE,43.8222605,143.9199444,〒090-0801 北海道北見市春光町５丁目８−３１,北見めぐみキリスト教会
https://www.google.com/maps?cid=13329648397360627946,FALSE,43.797379,143.885224,〒090-0817 北海道北見市常盤町３丁目１６−４５,日本聖公会 北見聖ヤコブ教会
https://www.google.com/maps?cid=8532070374654978969,FALSE,43.827566,143.911729,〒090-0012 北海道北見市並木町５４６−７,キリスト北見こひつじ教会
https://www.google.com/maps?cid=1935480144506813319,FALSE,43.785399,143.6122093,,〒091-0033 北海道北見市留辺蘂町栄町３２
https://www.google.com/maps?cid=6627138760132730056,FALSE,43.085452,141.309293,〒063-0843 北海道札幌市西区八軒３条西２丁目２−１３,札幌八軒キリスト教会
https://www.google.com/maps?cid=6848602540334771888,FALSE,40.5833838,140.4683835,〒036-8231 青森県弘前市稔町１３−１,弘前学院大学礼拝堂
https://www.google.com/maps?cid=18020423490435355213,FALSE,38.2409143,140.865568,２１-１０ 八木山緑町 太白区 仙台市 宮城県 982-0832,杜の都仙台キリストの教会
https://www.google.com/maps?cid=5847565087976607895,FALSE,38.3103378,141.0157984,〒985-0025 宮城県塩竈市佐浦町１４−１４−６,塩釜恵みキリスト教会
https://www.google.com/maps?cid=8942629207270533042,FALSE,38.6806532,141.0642044,〒989-4601 宮城県登米市迫町新田上葉ノ木沢１,キリスト教信交会
https://www.google.com/maps?cid=11332541590206742896,FALSE,38.6799066,141.0613227,〒989-4601 宮城県登米市迫町新田上葉ノ木沢１,日本新生キリスト教会・新生園伝道所
https://www.google.com/maps?cid=9839051033056727923,FALSE,37.926683,139.046161,〒951-8063 新潟県新潟市中央区古町通１０番町１７２４ 古町通10番町1724−1,救世軍新潟小隊
https://www.google.com/maps?cid=14001609877995221580,FALSE,37.9206592,139.0405174,〒951-8115 新潟県新潟市中央区寺裏通２番町２６２,新潟キリスト集会
https://www.google.com/maps?cid=1409456794324400643,FALSE,35.6719945,138.5659466,〒400-0025 山梨県甲府市朝日５丁目４−１６,ニューライフインターナショナルチャーチ＆スクール
https://www.google.com/maps?cid=5637609203928815369,FALSE,35.6627866,138.4627627,１４１２−３５ 六科 南アルプス市 山梨県 400-0206,Igreja Missão Apoio (キリスト教会 支援ミッション)
https://www.google.com/maps?cid=16079356867353415014,FALSE,35.6880785,138.5394758,〒400-0074 山梨県甲府市千塚５丁目１４−１５,ライブチャーチ甲府
https://www.google.com/maps?cid=8153259586774219142,FALSE,35.7672804,138.44353,〒408-0204 山梨県北杜市明野町上手８１６４,明け野キリスト教会
https://www.google.com/maps?cid=5958452225413573837,FALSE,36.250024,138.479111,〒385-0051 長野県佐久市中込２９５７−１,佐久キリストの教会
https://www.google.com/maps?cid=5473483053822259914,FALSE,36.3937249,139.0700402,〒371-0022 群馬県前橋市千代田町３丁目５−１６,救世軍前橋小隊
https://www.google.com/maps?cid=11711487184996177100,FALSE,36.3203946,139.1995669,１０-１６ 本町 伊勢崎市 群馬県 372-0047,Igreja Universal Do Reino de Deus
https://www.google.com/maps?cid=4626170828460596605,FALSE,36.589482,138.855677,〒377-0423 群馬県吾妻郡中之条町伊勢町１３１１−２,中之条キリスト集会所
https://www.google.com/maps?cid=15108054534117798658,FALSE,36.5001329,138.9590364,〒377-0008 群馬県渋川市渋川御蔭３７０９,伊香保中央教会
https://www.google.com/maps?cid=1724147267416019919,FALSE,36.3665577,139.0995347,〒371-0811 群馬県前橋市朝倉町４丁目６−３,朝倉町キリスト集会所
https://www.google.com/maps?cid=2404824514416680835,FALSE,36.3207728,139.0158482,〒370-0841 群馬県高崎市栄町１８,高崎東キリストチャペル
https://www.google.com/maps?cid=5186384002976999915,FALSE,36.310806,138.802324,〒379-0222 群馬県安中市松井田町松井田３０８−３,松井田キリスト集会所
https://www.google.com/maps?cid=14486333431655725040,FALSE,36.3576356,138.6370385,〒389-0102 長野県北佐久郡軽井沢町 大字軽井沢８６２,軽井沢ユニオン・チャーチ
https://www.google.com/maps?cid=4315570613136394083,FALSE,36.314978,138.992361,〒370-0862 群馬県高崎市片岡町３丁目２８−９,片岡町キリスト集会所
https://www.google.com/maps?cid=15279718804428659335,FALSE,36.3365329,138.9652866,Takasaki Shi ５５５−３ 上豊岡町 群馬県 370-0871,Pentecostal Missionary CHURCH of CHRIST (4th Watch) GUNMA JAPAN
https://www.google.com/maps?cid=16889467882682980879,FALSE,36.588015,138.842897,〒377-0424 群馬県吾妻郡中之条町９４６−２,中之条キリスト教会
https://www.google.com/maps?cid=8821592431994211821,FALSE,36.3310497,139.0874638,〒379-2144 群馬県前橋市下川町２７−２ 単立,聖光キリスト教会
https://www.google.com/maps?cid=16791735669579506614,FALSE,36.3154197,139.5143291,〒326-0822 栃木県足利市田中町９０８−１３,Members Church of God International (Ang Dating Daan The Old Path) Tochigi Coordinating Center
https://www.google.com/maps?cid=6702788414112602645,FALSE,36.3112566,139.8257582,２丁目-１-１６ 犬塚 小山市 栃木県 323-0811,アッセンブリー・オブ・ゴッド - アッセンブレイア・ デ・ デウス 教会 - 大山市 - Assembleia de Deus - Min. Mooka - Belem - Oyama
https://www.google.com/maps?cid=2214879204424915338,FALSE,36.4073944,139.3312746,〒376-0022 群馬県桐生市稲荷町４−２３,桐生キリストチャペル
https://www.google.com/maps?cid=4503373075111581709,FALSE,36.411365,139.341814,〒376-0035 群馬県桐生市仲町２丁目２−１３,泉町教会
https://www.google.com/maps?cid=15337895177146042488,FALSE,36.3115747,139.8019783,〒323-0024 栃木県小山市宮本町２丁目２−２−１６,日本キリスト教会 小山伝道所
https://www.google.com/maps?cid=108401628457750074,FALSE,36.3820463,140.4612083,〒310-0063 茨城県水戸市五軒町３丁目１−４０,水戸愛の教会 (Mito Love Church)
https://www.google.com/maps?cid=13872163521606726245,FALSE,36.286763,139.873553,３丁目-１-７ 下り松 結城市 茨城県 307-0008,Iglesia de Yuki(TOCHIGI)
https://www.google.com/maps?cid=16789087051535450419,FALSE,36.2941685,139.871759,〒307-0052 茨城県結城市中央町１丁目４−３,Assembleia de Deus
https://www.google.com/maps?cid=18148690122524424545,FALSE,36.2665417,140.265789,〒315-0121 茨城県石岡市真家２５４２−７,希望の教会
https://www.google.com/maps?cid=17768825497100317375,FALSE,36.4476182,140.0011155,〒321-4361 栃木県真岡市並木町４丁目２０−１,アッセンブリーズ・オブ・ゴッド真岡キリスト教会
https://www.google.com/maps?cid=9206144382149114086,FALSE,36.033876,140.107711,〒305-0066 茨城県つくば市北中妻３９９−２,アガペーつくばチャペル第二会堂
https://www.google.com/maps?cid=12658270925338797877,FALSE,36.0789795,140.1286386,〒305-0024 茨城県つくば市倉掛３９４−３,つくば栄光キリスト教会
https://www.google.com/maps?cid=1279490861591863176,FALSE,35.720096,140.801396,〒288-0815 千葉県銚子市三崎町１丁目１８５８,銚子諸聖徒教会
https://www.google.com/maps?cid=5051408477829634946,FALSE,35.70362,140.543478,〒289-2145 千葉県匝瑳市若潮町１４−７,若潮教会
https://www.google.com/maps?cid=17450696708708920802,FALSE,35.7529303,140.2505437,〒270-1606 千葉県印西市平賀学園台２丁目４−９,イエス・キリスト・コミュニティ教会(ウィングヒルチャペル)
https://www.google.com/maps?cid=1140752280505633175,FALSE,35.5155155,140.363638,〒283-0046 千葉県東金市上谷３４６４−３６,JFAAC TOGANE
https://www.google.com/maps?cid=4406346377595125525,FALSE,35.493199,140.119009,〒290-0074 千葉県市原市東国分寺台２丁目１−１,市原シオンの山チャペル
https://www.google.com/maps?cid=8942754133619688282,FALSE,35.5191576,140.1566806,〒290-0003 千葉県市原市辰巳台東２丁目１０−２０,市原平安教会
https://www.google.com/maps?cid=1685326521666403714,FALSE,35.6158667,140.1232082,〒260-0017 千葉県千葉市中央区要町１０−２,千葉グレイスチャーチ
https://www.google.com/maps?cid=11938539123771514811,FALSE,35.614072,140.123722,〒260-0018 千葉県千葉市中央区院内１丁目２−６,千葉栄光教会
https://www.google.com/maps?cid=2518668109546872905,FALSE,35.6812072,140.0271943,〒275-0026 千葉県習志野市谷津２丁目８−１９,習志野教会
https://www.google.com/maps?cid=5763086094776065134,FALSE,35.708251,140.097929,〒276-0031 千葉県八千代市八千代台北１２丁目１０−１３,八千代聖書教会
https://www.google.com/maps?cid=6141999811156388529,FALSE,35.740162,140.021573,〒274-0813 千葉県船橋市南三咲２丁目１７−５,基督兄弟団南三咲キリスト教会
https://www.google.com/maps?cid=13318966095465003789,FALSE,35.698819,139.9877814,〒273-0005 千葉県船橋市本町４丁目１９,ＴＬＣＣＣ船橋キリスト教会
https://www.google.com/maps?cid=17878474378450942293,FALSE,35.737653,139.885415,〒133-0051 東京都江戸川区北小岩２丁目２０−１８,小岩 愛泉教会
https://www.google.com/maps?cid=8883441447156719703,FALSE,35.724934,139.786492,〒110-0004 東京都台東区下谷３丁目８−１２ 会館,救世軍上野小隊
https://www.google.com/maps?cid=2875496149740257634,FALSE,35.6816491,139.785141,〒103-0014 東京都中央区日本橋蛎殻町１丁目３４,小さい者達の宣教団　日本橋教会
https://www.google.com/maps?cid=17271451331552693511,FALSE,35.7019995,139.8165449,〒130-0012 東京都墨田区太平４丁目１１−４,救世軍江東小隊
https://www.google.com/maps?cid=11567493898187539128,FALSE,35.680764,139.834294,〒136-0073 東京都江東区北砂５丁目１４−７,砂町教会
https://www.google.com/maps?cid=1699544218257807784,FALSE,35.6801599,139.8346223,５丁目-１４-１７ 北砂 江東区 東京都 136-0073,Pentecostal Missionary Church of Christ (4th Watch) - Tokyo
https://www.google.com/maps?cid=8752783713110188157,FALSE,35.7330404,139.8843554,〒133-0056 東京都江戸川区南小岩８丁目１１−８,和平キリスト教会
https://www.google.com/maps?cid=11553378314413403580,FALSE,35.6840055,139.9132542,〒272-0133 千葉県市川市行徳駅前２丁目１−１９ Ａ２Ｆ,インマヌエル行徳駅前キリスト教会
https://www.google.com/maps?cid=14759391685653548471,FALSE,35.834226,139.838133,〒340-0802 埼玉県八潮市鶴ケ曽根６１−３,八潮ホープフル・チャーチ
https://www.google.com/maps?cid=16300175881566326532,FALSE,35.777306,139.878731,〒125-0041 東京都葛飾区東金町５丁目３４−１１,ゴスペルチャペル
https://www.google.com/maps?cid=12391057428377936846,FALSE,35.819131,139.913833,〒270-0035 千葉県松戸市新松戸南１丁目３８２,ジョイチャペル
https://www.google.com/maps?cid=6573118795501070773,FALSE,35.7891967,139.9133922,〒271-0065 千葉県松戸市南花島３丁目４８−５,松戸キリストの教会
https://www.google.com/maps?cid=4771138717927547141,FALSE,35.7852624,139.9027184,〒271-0073 千葉県松戸市小根本２０−４６,松戸キリスト教会
https://www.google.com/maps?cid=16298652251946186,FALSE,35.7810286,139.8198494,〒121-0074 東京都足立区西加平２丁目８−３２,セブンスデー・アドベンチスト足立キリスト教会
https://www.google.com/maps?cid=11611865097397434256,FALSE,35.82963,139.7027148,〒333-0847 埼玉県川口市芝中田２丁目２０−５,救世軍川口小隊
https://www.google.com/maps?cid=3116542762828365308,FALSE,35.7729342,139.5858192,〒178-0061 東京都練馬区大泉学園町６丁目２８−３ 日本同盟 キリスト教団,大泉聖書教会
https://www.google.com/maps?cid=7321154779248167783,FALSE,35.7950748,139.5713943,〒352-0012 埼玉県新座市畑中１丁目２−３,クリスチャン・ライフ・センター 新座教会
https://www.google.com/maps?cid=5868526527377258324,FALSE,35.7763067,139.5592098,〒352-0023 埼玉県新座市堀ノ内３丁目４−４０,新座ニューライフ・チャペル
https://www.google.com/maps?cid=10696931431211892790,FALSE,35.7802211,139.5526119,〒352-0022 埼玉県新座市本多１丁目８,新座キリスト教会
https://www.google.com/maps?cid=16763407647203897172,FALSE,35.814866,139.672209,〒335-0021 埼玉県戸田市新曽２４５,戸田キリスト教会
https://www.google.com/maps?cid=12439923354126010775,FALSE,35.7829323,139.4685967,〒359-1125 埼玉県所沢市南住吉１０−８ ホープチャペル,ホープチャペル所沢
https://www.google.com/maps?cid=16692694493613837518,FALSE,35.8091207,139.3781138,〒358-0014 埼玉県入間市宮寺３１８５−１５,New Life Family Church
https://www.google.com/maps?cid=1088793074181692412,FALSE,35.7950619,139.4640194,〒359-1143 埼玉県所沢市宮本町１丁目３−１８ 2F,埼玉ペンテコステ教会/バイブルフェローシップ所沢/Saitama Pentecostal Church
https://www.google.com/maps?cid=850038160412103176,FALSE,35.8046167,139.4442595,６-１６ 榎町 所沢市 埼玉県 359-1104,International Church Tokorozawa (ICCS)
https://www.google.com/maps?cid=9488593077116985019,FALSE,35.786476,139.470782,〒359-1124 埼玉県所沢市東住吉１１−９,ヴィンヤードクリスチャンフェローシップ所沢
https://www.google.com/maps?cid=8435495459388400908,FALSE,35.8075146,139.3534372,〒358-0035 埼玉県入間市中神１０１,入間愛の教会
https://www.google.com/maps?cid=15335172605204234398,FALSE,35.7898443,139.4493657,〒359-1142 埼玉県所沢市上新井１丁目３２−２２,キリスト教西所沢教会
https://www.google.com/maps?cid=16784956881802210967,FALSE,35.781914,139.488473,〒359-0025 埼玉県所沢市上安松３４１−１,真イエス教会東京教会
https://www.google.com/maps?cid=13652944277875289761,FALSE,35.7951026,139.4639693,〒359-1143 埼玉県所沢市宮本町１丁目３,パイブル　フェローシップ所沢
https://www.google.com/maps?cid=15349691098406429397,FALSE,35.811752,139.4215624,〒359-1106 埼玉県所沢市東狭山ケ丘３丁目６６９−１,狭山ヶ丘チャペル
https://www.google.com/maps?cid=16482100445748649586,FALSE,35.837473,139.359232,〒358-0053 埼玉県入間市仏子８７１−１３,入間チャペル
https://www.google.com/maps?cid=14663063385909208026,FALSE,35.8100282,139.4605431,〒359-0045 埼玉県所沢市美原町１丁目２９２７−２ ファインライフ新所沢 ２０５,所沢教会福音センター
https://www.google.com/maps?cid=5416055776107082197,FALSE,35.713607,139.3390833,〒196-0004 東京都昭島市緑町５丁目９−３,西東京イエス中心教会
https://www.google.com/maps?cid=3749778007236599567,FALSE,35.7609591,139.316133,東洋第５ビル ４丁目-６-９ 五ノ神 羽村市 東京都 205-0011,PMCC4W
https://www.google.com/maps?cid=4586446616948647058,FALSE,35.7354034,139.4107978,〒208-0013 東京都武蔵村山市大南５丁目３０−１５,武蔵村山バイブルチャーチ
https://www.google.com/maps?cid=6795789052441084792,FALSE,35.74329,139.472542,〒189-0012 東京都東村山市萩山町３丁目２６−１２ 神の教会,萩山神の教会
https://www.google.com/maps?cid=7697284728133878555,FALSE,35.726305,139.342793,〒197-0003 東京都福生市熊川１４３７−１,横田クリスチャンセンター
https://www.google.com/maps?cid=6527088425486444342,FALSE,35.748042,139.471953,〒189-0013 東京都東村山市栄町２丁目２５−４６,聖書キリスト久米川教会
https://www.google.com/maps?cid=17501680762723202725,FALSE,35.7566375,139.4830571,〒189-0011 東京都東村山市恩多町３丁目１９−１５,恩多キリスト教会
https://www.google.com/maps?cid=1304884030017059128,FALSE,35.719889,139.418689,〒190-0004 東京都立川市柏町１丁目１−１−９,立川キリストの教会
https://www.google.com/maps?cid=11793263715076604184,FALSE,35.6129802,139.3523476,〒192-0375 東京都八王子市鑓水２丁目１０,日本聖公会 鑓水聖ケネス礼拝堂
https://www.google.com/maps?cid=3215618951131357564,FALSE,35.637745,139.415954,〒192-0352 東京都八王子市大塚１２５,日本ユナイテッド・ペンテコステ教団 東京ユナイト ペンテコステ教会
https://www.google.com/maps?cid=16088461603842757363,FALSE,35.6387327,139.3591638,〒192-0912 東京都八王子市絹ケ丘２丁目２−１９,ICBF八王子チャーチ
https://www.google.com/maps?cid=12152925359128556032,FALSE,35.642357,139.4107474,〒192-0351 東京都八王子市東中野 228,日本アッセンブリーズ・オブ・ゴッド 多摩ヒルサイドチャーチ教会
https://www.google.com/maps?cid=18112944147713600151,FALSE,35.677106,139.36562,〒192-0032 東京都八王子市石川町２６０５−３,八王子キリスト告白教会
https://www.google.com/maps?cid=405999151366284939,FALSE,35.4503141,139.3953232,２丁目-９-５０ 中央 海老名市 神奈川県 243-0432,Lifehouse International Church Atsugi
https://www.google.com/maps?cid=10097251414450921710,FALSE,35.470485,139.439507,〒242-0028 神奈川県大和市桜森２丁目１０−１,エオバニシ教会
https://www.google.com/maps?cid=4129949340477939685,FALSE,35.4372194,139.3636444,〒243-0014 神奈川県厚木市旭町１丁目２２−２３ 宝栄ビル 2F,厚木聖書キリスト教会
https://www.google.com/maps?cid=13082514622436534956,FALSE,35.43773,139.36087,〒243-0018 神奈川県厚木市中町４丁目１０−４,恵みと平安の教会
https://www.google.com/maps?cid=7941198179573054417,FALSE,35.4707501,139.4900076,〒246-0013 神奈川県横浜市瀬谷区相沢１丁目３７−１７,Ariseキリスト教会
https://www.google.com/maps?cid=9020384354037580069,FALSE,35.398337,139.465688,〒252-0804 神奈川県藤沢市湘南台４丁目１−１１,湘南セントラルチャーチ
https://www.google.com/maps?cid=955508722232975107,FALSE,35.352219,139.4309432,〒253-0001 神奈川県茅ヶ崎市赤羽根３１４８,赤羽根チャペル(茅ヶ崎聖契キリスト教会)
https://www.google.com/maps?cid=16979318710396208450,FALSE,35.442372,139.632187,〒231-0033 神奈川県横浜市中区長者町５−８５,エブリネイションチャーチ横浜
https://www.google.com/maps?cid=7171461278819789865,FALSE,35.426029,139.580104,〒232-0066 神奈川県横浜市南区六ツ川２丁目１２５−１３,日本基督教団六ツ川教会
https://www.google.com/maps?cid=9803473160315946514,FALSE,35.4144787,139.623679,〒235-0015 神奈川県横浜市磯子区久木町１３−１０,磯子フィラデルフィア教会 （プロテスタント）
https://www.google.com/maps?cid=5025308062073109029,FALSE,35.393963,139.513153,〒245-0061 神奈川県横浜市戸塚区汲沢３丁目３５−１８ 聖イエス教会,聖イエス横浜教会
https://www.google.com/maps?cid=17931038871845796086,FALSE,35.415155,139.559844,〒233-0016 神奈川県横浜市港南区下永谷６丁目７−５４,横浜永谷キリスト教会
https://www.google.com/maps?cid=9299376277607556003,FALSE,35.5848932,139.7294981,〒143-0016 東京都大田区大森北１丁目２６−９ 会館,救世軍大森小隊
https://www.google.com/maps?cid=1843104628694978718,FALSE,35.565351,139.704299,〒146-0094 東京都大田区東矢口１丁目１４−１１,蒲田新生教会
https://www.google.com/maps?cid=7182863866844702398,FALSE,35.5186037,139.6725478,PMCC 4th Watch Kanagawa (formerly Kawasaki) １丁目-９-１６ 下末吉 鶴見区 横浜市 神奈川県 230-0012,PMCC 4th Watch Kawasaki
https://www.google.com/maps?cid=17896474392046215925,FALSE,35.5220214,139.6896571,〒210-0025 神奈川県川崎市川崎区下並木６６,チャーチ・オブ・ゴッド 川崎南部キリスト教会
https://www.google.com/maps?cid=7999183253742536401,FALSE,35.5386506,139.5620753,原ビル ６-３６ 葛が谷 都筑区 横浜市 神奈川県 224-0062,Connect-Yokohama
https://www.google.com/maps?cid=13476573319594834554,FALSE,35.6200142,139.5616539,〒214-0014 神奈川県川崎市多摩区登戸１７８０,Paz Church
https://www.google.com/maps?cid=17561860353528138831,FALSE,35.629002,139.4756593,〒206-0822 東京都稲城市坂浜２６１２−３,若葉台いずみ教会
https://www.google.com/maps?cid=10137687034193870166,FALSE,35.6807808,139.6068933,〒168-0071 東京都杉並区高井戸西１丁目１４−５,富士見ケ丘・キリスト教会
https://www.google.com/maps?cid=14628467627430585259,FALSE,35.6900502,139.6596377,〒166-0012 東京都杉並区和田２丁目２１,救世軍杉並小隊
https://www.google.com/maps?cid=10730104042727388000,FALSE,35.656591,139.573112,〒182-0006 東京都調布市西つつじケ丘４丁目２−８,栄光の福音キリスト教団東京教会宗教法人
https://www.google.com/maps?cid=16136665667642601239,FALSE,35.6474982,139.6348781,〒156-0052 東京都世田谷区経堂５丁目２９−１１,経堂キリスト集会
https://www.google.com/maps?cid=12351364190833457667,FALSE,35.7306142,139.6007049,〒177-0042 東京都練馬区下石神井５丁目１１−７,日本基督教団 下石神井教会
https://www.google.com/maps?cid=6412048843128638679,FALSE,35.7271767,139.5757723,〒177-0051 東京都練馬区関町北２丁目２８−７ 小澤ビル 2F,カルバリーチャペル西東京
https://www.google.com/maps?cid=8930406925205139056,FALSE,35.7151547,139.6743554,〒164-0002 東京都中野区上高田３丁目１７−１３,東京シャローム教会
https://www.google.com/maps?cid=3489002670411739670,FALSE,35.7097712,139.5726349,〒180-0001 東京都武蔵野市吉祥寺北町３丁目４−４,吉祥寺エルサレム教会
https://www.google.com/maps?cid=17677379398832305189,FALSE,35.7018811,139.5489327,〒180-0023 東京都武蔵野市境南町１丁目６−２,武蔵野泉教会
https://www.google.com/maps?cid=15147487487553554004,FALSE,35.7195088,139.5845105,〒177-0053 東京都練馬区関町南２丁目８−４ 東京三育小学校内,セブンスデーアドベンチスト三育関町教会
https://www.google.com/maps?cid=10901243568723709205,FALSE,35.706912,139.624419,〒167-0032 東京都杉並区天沼２丁目５−２３,荻窪北伝道教会
https://www.google.com/maps?cid=5640163387858100092,FALSE,35.715362,139.675501,〒164-0002 東京都中野区上高田４丁目４６−９,シオンの群教会
https://www.google.com/maps?cid=1520803467508755285,FALSE,35.7231004,139.680501,〒161-0031 東京都新宿区西落合３丁目１４,神の家キリスト教会
https://www.google.com/maps?cid=17347110321792322752,FALSE,35.739387,139.677652,〒176-0004 東京都練馬区小竹町１丁目３２−６,日本聖公会練馬ガブリエル教会
https://www.google.com/maps?cid=9777468925816095468,FALSE,35.7437702,139.7600228,〒116-0011 東京都荒川区西尾久４丁目７−１６,ジーザスネームチャーチ
https://www.google.com/maps?cid=13270118291826747951,FALSE,35.7600838,139.7275529,〒114-0032 東京都北区中十条１丁目２２−８,日本基督教団十条伝道所
https://www.google.com/maps?cid=8050564810921885534,FALSE,35.7380596,139.7694484,〒114-0012 東京都北区田端新町１丁目２６,谷中キリスト教会
https://www.google.com/maps?cid=5993961101287540504,FALSE,35.7680294,139.6619183,〒179-0081 東京都練馬区北町２丁目３８−２,イクトゥス キリスト教会
https://www.google.com/maps?cid=4038289386586138699,FALSE,35.7625382,139.6969235,〒174-0062 東京都板橋区富士見町２９,板橋キリスト教会
https://www.google.com/maps?cid=15824552581757953051,FALSE,35.6931593,139.7212474,〒162-0065 東京都新宿区住吉町８−８ 白砂ビル 4F,東京神的教會
https://www.google.com/maps?cid=13745438144923268413,FALSE,34.7478731,135.3560562,〒662-0832 兵庫県西宮市甲風園１丁目８−１１,クロスロード西宮
https://www.google.com/maps?cid=3442302732187700750,FALSE,34.680538,133.86446,〒701-1213 岡山県岡山市北区西辛川１０−３,岡山第一キリスト教会
https://www.google.com/maps?cid=6709820723585988336,FALSE,33.8652465,130.7905613,〒805-0067 福岡県北九州市八幡東区祇園１丁目１−３,北九州泉キリスト教会
https://www.google.com/maps?cid=1370116689258866161,FALSE,43.800928,143.8391389,〒090-0838 北海道北見市西三輪２丁目６３０−５１,北見ベテルキリスト教会
https://www.google.com/maps?cid=401072278883287109,FALSE,43.1246253,141.7510329,〒068-0111 北海道岩見沢市栗沢町由良７４０−２２,札幌キリスト福音館 栗沢キリスト教会
https://www.google.com/maps?cid=10642113944301269136,FALSE,43.056689,141.475258,〒004-0073 北海道札幌市厚別区厚別北３条３丁目１５−２２ 森林公園教会,日本キリスト教会森林公園教会
https://www.google.com/maps?cid=4985995604539458323,FALSE,40.6860698,141.3756198,〒033-0032 青森県三沢市緑町３丁目３−１６ 三沢恩恵教会,三沢韓国恩恵
https://www.google.com/maps?cid=3974892672333107501,FALSE,38.7259945,139.823431,〒997-0034 山形県鶴岡市本町３丁目５−３０,東北教区鶴岡聖公会
https://www.google.com/maps?cid=10175840019566708525,FALSE,38.9181592,141.4793381,〒029-1201 岩手県一関市室根町折壁五反田８３−６,震災復興支援センターオリーブ オリーブキリスト教会
https://www.google.com/maps?cid=2319197244261090462,FALSE,39.741348,140.115501,〒010-0802 秋田県秋田市外旭川山崎２８２−１,秋田イエス之御霊教会
https://www.google.com/maps?cid=559976409199454706,FALSE,38.317636,140.9222079,〒981-3109 宮城県仙台市泉区鶴が丘１丁目３４−７,元気キリスト教会
https://www.google.com/maps?cid=14698430791555527318,FALSE,36.405567,138.270681,〒386-0002 長野県上田市住吉２１８−３,上田聖書教会
https://www.google.com/maps?cid=15142144333656083089,FALSE,36.6839496,137.2136253,〒930-0065 富山県富山市星井町２丁目６ 富山聖マリア教会,富山聖マリヤ教会
https://www.google.com/maps?cid=13064635089115044767,FALSE,36.2252568,136.1356101,〒913-0057 福井県坂井市三国町米ケ脇５丁目８−３,The Lighthouse 759
https://www.google.com/maps?cid=9402007241295977860,FALSE,36.511071,136.6269713,〒921-8145 石川県金沢市額谷１丁目１６−２,金沢あおぞら教会
https://www.google.com/maps?cid=4578568525900643439,FALSE,36.656203,138.240841,〒381-0014 長野県長野市北尾張部９２−１,長野イエス之御霊教会
https://www.google.com/maps?cid=13382805342469078486,FALSE,36.3294612,137.8869494,〒399-8304 長野県安曇野市穂高柏原１６７８−１,穂高白金教会
https://www.google.com/maps?cid=15626207242732517095,FALSE,36.6834891,137.2004524,〒939-8206 富山県富山市布瀬町１丁目４−５７,富山ホサナキリスト教会
https://www.google.com/maps?cid=15511575374739006706,FALSE,36.221608,138.353593,〒384-2205 長野県佐久市春日２９３４−１０,春日キリスト教会
https://www.google.com/maps?cid=449847019055664196,FALSE,36.8233534,140.7081836,〒319-1538 茨城県北茨城市華川町小豆畑４９６−２,華川キリスト教会
https://www.google.com/maps?cid=16320049802608334079,FALSE,36.9420319,139.9562948,〒329-2806 栃木県那須塩原市横林１４４−５２,家の教会 シオン
https://www.google.com/maps?cid=7323471348398118035,FALSE,36.8819772,139.9653519,〒329-2733 栃木県那須塩原市二区町３５１−１４,アッセンブリーズ•オブ•ゴッド真岡キリスト教会 那須塩原伝道所
https://www.google.com/maps?cid=12694040838769115846,FALSE,35.1530161,140.318469,〒299-5235 千葉県勝浦市出水１１０８,勝浦キリスト教会
https://www.google.com/maps?cid=11621095397874726098,FALSE,35.432477,139.962846,〒299-0263 千葉県袖ケ浦市奈良輪２２２,日本ナザレン教団 昭和町教会
https://www.google.com/maps?cid=14984699585448828999,FALSE,35.424395,140.301686,〒297-0023 千葉県茂原市千代田町２丁目４−５,茂原イエス愛の教会
https://www.google.com/maps?cid=15440264011095253134,FALSE,35.410559,140.020646,〒299-0233 千葉県袖ケ浦市岩井３４３−１,袖ケ浦キリスト教会
https://www.google.com/maps?cid=16126924841883616757,FALSE,35.747326,140.3759457,〒286-0111 千葉県成田市三里塚４７−２,三里塚教会
https://www.google.com/maps?cid=2820752236665505804,FALSE,35.661289,140.114116,〒263-0005 千葉県千葉市稲毛区長沼町１９４−２,聖イエス会千葉シャローム教会
https://www.google.com/maps?cid=16519694863506507978,FALSE,35.4262262,140.3073256,〒297-0029 千葉県茂原市高師５８５−４,セブンスデー・アドベンチスト茂原キリスト教会
https://www.google.com/maps?cid=17184651414303497556,FALSE,35.5663497,140.1745902,〒266-0011 千葉県千葉市緑区鎌取町１１２−２３,JRL日本リバイバル連盟 キリスト平安教会 憩いの場
https://www.google.com/maps?cid=10804504244258983222,FALSE,35.621779,140.072468,〒261-0003 千葉県千葉市美浜区高浜１丁目１４−５−１０８,日本キリスト教団美浜教会
https://www.google.com/maps?cid=7722724386052614243,FALSE,35.5436941,140.4066486,〒283-0031 千葉県東金市薄島８６４−４,栄光キリスト教会
https://www.google.com/maps?cid=8983704183768256750,FALSE,35.6521511,140.0964202,〒263-0054 千葉県千葉市稲毛区宮野木町８３５−７８,めぐみイエス・キリスト教会
https://www.google.com/maps?cid=10637914312801247055,FALSE,35.633033,140.172884,〒264-0007 千葉県千葉市若葉区小倉町１７３７−７８,千葉イエス之御霊教会
https://www.google.com/maps?cid=13352102111249228654,FALSE,35.654128,140.089871,〒262-0015 千葉県千葉市花見川区宮野木台１丁目１０−１,みどりごキリスト教会
https://www.google.com/maps?cid=14302215881467518902,FALSE,35.6936376,140.0658246,〒275-0002 千葉県習志野市実籾５丁目２７−１６,みもみキリスト教会（宗教法人）
https://www.google.com/maps?cid=5356749300352103702,FALSE,36.087065,140.19632,〒300-0045 茨城県土浦市文京町２−２０,土浦キリスト友会
https://www.google.com/maps?cid=12774646593565349507,FALSE,36.0334673,140.1061332,〒305-0065 茨城県つくば市南中妻５９７−４,ICBFつくばチャーチ
https://www.google.com/maps?cid=5762863620254057582,FALSE,35.970226,140.39832,〒300-0643 茨城県稲敷市上馬渡１２３−１,土浦キリスト愛の教会
https://www.google.com/maps?cid=9484090051769983454,FALSE,35.86607,140.041469,〒270-1143 千葉県我孫子市天王台６丁目１０−２,天王台 キリスト集会所
https://www.google.com/maps?cid=15476600581997374431,FALSE,35.8680521,140.0074026,〒270-1154 千葉県我孫子市白山２丁目１４−５,イムマヌエル・ミッション・ハウス
https://www.google.com/maps?cid=4138387399154401012,FALSE,35.8414778,139.9684368,〒277-0071 千葉県柏市豊住５丁目１０−２８,キリスト教ひかり教会
https://www.google.com/maps?cid=1142607409193148496,FALSE,35.846538,139.951453,〒270-0141 千葉県流山市松ケ丘１丁目４６２−７９,南柏聖書教会
https://www.google.com/maps?cid=16958001833787051748,FALSE,36.1353448,140.0766726,〒300-3253 茨城県つくば市大曽根３７９３−２,アガペー大穂チャペル
https://www.google.com/maps?cid=16632394974041720494,FALSE,36.0976316,140.2130238,〒300-0026 茨城県土浦市木田余２９９５,ぶどうの木キリスト教会 土浦チャペル
https://www.google.com/maps?cid=18273338451477054505,FALSE,35.9021577,140.1856325,〒301-0826 茨城県龍ケ崎市栄町,キリスト兄弟団　竜ヶ崎教会
https://www.google.com/maps?cid=17773923513111420530,FALSE,35.8457376,140.0130309,〒277-0913 千葉県柏市五條谷４９−１,シロアムキリスト教会
https://www.google.com/maps?cid=14539726136615452271,FALSE,35.9120227,139.9097021,〒270-0101 千葉県流山市 東深井４５４－５,運河キリスト教会
https://www.google.com/maps?cid=13115771816992228159,FALSE,35.877925,140.140581,〒300-1636 茨城県北相馬郡利根町羽根野８５０−１５１,利根キリスト教会
https://www.google.com/maps?cid=15576347651429042328,FALSE,35.824615,139.560274,〒353-0006 埼玉県志木市館１丁目５−８,志木新座めぐみ教会
https://www.google.com/maps?cid=11880417205373470105,FALSE,36.106131,139.441466,〒369-0113 埼玉県鴻巣市５ 下忍3829−2,吹上キリスト教会
https://www.google.com/maps?cid=4783372876475021664,FALSE,35.9536792,139.3444958,〒350-0434 埼玉県入間郡毛呂山町市場１１３２−１,東洋ローア・キリスト伝道教会
https://www.google.com/maps?cid=5925513577803619556,FALSE,35.816525,139.6989651,〒335-0003 埼玉県蕨市南町３丁目１２−２,蕨めぐみキリスト教会
https://www.google.com/maps?cid=7350203780548661716,FALSE,35.8796879,139.6213348,〒338-0004 埼玉県さいたま市中央区本町西１丁目３−６,与野キリスト教会
https://www.google.com/maps?cid=4882692716169435213,FALSE,35.9782147,139.7524368,〒344-0067 埼玉県春日部市中央１丁目５１−７,春日部福音自由教会 中央会堂
https://www.google.com/maps?cid=7743293865059137558,FALSE,35.811197,139.665721,〒335-0026 埼玉県戸田市新曽南２丁目１０−１４,恵泉キリスト教会 埼京のぞみチャペル
https://www.google.com/maps?cid=15397698806351007554,FALSE,35.8056933,139.7066062,〒332-0022 埼玉県川口市仲町３−２８,真イエス教会川口教会
https://www.google.com/maps?cid=15274883581371534735,FALSE,36.057495,139.399474,〒355-0007 埼玉県東松山市野田１１１５−１,イエスキリスト東松山教会
https://www.google.com/maps?cid=4697548253016223367,FALSE,36.0619603,139.3941488,〒355-0008 埼玉県東松山市大谷１３２６,セブンスデー・アドベンチスト東松山キリスト教会
https://www.google.com/maps?cid=4037769584894438276,FALSE,35.8387585,139.6968112,〒333-0869 埼玉県川口市芝宮根町１−２１,シャロームコミュニティチャーチ 愛のあふれるキリスト教会
https://www.google.com/maps?cid=261798007265096162,FALSE,35.8761723,139.7514129,〒333-0801 埼玉県川口市東川口２丁目２２,川口キリスト教会
https://www.google.com/maps?cid=3256771883424333661,FALSE,35.6992378,139.5021347,〒184-0004 東京都小金井市本町６丁目７−３,日本基督教団 小金井西ノ台教会
https://www.google.com/maps?cid=3914352575430618213,FALSE,35.7696349,139.5081074,〒204-0023 東京都清瀬市竹丘１丁目１７−６１,救世軍清瀬小隊
https://www.google.com/maps?cid=5077971109215739510,FALSE,35.674748,139.47517,〒183-0056 東京都府中市寿町２丁目８−８−９,府中キリスト集会所
https://www.google.com/maps?cid=670471319700645289,FALSE,35.7014809,139.5553278,〒181-0012 東京都三鷹市上連雀２丁目２０−２４,キリスト兄弟団 三鷹教会
https://www.google.com/maps?cid=6717407862713161426,FALSE,35.841194,139.342452,〒357-0023 埼玉県飯能市岩沢７６８−３,元加治キリスト教会
https://www.google.com/maps?cid=4312697481187393653,FALSE,35.7272815,139.3904751,〒190-0032 東京都立川市 上砂町4丁目32−38,三多摩イエス之御霊教会
https://www.google.com/maps?cid=7781405900818668926,FALSE,35.723909,139.48803,〒187-0043 東京都小平市学園東町３−５−５,シャロームキリスト教会
https://www.google.com/maps?cid=267299330191355843,FALSE,35.846304,139.334425,〒357-0023 埼玉県飯能市岩沢６−２,飯能キリスト教会
https://www.google.com/maps?cid=14164945816229123393,FALSE,35.7582833,139.4714983,〒189-0014 東京都東村山市本町３丁目９−９５,東村山キリスト教会
https://www.google.com/maps?cid=17123015965807700603,FALSE,35.7296224,139.5265571,〒188-0014 東京都西東京市芝久保町３丁目４−３０ ケルン田無２,聖書キリスト教会 西東京教会
https://www.google.com/maps?cid=14617783725536395651,FALSE,35.7366283,139.5074205,〒187-0002 東京都小平市花小金井４丁目１２−６,日本キリスト兄弟団 弥生台キリスト教会
https://www.google.com/maps?cid=11550658676706577836,FALSE,35.8196225,139.4127663,〒358-0011 埼玉県入間市下藤沢５１−７,福音チャペルキリスト教会
https://www.google.com/maps?cid=7723529662985931531,FALSE,35.7070835,139.4972735,〒184-0015 東京都小金井市貫井北町２丁目１５−９,日本アライアンス教団 東京キリスト教会
https://www.google.com/maps?cid=13107832983453318395,FALSE,35.433312,139.60587,〒232-0053 神奈川県横浜市南区井土ケ谷下町２８−３３,救世軍横浜小隊
https://www.google.com/maps?cid=15255670805489269849,FALSE,35.431348,139.566313,〒244-0802 神奈川県横浜市戸塚区平戸４丁目２９−１５,東戸塚エルシオン教会
https://www.google.com/maps?cid=1459205882971650853,FALSE,35.3889242,139.4731706,〒252-0813 神奈川県藤沢市亀井野３５９−１５,ライフチャペルインターナショナル
https://www.google.com/maps?cid=16432926685524295425,FALSE,35.256429,139.7077628,〒239-0803 神奈川県横須賀市桜が丘２丁目２８−３ 馬堀聖書教会,馬堀聖書教会徳梅陽介
https://www.google.com/maps?cid=5266353505550445336,FALSE,35.3648482,139.4450574,〒251-0861 神奈川県藤沢市大庭５５４１−１２,湘南エクレシアキリスト教会
https://www.google.com/maps?cid=8409913037598276151,FALSE,35.256563,139.668478,〒238-0022 神奈川県横須賀市公郷町３丁目６,横須賀第一キリストの教会
https://www.google.com/maps?cid=3704103843156727985,FALSE,35.3795618,139.4763333,〒252-0813 神奈川県藤沢市亀井野３丁目３０−６,藤沢467キリスト教会
https://www.google.com/maps?cid=9127811239287829915,FALSE,35.4386558,139.335863,〒243-0039 神奈川県厚木市温水西１丁目１６−８,恵の泉キリスト教会
https://www.google.com/maps?cid=10504022129491525526,FALSE,35.4587105,139.4258372,〒252-1132 神奈川県綾瀬市寺尾中１丁目１７−２４,ユニバーサルキリスト教会
https://www.google.com/maps?cid=5775211913442420763,FALSE,35.250355,139.73034,〒239-0813 神奈川県横須賀市鴨居１丁目７−９,鴨居キリスト教会
https://www.google.com/maps?cid=13126096046106185401,FALSE,35.4318908,139.606505,〒232-0042 神奈川県横浜市南区 井土ヶ谷下町 4-11,井土ヶ谷キリスト教会
https://www.google.com/maps?cid=6308798919533101966,FALSE,35.397285,139.522089,〒245-0061 神奈川県横浜市戸塚区汲沢１丁目２４−９ 日本バプテスト神学校,キリスト教戸塚伝道所
https://www.google.com/maps?cid=17178803424572331752,FALSE,35.2758979,139.6715026,〒238-0016 神奈川県横須賀市深田台２９,日本基督教会横須賀教会
https://www.google.com/maps?cid=10170085491153482866,FALSE,35.6992816,139.7627191,〒101-0062 東京都千代田区神田駿河台２−１ お茶の水クリスチャンセンタービル404号,東京プレヤーセンター
https://www.google.com/maps?cid=9899130306908941557,FALSE,35.7518578,139.6280153,〒179-0075 東京都練馬区高松４丁目１６−１１,光が丘聖書教会
https://www.google.com/maps?cid=7132361578327590326,FALSE,35.6980554,139.7655203,〒101-0062 東京都千代田区神田駿河台４−１−３,東京復活大聖堂
https://www.google.com/maps?cid=4452552315645766452,FALSE,35.4254153,139.5531096,〒244-0804 神奈川県横浜市戸塚区前田町５０７−１５,チャーチ・オブ・ゴッド 東戸塚キリスト教会
https://www.google.com/maps?cid=17537985124205148295,FALSE,35.7459657,139.8542899,〒125-0062 東京都葛飾区青戸３丁目３１−２ 日本基督教団 青戸教会,日本基督教団青戸教会
https://www.google.com/maps?cid=8216660457734602852,FALSE,35.6898786,139.9937962,〒273-0003 千葉県船橋市宮本３丁目７−１０,南船橋キリスト教会
https://www.google.com/maps?cid=9325526512896959115,FALSE,35.7358472,139.8840884,〒133-0057 東京都江戸川区西小岩１丁目３０−１１,小岩エステルキリスト教会
https://www.google.com/maps?cid=17515188792440732996,FALSE,35.7118725,139.5611157,〒180-0013 東京都武蔵野市西久保３丁目８−１ ノアビル,三鷹栄光キリスト教会
https://www.google.com/maps?cid=1850250204231073252,FALSE,35.7818191,139.7201027,〒115-0045 東京都北区赤羽１丁目４２−７,赤羽ぶどうの枝キリスト教会
https://www.google.com/maps?cid=12452391500460749739,FALSE,35.7370959,139.8912721,〒133-0051 東京都江戸川区北小岩３丁目１３−１１,聖山キリスト教会
https://www.google.com/maps?cid=12624137305058987110,FALSE,35.735176,139.894029,〒133-0051 東京都江戸川区北小岩１丁目１９−２ グレース北小岩,東京 聖光キリスト教会
https://www.google.com/maps?cid=8773014799941363176,FALSE,35.7789461,139.7546414,〒123-0864 東京都足立区鹿浜３丁目１−１２,鹿浜キリスト教会
https://www.google.com/maps?cid=10591213296184173088,FALSE,35.7074334,139.6829419,〒164-0003 東京都中野区東中野３丁目８−１３,アライブ・キリスト教会
https://www.google.com/maps?cid=14919023761054780480,FALSE,35.8000643,139.7888239,〒121-0807 東京都足立区伊興本町２丁目１−１０ 神の家族主イエス・キリスト教会,神の家族主イエスキリスト教会
https://www.google.com/maps?cid=17915534575332948656,FALSE,35.7059688,139.6904181,〒169-0074 東京都新宿区北新宿４丁目３０−２,ヨハン東京キリスト教会
https://www.google.com/maps?cid=8700264968673209476,FALSE,35.7020703,139.7010826,〒169-0073 東京都新宿区百人町２丁目３,きよめキリスト教会
https://www.google.com/maps?cid=4382841381877034394,FALSE,35.7104925,139.7024057,〒169-0075 東京都新宿区高田馬場４丁目２−３８,アライズ東京キリスト教会
https://www.google.com/maps?cid=14342369668673446917,FALSE,35.7604306,139.7194451,〒114-0034 東京都北区上十条２丁目２０−９,日本アッセンブリー・オブ・ゴッド教団 カテドラル・オブ・プレイズ 十条キリスト教会
https://www.google.com/maps?cid=435510602356069516,FALSE,35.7541521,139.8044857,〒120-0034 東京都足立区千住４丁目２９−２,聖光キリスト教会
https://www.google.com/maps?cid=10709091938681114749,FALSE,35.7287878,139.7281412,〒170-0005 東京都豊島区南大塚３丁目４２ 城所ビル,東京愛(アガペ)キリスト教会
https://www.google.com/maps?cid=7748855797834028653,FALSE,35.754728,139.789237,〒120-0045 東京都足立区千住桜木２丁目８−５,善隣キリスト教会
https://www.google.com/maps?cid=10131557294182410102,FALSE,35.7294893,139.7446079,〒113-0021 東京都文京区本駒込６丁目１−９ キャピタル本社 4階 大会議室,無教会・駒込キリスト聖書集会
https://www.google.com/maps?cid=10964212705742060028,FALSE,35.7395642,139.74755,〒114-0024 東京都北区西ケ原１丁目１,東京ニューホープチャペル・キリスト教会
https://www.google.com/maps?cid=11925591610583561604,FALSE,35.6687253,139.7396981,〒107-0052 東京都港区赤坂２丁目１８−１０,若松イエス之御霊教会東京教会
https://www.google.com/maps?cid=11908780580310385829,FALSE,35.7322574,139.7414412,〒170-0002 東京都豊島区巣鴨１丁目３−１９,巣鴨聖泉キリスト教会
https://www.google.com/maps?cid=3328081201397745422,FALSE,35.6861751,139.7329204,〒102-0085 東京都千代田区六番町１１−６ 四ッ谷教会,セブンスデー・アドベンチスト四ツ谷キリスト教会
https://www.google.com/maps?cid=11908883016947305886,FALSE,35.683005,139.727829,〒160-0011 東京都新宿区若葉１丁目１６−８ 東京若葉キリスト教会,宗教法人東京若葉キリスト教会
https://www.google.com/maps?cid=9424512357477787651,FALSE,24.8571785,125.3034136,〒906-0003 沖縄県宮古島市平良島尻８８８,日本聖公会・聖ミカエル教会
https://www.google.com/maps?cid=1328555405157803557,FALSE,24.8574057,125.3034333,〒906-0003 沖縄県宮古島市平良島尻８８８,南静園キリストの教会
https://www.google.com/maps?cid=3644045225903014452,FALSE,26.3294462,127.7781302,〒904-0101 沖縄県中頭郡北谷町上勢頭 오키나오 나가하미군 차탄조 카미세이도 550-103 3층 페미리 마트 옆 3층 550-10 3F,오키나와 은혜한인교회
https://www.google.com/maps?cid=3419594913036317743,FALSE,26.32953,127.7781896,〒904-0101 沖縄県中頭郡北谷町上勢頭 Floor 550-103 Kamiseido Chatan-cho Nakagami-gun Okinawa 오키나와 나카가미군 차탄조 카미세이도 550-103 3층 (페미리마트 옆건물 ５５０−１０ 3rd,오키나와 은혜 한인 교회 (Korean Church)
https://www.google.com/maps?cid=7667362546932601491,FALSE,26.353059,127.835666,〒904-2243 沖縄県うるま市宮里１７４−１,サレム宮里教会
https://www.google.com/maps?cid=8057348051683899677,FALSE,26.6286618,127.9511556,８３７ 旭川 名護市 沖縄県 905-0003,Okinawa-saniku Seventh-day Adventist Church
https://www.google.com/maps?cid=13444527232679817501,FALSE,26.3210805,127.8030146,1215 島袋 北中城村 中頭郡 沖縄県 901-2301,First United Pentecostal Church
https://www.google.com/maps?cid=7617947474031679931,FALSE,26.3376394,127.7962299,２丁目-１７-２ 中央 沖縄市 沖縄県 904-0004,Pillar Church of Okinawa
https://www.google.com/maps?cid=7264095564331274273,FALSE,26.32971,127.775336,〒904-0101 沖縄県中頭郡北谷町上勢頭５４４−１ 2F,New Testament Christian Church Of Okinawa
https://www.google.com/maps?cid=18223579318410914718,FALSE,26.2943836,127.7948931,１０３５ 安谷屋 北中城村 中頭郡 沖縄県 901-2316,Okinawa International Seventh-day Adventist Church
https://www.google.com/maps?cid=14197900141276207898,FALSE,26.4138267,127.7486666,〒904-0301 沖縄県中頭郡読谷村座喜味２７５３−１２７,白い家フェローシップチャーチ
https://www.google.com/maps?cid=1483770108597944318,FALSE,26.3293895,127.7781683,５５０−１０ 上勢頭 北谷町 中頭郡 沖縄県 904-0101,Okinawa Grace Church
https://www.google.com/maps?cid=12543966417328261655,FALSE,26.2540937,127.7384747,〒901-2226 沖縄県宜野湾市嘉数２丁目１４−１,WINキリスト教会
https://www.google.com/maps?cid=11863974985862380898,FALSE,26.3519309,127.8276398,388-1 ESU うるま市 沖縄県 904-2244,Sound Of Praise
https://www.google.com/maps?cid=2210505836016147169,FALSE,26.2100204,127.7294572,〒901-1105 沖縄県島尻郡南風原町新川４７０−１,よきサマリヤ人伝道所
https://www.google.com/maps?cid=9858926218801963740,FALSE,26.145486,127.703375,〒901-0321 沖縄県糸満市豊原４６９−３,SDA南部キリスト教会
https://www.google.com/maps?cid=3999420138065589859,FALSE,26.186754,127.67967,〒901-0241 沖縄県豊見城市豊見城９３−１,豊見城聖書宣教教会
https://www.google.com/maps?cid=9434900320933667871,FALSE,26.701152,127.9502232,〒905-0425 沖縄県国頭郡今帰仁村字与那嶺安田原１８８−１,IMS セブンスデー・アドベンチスト教会日本ミッション
https://www.google.com/maps?cid=13680683291937995585,FALSE,26.736491,128.173866,〒905-1412 沖縄県国頭郡国頭村奥間２４６,セブンスデーアドベンチスト奥間教会
https://www.google.com/maps?cid=14595493786717891125,FALSE,26.632968,128.064986,〒905-1141 沖縄県名護市源河２１９,源河キリストの教会
https://www.google.com/maps?cid=10398035345644756870,FALSE,26.3242581,127.8906729,〒904-2312 沖縄県うるま市勝連平安名１６２９−２,聖書福音 聖和教会
https://www.google.com/maps?cid=9871039002775081210,FALSE,26.2237633,127.7171019,〒903-0822 沖縄県那覇市首里桃原町１丁目９−９,那覇福音自由教会
https://www.google.com/maps?cid=3261018641940184686,FALSE,26.5903748,127.9901766,〒905-0016 沖縄県名護市大東２丁目１１−２４,沖縄キリスト福音センター名護教会
https://www.google.com/maps?cid=14438361382185508607,FALSE,31.3570935,130.9497269,〒893-1206 鹿児島県肝属郡肝付町前田１３７６,大隅クリスチャンチャーチ
https://www.google.com/maps?cid=22408585593472344,FALSE,31.2430127,130.6473467,４丁目-６-１１ 湊 指宿市 鹿児島県 891-0405,セブンスデー・アドベンチスト指宿キリスト教会
https://www.google.com/maps?cid=2941598957309969365,FALSE,32.2657779,130.9396916,〒868-0501 熊本県球磨郡多良木町多良木６４１,多良木聖書教会
https://www.google.com/maps?cid=10141659688849997584,FALSE,31.9350805,131.4149291,〒880-0032 宮崎県宮崎市霧島４丁目１４５−１,セブンスデー・アドベンチスト宮崎キリスト教会
https://www.google.com/maps?cid=12466274660387533265,FALSE,31.7388314,130.736836,〒899-5117 鹿児島県霧島市隼人町見次９３７,セブンスデー・アドベンチスト隼人キリスト教会
https://www.google.com/maps?cid=1152712050214584474,FALSE,31.767852,130.306407,〒895-0034 鹿児島県薩摩川内市木場茶屋町８０２８−１,希望キリスト教会
https://www.google.com/maps?cid=4031161531623325363,FALSE,31.732328,131.053322,〒885-0093 宮崎県都城市志比田町３−６,都城福音キリスト教会
https://www.google.com/maps?cid=8725962152388756908,FALSE,31.6344531,130.5291332,〒890-0002 鹿児島県鹿児島市西伊敷１丁目２−１４,福音宣教鹿児島教会
https://www.google.com/maps?cid=9879248887628099011,FALSE,31.534268,130.519066,〒891-0109 鹿児島県鹿児島市清和１丁目１−４４,谷山福音教会
https://www.google.com/maps?cid=9308257183134747402,FALSE,31.5342516,130.5190628,〒891-0109 鹿児島県鹿児島市清和１丁目１−４４,日本フォースクエア教団 谷山福音教会
https://www.google.com/maps?cid=6387501015243679942,FALSE,33.045976,129.7440373,１０７４ 西彼町小迎郷 西海市 長崎県 851-3422,セブンスデー・アドベンチスト希望の家キリスト教会
https://www.google.com/maps?cid=17560557384956520883,FALSE,33.577864,130.381134,〒810-0031 福岡県福岡市中央区谷１丁目１５−２８ ホレブ六本松,福岡ベタニヤチャーチ
https://www.google.com/maps?cid=3009945163712548201,FALSE,33.1793423,131.5961157,〒870-1147 大分県大分市田尻ふじが丘西区５４−２,セブンスデー・アドベンチスト大分キリスト教会
https://www.google.com/maps?cid=8179789216764574049,FALSE,33.5327342,130.476435,〒816-0933 福岡県大野城市瑞穂町２丁目１−１７,SDA春日原キリスト教会
https://www.google.com/maps?cid=11239002507214636963,FALSE,32.799973,130.752058,〒862-0924 熊本県熊本市中央区帯山３丁目１８−１０ イエス之御霊教会,肥後 イエス之御霊教会
https://www.google.com/maps?cid=14148357913888433941,FALSE,33.535154,130.465881,〒816-0805 福岡県春日市千歳町２丁目２,聖書友の会福岡教会
https://www.google.com/maps?cid=2371334381152929072,FALSE,33.230064,131.606622,〒870-0839 大分県大分市５ 金池南１丁目２６０７−１,グレイスチャペル
https://www.google.com/maps?cid=2086433855740424345,FALSE,33.3206949,130.5126943,〒830-0013 福岡県久留米市櫛原町１１２−１,セブンスデーアドベンチスト久留米キリスト教会
https://www.google.com/maps?cid=3281394393045185811,FALSE,33.214212,130.570968,〒834-0004 福岡県八女市納楚４５６−１,八女フロンティアチャーチ祈りの家
https://www.google.com/maps?cid=15127980766086863208,FALSE,33.5730342,130.3245745,〒819-0022 福岡県福岡市西区福重４丁目２４−２５,博多イエス之御霊教会
https://www.google.com/maps?cid=17443366066412582621,FALSE,32.7360193,130.3306437,〒859-1505 長崎県南島原市深江町戊３９５０−６,聖イエス会島原栄光教会
https://www.google.com/maps?cid=3669239479353634948,FALSE,33.301151,130.950963,〒877-0034 大分県日田市 大字日高桃山町2455−12,桃山チャペル
https://www.google.com/maps?cid=3876384487862394374,FALSE,33.53599,130.471003,〒816-0802 福岡県春日市春日原北町４丁目２３ 日本バプテスト 春日原キリスト教会 付属 恵星幼稚園,春日原バプテスト教会
https://www.google.com/maps?cid=9398487811511224959,FALSE,32.7554759,129.8704654,〒850-0042 長崎県長崎市御船蔵町１−４ SA御船蔵ビル,セブンスデー・アドベンチスト教団長崎教会
https://www.google.com/maps?cid=13898738453360525846,FALSE,33.59041,130.330199,〒819-0002 福岡県福岡市西区姪の浜２丁目２４−２５,福岡イエス之御霊教会
https://www.google.com/maps?cid=6987986294297587224,FALSE,33.713817,130.435878,〒811-0112 福岡県糟屋郡新宮町６丁目１０−５,聖イエス会カイザリヤ教会
https://www.google.com/maps?cid=86437349596027168,FALSE,33.577214,130.331021,〒814-0031 福岡県福岡市早良区南庄５丁目４−３７,日本バプテスト連盟 福岡ベタニヤ村教会
https://www.google.com/maps?cid=6622813319150243658,FALSE,33.2372205,131.5998855,〒870-0028 大分県大分市新町１０,大分シャロームキリスト教会
https://www.google.com/maps?cid=11202799563057686218,FALSE,33.563829,130.333879,〒814-0033 福岡県福岡市早良区有田１丁目３５−２５ 福岡有田教会,福岡有田バプテスト教会
https://www.google.com/maps?cid=6434168647428018890,FALSE,33.5881207,130.3947253,〒810-0041 福岡県福岡市中央区大名１丁目１２−４５,福岡国際キリスト教会
https://www.google.com/maps?cid=10589598862574181150,FALSE,32.8332435,130.7575678,〒861-8006 熊本県熊本市北区龍田７丁目１−１３５,セブンスデー・アドベンチスト教団 熊本キリスト教会
https://www.google.com/maps?cid=15071105442790400388,FALSE,32.8022773,131.1130334,〒869-1501 熊本県阿蘇郡南阿蘇村両併２７３１,セブンスデー・アドベンチスト 南阿蘇キリスト教会
https://www.google.com/maps?cid=2980783889653260895,FALSE,33.233295,131.627029,〒870-0936 大分県大分市岩田町４丁目１−３０,大分カルバリチャーチ
https://www.google.com/maps?cid=1321101995255755544,FALSE,33.5553703,130.3167006,〒819-0032 福岡県福岡市西区戸切２丁目９−３９,野方キリスト教会
https://www.google.com/maps?cid=14253904513987295052,FALSE,33.5678877,130.4031296,〒815-0071 福岡県福岡市南区平和１丁目８−２１ イエス・キリスト神の愛教会,イエス・キリスト 神の愛教会
https://www.google.com/maps?cid=16781667947680670330,FALSE,33.5923206,130.4539414,〒812-0851 福岡県福岡市博多区青木１丁目１１−８,福岡福音宣教センター
https://www.google.com/maps?cid=11273250941297316540,FALSE,33.093905,129.977338,〒843-0301 佐賀県嬉野市嬉野町大字下宿丙８０−２,純福音佐賀教会
https://www.google.com/maps?cid=14166959042666734497,FALSE,33.55675,130.382443,〒814-0123 福岡県福岡市城南区長尾４丁目２２−８ 栄光の福音教会,栄光の福音キリスト教団福岡教会
https://www.google.com/maps?cid=8739254714328994820,FALSE,33.6136768,130.4311162,〒812-0068 福岡県福岡市東区社領２丁目１１,箱崎キリスト福音教会
https://www.google.com/maps?cid=16971059997934189096,FALSE,33.2437986,130.3142067,〒840-0054 佐賀県佐賀市水ヶ江６丁目１２−１１ 佐賀福音教会,佐賀キリスト福音教会
https://www.google.com/maps?cid=14731997799212384997,FALSE,34.4534354,132.4715662,〒731-0123 広島県広島市安佐南区古市２丁目１５−１４,安佐南チャペル
https://www.google.com/maps?cid=17773355073643945209,FALSE,34.368701,132.375305,〒733-0842 広島県広島市西区井口３丁目９−８,鈴ヶ峰キリスト福音館
https://www.google.com/maps?cid=7820527434472771404,FALSE,33.9732888,130.91806,〒750-0059 山口県下関市汐入町１９−９,イエス・キリスト福音の群下関キリスト教会
https://www.google.com/maps?cid=17445594595327538630,FALSE,34.0230775,131.8574007,〒744-0075 山口県下松市瑞穂町１丁目２−８,宗教法人 タリタ.クム恵み多きイエスキリスト福音教会
https://www.google.com/maps?cid=840813621930710725,FALSE,35.4395369,133.3203199,〒683-0845 鳥取県米子市旗ヶ崎１丁目２３−９,米子日本キリスト会
https://www.google.com/maps?cid=16163169276966652190,FALSE,35.458214,133.058727,〒690-0056 島根県松江市雑賀町３９６,松江ゴスペルチャーチ
https://www.google.com/maps?cid=2789947457108360681,FALSE,34.600654,133.771081,〒710-0056 岡山県倉敷市鶴形１丁目５−１５,倉敷クリスチャンセンター
https://www.google.com/maps?cid=12806259772336980282,FALSE,35.031257,133.778916,〒719-3122 岡山県真庭市下河内２３９２,基督兄弟団 河内教会
https://www.google.com/maps?cid=7390173605223644539,FALSE,35.416392,133.803522,〒682-0855 鳥取県倉吉市生田７２０−８,倉吉 福音教会
https://www.google.com/maps?cid=4138142989433404063,FALSE,34.745263,134.893689,〒675-1122 兵庫県加古郡稲美町中村１２１２−２,いなみチャペル
https://www.google.com/maps?cid=18281974654538277370,FALSE,34.3219178,134.0788414,〒760-0080 香川県高松市木太町３８１８−２,高松木太キリスト教会
https://www.google.com/maps?cid=10692749088049739464,FALSE,34.5769927,133.7554229,〒710-0847 岡山県倉敷市東富井８３０−１,日本聖公会倉敷伝道所
https://www.google.com/maps?cid=13702848385305464553,FALSE,34.9287406,134.8431037,７丁目-４６ 北条町古坂 加西市 兵庫県 675-2303,JMEAD KASAI
https://www.google.com/maps?cid=2894444158198361702,FALSE,34.552725,132.9192193,〒729-1406 広島県三原市大和町下徳良２９６−２,SDA広島三育学院キリスト教会
https://www.google.com/maps?cid=15281386227816928498,FALSE,34.8233895,134.683642,〒670-0965 兵庫県姫路市東延末２丁目,姫路キリスト教会
https://www.google.com/maps?cid=16843992913207988559,FALSE,34.9332772,134.8372592,〒675-2302 兵庫県加西市北条町４８,北条 キリスト教会
https://www.google.com/maps?cid=17531370926540945785,FALSE,34.291106,133.997721,〒761-8043 香川県高松市中間町１２４−９,高松キリスト教会
https://www.google.com/maps?cid=8948543788214090487,FALSE,34.301034,134.061559,〒761-8075 香川県高松市多肥下町１５５０−７,恵みの森キリスト教会
https://www.google.com/maps?cid=9165250971757132482,FALSE,34.3393227,134.0361903,〒760-0005 香川県高松市宮脇町１丁目５−３,高松キリスト教会 日本長老教会
https://www.google.com/maps?cid=7213632870247752533,FALSE,34.3386657,134.0362656,〒760-0005 香川県高松市宮脇町１丁目１４−２１,アイオーンキリスト教会
https://www.google.com/maps?cid=15790491876159659250,FALSE,34.485149,133.942312,〒706-0011 岡山県玉野市宇野３丁目３０−１３,栄光の福音 玉野教会
https://www.google.com/maps?cid=9466582633193908436,FALSE,34.5758689,135.0176307,〒656-2401 兵庫県淡路市岩屋２９１０−１７２,淡路キリスト教会
https://www.google.com/maps?cid=10511875717125118694,FALSE,34.4444886,133.1966882,〒722-0215 広島県尾道市美ノ郷町三成３１１２,尾道福音教会
https://www.google.com/maps?cid=11199355577425116875,FALSE,34.7712547,134.038767,〒709-0802 岡山県赤磐市桜が丘西２丁目６,山陽福音教会
https://www.google.com/maps?cid=13002366956649127118,FALSE,34.605659,133.789699,〒710-0014 岡山県倉敷市黒崎２８４−１７,倉敷福音教会
https://www.google.com/maps?cid=9104414173280648416,FALSE,33.308225,132.7398609,１２５８ 小松 鬼北町 北宇和郡 愛媛県 798-1311,セブンスデー・アドベンチスト宇和島キリスト教会
https://www.google.com/maps?cid=8158227550584933581,FALSE,33.572785,133.657833,〒783-0004 高知県南国市大そね甲３４９−１,南国教会
https://www.google.com/maps?cid=3567650578591729182,FALSE,33.213508,133.135874,〒786-0012 高知県高岡郡四万十町北琴平町２−９,宗教法人日本アッセンブリーズ・オブ・ゴッド教団 四万十キリスト教会
https://www.google.com/maps?cid=9967288865119940631,FALSE,33.5569956,133.5037966,〒780-0944 高知県高知市水源町９,高知西福音教会 伝道所
https://www.google.com/maps?cid=4240773849545444101,FALSE,33.561138,133.588734,〒781-8104 高知県高知市高須２丁目１５−２８,高知福音教会
https://www.google.com/maps?cid=15619046595762009861,FALSE,33.7185325,135.4276857,〒649-2103 和歌山県西牟婁郡上富田町生馬３１６−５６,田辺聖公会愛の園聖シオン礼拝堂
https://www.google.com/maps?cid=5690112542325930164,FALSE,34.179081,134.630805,〒772-0021 徳島県鳴門市里浦町里浦坂田４３２−１７３,鳴門ホープチャペル
https://www.google.com/maps?cid=14798492755174015873,FALSE,34.462752,135.4472055,〒594-1151 大阪府和泉市唐国町１丁目１２−４,いずみグレイスチャーチ
https://www.google.com/maps?cid=13271931799822306687,FALSE,34.3575804,135.6982111,〒637-0006 奈良県五條市岡口２丁目３,五條聖三一教会
https://www.google.com/maps?cid=4261800063038071448,FALSE,34.809961,135.575526,〒567-0891 大阪府茨木市水尾１丁目１５−６ 産機ビル,フルゴスペル茨木教会
https://www.google.com/maps?cid=14537171230292964262,FALSE,34.6672884,135.5295273,〒543-0024 大阪府大阪市天王寺区舟橋町１５−３６,ＳＤＡ大阪東部キリスト教会
https://www.google.com/maps?cid=746357621168646753,FALSE,34.741359,135.487013,〒532-0006 大阪府大阪市淀川区西三国２丁目１４−１４,新大阪第一アッセンブリー教会
https://www.google.com/maps?cid=6771439557603208225,FALSE,34.4836367,135.4209231,〒594-0072 大阪府和泉市井ノ口町１,和泉キリスト集会
https://www.google.com/maps?cid=6691824431260183217,FALSE,34.619831,135.584182,〒581-0068 大阪府八尾市跡部北の町２丁目４−１７ グレース宣教会 久宝チャペル,グレース宣教会（宗教法人）久宝チャペル. Igreja Agape
https://www.google.com/maps?cid=15430130567292752173,FALSE,34.6178593,135.6093129,〒581-0017 大阪府八尾市高美町４丁目７−７,宗教法人グレース宣教会 高美会堂
https://www.google.com/maps?cid=18020432227595189904,FALSE,34.6260179,135.6262162,〒581-0866 大阪府八尾市東山本新町１丁目１５−１,グレース宣教会ＧＭセンター
https://www.google.com/maps?cid=12189162905291423773,FALSE,34.7412181,135.4749635,〒561-0828 大阪府豊中市三和町３丁目７−４０−２,大阪グレイスキリスト教会
https://www.google.com/maps?cid=6585316869588517270,FALSE,34.8384042,135.4269533,〒563-0014 大阪府池田市木部町１５５,フルゴスペル 池田教会
https://www.google.com/maps?cid=6876388133402460407,FALSE,34.7584493,135.7902617,〒619-0241 京都府相楽郡精華町 大字祝園小字榊ケ坪53,祝園チャペル
https://www.google.com/maps?cid=5644388617787585936,FALSE,34.620821,135.538011,〒546-0012 大阪府大阪市東住吉区中野３丁目３−３,インタナショナル・チャーチ南大阪集会所
https://www.google.com/maps?cid=1276504963019580112,FALSE,34.78402,135.787341,〒619-0246 京都府相楽郡精華町大字菱田小字 山ノ下16−1,サクラ・キリスト教会
https://www.google.com/maps?cid=7673818384360765272,FALSE,34.8421648,135.6329759,〒569-0025 大阪府高槻市藤の里町３３−２８,クロスロード聖書バプテスト教会
https://www.google.com/maps?cid=3190305441744196058,FALSE,34.765037,135.616545,〒572-0047 大阪府寝屋川市大利元町１−１６,アッセンブリーズオブゴッドファミリーチャーチ寝屋川
https://www.google.com/maps?cid=1472548972587817347,FALSE,34.543581,135.70405,〒639-0231 奈良県香芝市１０ 奈良県香芝市下田西1丁目332−1,香芝ゴスペルチャーチ
https://www.google.com/maps?cid=17081209462488675366,FALSE,34.7275647,135.6072632,〒571-0016 大阪府門真市島頭４丁目６−８,日本アッセンブリーズ・オブ・ゴッド教団 門真キリスト教会
https://www.google.com/maps?cid=14292543797328008141,FALSE,34.845834,135.666228,〒573-1142 大阪府枚方市牧野下島町２−８,枚方フルゴスペルチャーチ
https://www.google.com/maps?cid=14736592273714916619,FALSE,34.6725813,135.1633436,〒652-0802 兵庫県神戸市兵庫区水木通６丁目１,純福音神戸教会
https://www.google.com/maps?cid=17807289667998270912,FALSE,34.5255186,135.4423761,〒592-0003 大阪府高石市東羽衣６丁目１７−３５,福音交友会・高石聖書教会
https://www.google.com/maps?cid=9036733166271437195,FALSE,34.5742353,135.4800702,〒590-0078 大阪府堺市堺区南瓦町１−１５ シャローム堺 2F,純福音(フルゴスペル)堺教会
https://www.google.com/maps?cid=16780059595255510268,FALSE,34.6308919,135.6010656,〒581-0802 大阪府八尾市北本町１丁目１−６ ４F 東 サニービル,純福音八尾教会
https://www.google.com/maps?cid=3183249116259157327,FALSE,34.704832,135.534634,〒534-0022 大阪府大阪市都島区都島中通３丁目１６−４ 大阪教会,栄光の福音キリスト教団大阪教会
https://www.google.com/maps?cid=9877606378680181700,FALSE,34.73386,135.487291,〒532-0005 大阪府大阪市淀川区三国本町２丁目１２−１８ 大阪一菱教会,活けるキリスト大阪一麦教会
https://www.google.com/maps?cid=14034361131061027895,FALSE,34.6911072,135.5063652,中央 ２丁目-３-１０ 北浜 中央区 大阪市 大阪府 541-0041,GIII Osaka (Gereja Interdenominasi Injili Indonesia - wilayah Osaka) 大阪 インドネシア 福音教会
https://www.google.com/maps?cid=769132138034988243,FALSE,34.70834,135.5195368,〒534-0021 大阪府大阪市都島区都島本通１丁目１−１８ 大倉ビル 3F,福音宣教 大阪教会
https://www.google.com/maps?cid=15466286439544628126,FALSE,34.879175,135.664089,〒618-0015 大阪府三島郡島本町青葉１丁目６−４,島本キリスト福音教会
https://www.google.com/maps?cid=16782318550178987219,FALSE,34.6290044,135.552423,〒547-0046 大阪府大阪市平野区平野宮町１丁目２,八尾福音教会平野チャペル
https://www.google.com/maps?cid=16169835444241226610,FALSE,34.7339828,135.6375388,〒575-0023 大阪府四條畷市楠公１丁目１−１６,大阪ろう福音教会
https://www.google.com/maps?cid=8908062154171444835,FALSE,34.6015295,135.5782208,〒547-0013 大阪府大阪市平野区長吉長原東３丁目７−１２,平野聖書福音教会
https://www.google.com/maps?cid=6935311143116135481,FALSE,34.6082283,135.6107305,〒581-0026 大阪府八尾市 曙町2丁目1−7,宗教法人八尾福音教会 曙チャペル
https://www.google.com/maps?cid=17268595004304254997,FALSE,34.7813351,135.6194934,〒572-0071 大阪府寝屋川市豊里町４８−１,大阪キリスト福音教会
https://www.google.com/maps?cid=7573602567724873061,FALSE,34.605691,135.593407,〒581-0042 大阪府八尾市南木の本２丁目１−２,八尾南福音教会
https://www.google.com/maps?cid=1058601026239613509,FALSE,34.657928,135.493572,〒556-0015 大阪府大阪市浪速区敷津西２丁目１６−１１ 大阪純福音教会,大阪純福音教会（宗教法人）
https://www.google.com/maps?cid=15546674812868791824,FALSE,35.3737484,136.2654674,４-９ 港町 長浜市 滋賀県 526-0067,Congregacao crista
https://www.google.com/maps?cid=12146562210320902821,FALSE,35.8865626,136.1570511,３６９ 千福町 越前市 福井県 915-0846,JMEAD
https://www.google.com/maps?cid=760011434516773904,FALSE,35.3883648,136.2633922,２６-２６−２９ 三ツ矢元町 長浜市 滋賀県 526-0024,Assembleia de Deus Belém Japão Nagahama
https://www.google.com/maps?cid=189690097663781629,FALSE,35.2708,136.259331,〒522-0081 滋賀県彦根市京町３丁目４−１３,彦根キリスト集会
https://www.google.com/maps?cid=6460819985184654425,FALSE,35.392441,136.274719,〒526-0021 滋賀県長浜市八幡中山町７２１,長浜キリスト教会
https://www.google.com/maps?cid=6779081184879504728,FALSE,35.6512411,136.0586819,〒914-0801 福井県敦賀市松島町２丁目８−７,敦賀長老教会
https://www.google.com/maps?cid=12462838447198971532,FALSE,35.8976685,136.1553363,１丁目-４-１６ 日野美 越前市 福井県 915-0831,Igreja Dunamis Echizen
https://www.google.com/maps?cid=3330976935589224974,FALSE,35.3766735,136.2681947,１４-１５−２７ 朝日町 長浜市 滋賀県 526-0056,Igreja evangélica assembleia de Deus
https://www.google.com/maps?cid=14725430337606790136,FALSE,35.355071,136.033905,〒520-1501 滋賀県高島市新旭町旭１丁目７−６,国際全福音白鳩教会
https://www.google.com/maps?cid=10864476614931456050,FALSE,35.4685504,135.4061528,〒625-0042 京都府舞鶴市溝尻町３−１２,舞鶴福音教会
https://www.google.com/maps?cid=1632993987596813543,FALSE,37.1132726,138.2472181,〒943-0834 新潟県上越市西城町３丁目９−１７,日本聖公会高田降臨教会
https://www.google.com/maps?cid=8839059788081044423,FALSE,37.1719694,138.2592472,〒942-0061 新潟県上越市春日新田２丁目９−７,直江津聖上智教会
https://www.google.com/maps?cid=657678304123933052,FALSE,36.579878,136.6454239,〒920-0031 石川県金沢市広岡３丁目１−１,金沢こころチャペル
https://www.google.com/maps?cid=1382499376198785333,FALSE,35.3976854,136.953133,８丁目-１６２ 鵜沼山崎町 各務原市 岐阜県 509-0124,Igreja Adventista do Sétimo dia Grupo Kakamigahara
https://www.google.com/maps?cid=15220205725775606744,FALSE,35.4383599,137.0005458,Ignited Christian Assembly ９８４ 酒倉 坂祝町 加茂郡 岐阜県 505-0074,Gifu Christian Assembly Church
https://www.google.com/maps?cid=10082835227612967721,FALSE,35.4332231,137.0309532,〒509-0207 岐阜県可児市今渡１７−１,Assembleia de Deus Belém Japão Kani
https://www.google.com/maps?cid=13932592495353698356,FALSE,35.4480928,137.04955,〒505-0022 岐阜県美濃加茂市川合町４丁目９,Assembleia de Deus Nakatsugawa
https://www.google.com/maps?cid=10104591574545293184,FALSE,35.4427911,137.0240297,１丁目-１-１６ 中富町 美濃加茂市 岐阜県 505-0033,Igreja evangélica Dúnamis Minokamo
https://www.google.com/maps?cid=14228094501959581598,FALSE,35.4427906,137.0240347,〒505-0033 岐阜県美濃加茂市中富町１丁目１−１６,ヅナミス福音教会
https://www.google.com/maps?cid=7610914202517202286,FALSE,35.3165548,136.9154399,85-5 横内 小牧市 愛知県 485-0081,Comunidade evangélica Cristo para os Povos
https://www.google.com/maps?cid=14687881196832493755,FALSE,35.4543256,136.8536631,〒501-3133 岐阜県岐阜市芥見南山１丁目８−８,同盟福音 芥見キリスト教会
https://www.google.com/maps?cid=378772989193898294,FALSE,35.0138873,136.9554365,〒474-0035 愛知県大府市江端町２丁目１２０,ADFEC MISSÃO JAPÃO (sede)
https://www.google.com/maps?cid=3927211163121628318,FALSE,35.0138787,136.9553989,2 Chome-120 江端町 大府市 愛知県 474-0035,Assembleia de Deus firmados em Cristo
https://www.google.com/maps?cid=3035930944498397220,FALSE,35.100484,136.962331,〒458-0041 愛知県名古屋市緑区鳴子町２丁目１１５,名古屋グリーンキリストチャーチ
https://www.google.com/maps?cid=1678924832710066314,FALSE,35.2807673,136.8851927,釜之口-１−１ 東新町 岩倉市 愛知県 482-0001,Assembléia de Deus Belém Japão Iwakura
https://www.google.com/maps?cid=1489400676807615076,FALSE,35.161396,136.8977,〒460-0011 愛知県名古屋市中区大須１丁目７−２６,His Call Church ヒズコールチャーチ
https://www.google.com/maps?cid=8851015266995956277,FALSE,35.180543,136.95924,〒464-0094 愛知県名古屋市千種区赤坂町４丁目６４,クリスチャンライフ
https://www.google.com/maps?cid=13260971018935644307,FALSE,35.1009746,136.8625923,Nagoya-shi minato-ku shinagawa-cho 2chōme 2-６５ 愛知県 455-0055,Missão Apoio Nagoya
https://www.google.com/maps?cid=69868265410420322,FALSE,35.2574078,136.7845656,〒492-8218 愛知県稲沢市西町１丁目１７−１７,クリスチャンファミリー
https://www.google.com/maps?cid=3454690007699314821,FALSE,35.165329,136.916158,〒460-0007 愛知県名古屋市中区新栄１丁目２５−３０,ナゴヤ・愛の教会
https://www.google.com/maps?cid=4421669900235544595,FALSE,35.143032,136.897889,〒460-0024 愛知県名古屋市中区正木４丁目９−３,金山キリスト集会所
https://www.google.com/maps?cid=5822626571586571330,FALSE,35.0722459,136.9601993,〒458-0035 愛知県名古屋市緑区四本木５０１,Igreja Pentecostal Deus é amor de Nagoya
https://www.google.com/maps?cid=6212082255695123057,FALSE,35.0919386,137.1796892,〒471-0013 愛知県豊田市高上１丁目,豊田ホープチャペル
https://www.google.com/maps?cid=11456005283895691135,FALSE,35.208313,137.084155,〒489-0877 愛知県瀬戸市東赤重町１丁目１３８−２,セブンスデー・アドベンチスト瀬戸キリスト教会
https://www.google.com/maps?cid=3446355573817758467,FALSE,35.217475,137.082307,〒489-0872 愛知県瀬戸市水無瀬町１５４−１ コーポ見付台１―２０５,瀬戸 希望の光キリスト教会
https://www.google.com/maps?cid=14266807893657102985,FALSE,35.17626,136.889211,〒451-0042 愛知県名古屋市西区那古野２丁目２０−１９ 名古屋リバイバルチャーチ,名古屋リバイバル・チャーチ
https://www.google.com/maps?cid=6068498648602594239,FALSE,35.2012603,136.9050006,〒462-0058 愛知県名古屋市北区西志賀町４丁目７９−２,志賀キリスト教会
https://www.google.com/maps?cid=754057760641781855,FALSE,35.146715,136.903527,〒460-0022 愛知県名古屋市中区金山２丁目１−３,金山キリスト教会
https://www.google.com/maps?cid=5709325279610742652,FALSE,35.012565,136.91191,〒477-0032 愛知県東海市加木屋町旭１８,東海キリスト教会
https://www.google.com/maps?cid=17710739897973344447,FALSE,35.195257,137.029996,〒463-0032 愛知県名古屋市守山区白山３丁目９０７,本地ヶ原自由キリスト教会
https://www.google.com/maps?cid=12326026696413702853,FALSE,35.1160817,136.8815857,ＫＯＷＡミナト寮 ３丁目-３−１ 南十番町 港区 名古屋市 愛知県 455-0007,Assembleia de Deus Belém Japão Nagoya
https://www.google.com/maps?cid=11736717275095451474,FALSE,35.134059,137.1380372,郷地-２−１ 東保見町 豊田市 愛知県 470-0345,Match Jesus House - マッチ ジーザス ハウス
https://www.google.com/maps?cid=16440573896467639353,FALSE,35.1416287,137.1369212,池下-１４ 東保見町 豊田市 愛知県 470-0345,Igreja Avivamento Japão
https://www.google.com/maps?cid=7341678060633108106,FALSE,35.0922013,137.1700104,５丁目 寺部町 豊田市 愛知県 471-0017,Match Jesus Missao Apoio
https://www.google.com/maps?cid=18332018040138315632,FALSE,35.014891,137.007723,〒448-0011 愛知県刈谷市築地町４丁目３−３,刈谷福音キリスト教会
https://www.google.com/maps?cid=8829404180828294218,FALSE,35.159198,136.855514,〒453-0825 愛知県名古屋市中村区沖田町３１８ 名古屋西教会,日本ナザレン教団 名古屋西教会
https://www.google.com/maps?cid=16721343811635261032,FALSE,35.1416096,137.1369434,〒470-0345 愛知県豊田市東保見町池下１４,日本アビバメント福音教会
https://www.google.com/maps?cid=234312728749670753,FALSE,35.195372,136.801702,〒497-0001 愛知県あま市七宝町沖之島間曽６４−１,名古屋西福音自由教会
https://www.google.com/maps?cid=15868537419454005780,FALSE,35.256251,136.943931,〒486-0903 愛知県春日井市前並町１−４−２５,春日井福音キリスト教会 宗教法人
https://www.google.com/maps?cid=4087869238120229876,FALSE,35.225769,136.897428,〒452-0802 愛知県名古屋市西区比良１丁目７５  名古屋,福音自由教会
https://www.google.com/maps?cid=2567542952269341529,FALSE,35.1625204,136.9151291,〒460-0008 愛知県名古屋市中区栄５丁目２３−８ 名古屋中部教会,福音宣教教会
https://www.google.com/maps?cid=14541018543840241467,FALSE,34.9052545,136.9929312,〒447-0064 愛知県碧南市西山町５−５３ Adosamu 1F,Missão Apoio Hekinan
https://www.google.com/maps?cid=17069416928298339867,FALSE,34.8992361,136.9206333,〒475-0911 愛知県半田市星崎町２丁目２０７−２,Igreja Vida Plena Handa
https://www.google.com/maps?cid=4071280012065773167,FALSE,34.9116608,136.9408378,〒475-0068 愛知県半田市乙川西ノ宮町３丁目３３,半田ハリストス正教会・聖イオアン・ダマスキン聖堂
https://www.google.com/maps?cid=15971616654497540975,FALSE,34.8995089,136.9368597,〒475-0804 愛知県半田市上浜町１０−７,ミッションアポイオ半田キリスト教会
https://www.google.com/maps?cid=6067714588151080081,FALSE,34.9221965,137.1623812,74 柱町 岡崎市 愛知県 444-0834,Amazing Grace Mission Church Int'l. Japan
https://www.google.com/maps?cid=13737332310441032071,FALSE,34.9234896,136.9826436,〒444-1325 愛知県高浜市青木町９丁目6−２４,Igreja Evangélica Assembleia de Deus - Missão J.MEAD Japão
https://www.google.com/maps?cid=3445026351068639668,FALSE,34.9285677,137.133903,〒444-0241 愛知県岡崎市赤渋町寺前３３−１,COMUNIDADE DA GRACA OKAZAKI
https://www.google.com/maps?cid=6710081190048189194,FALSE,34.9452658,136.8574481,Ochida 66-1 大興寺 知多市 愛知県 478-0022,Missão Apoio Tokai
https://www.google.com/maps?cid=11220255898762949836,FALSE,34.9425062,137.1627832,〒444-0864 愛知県岡崎市明大寺町銭堤３７−１,アビバメント福音教会 岡崎
https://www.google.com/maps?cid=9895179102084384021,FALSE,35.0103916,138.4847099,〒424-0827 静岡県静岡市清水区上１丁目１３−１３,清水聖書教会
https://www.google.com/maps?cid=17892856449668622521,FALSE,34.7837931,137.6146997,〒431-1305 静岡県浜松市北区細江町気賀１１４１７−１,HCCライブチャーチ寸座
https://www.google.com/maps?cid=8446599401680792118,FALSE,34.7136179,137.6754559,〒430-8005 静岡県浜松市西区 神ヶ谷2048-3,浜松クリスチャンセンター
https://www.google.com/maps?cid=17784609737075439910,FALSE,34.699515,137.883986,〒438-0035 静岡県磐田市東新屋６７,ＨＣＣライブチャーチ磐田教会
https://www.google.com/maps?cid=10343610768045184540,FALSE,34.8209663,137.4044174,宮脇-１７４ 馬場町 豊川市 愛知県 442-0811,Assembleia de Deus JMEAD Toyokawa
https://www.google.com/maps?cid=16199709402982739480,FALSE,34.7634837,137.7062279,２丁目-２９-７５ 高丘北 中区 浜松市 静岡県 433-8119,JMEAD TAKAOKA
https://www.google.com/maps?cid=9636201825975363345,FALSE,34.7614705,137.4484844,神の恵み国際教会 ２丁目-８−２ 多米中町 豊橋市 愛知県 440-0027,Assembleia de Deus Ministério de Santos
https://www.google.com/maps?cid=12363503103576390616,FALSE,34.6680964,138.0477064,Igreja assembleia de Deus Japão visão missionária ADVM Kakegawa-Shi １４４６−１０ 大坂 静岡県 437-1421,Igreja Assembléia de Deus Japão ADVM VISÃO MISSIONÁRIA
https://www.google.com/maps?cid=4980763274882544834,FALSE,34.763463,137.706192,２丁目-２９-７５ 高丘北 中区 浜松市 静岡県 433-8119,Assembleia de Deus JMEAD
https://www.google.com/maps?cid=17208071029334664210,FALSE,34.7896659,137.7039501,２１５０−８ 三方原町 北区 浜松市 静岡県 433-8105,Igreja Avivamento Japão - Hamamatsu
https://www.google.com/maps?cid=6447096534122445641,FALSE,34.7092923,137.695544,６丁目-５-７ 佐鳴台 中区 浜松市 静岡県 432-8021,JMEAD Assembleia de Deus
https://www.google.com/maps?cid=9388952319950116231,FALSE,34.6522012,138.0708085,〒437-1412 静岡県掛川市千浜５６１１,セブンズデーアドベンチスト 東海国際伝道センター
https://www.google.com/maps?cid=8208721707689511695,FALSE,34.8592206,137.8219954,〒431-3311 静岡県浜松市天竜区二俣町阿蔵１１８,天竜めぐみキリスト教会
https://www.google.com/maps?cid=4579862990454817407,FALSE,34.8943438,137.5040902,〒441-1331 愛知県新城市庭野八名井田２−１,新城福音教会
https://www.google.com/maps?cid=4970632061473496799,FALSE,34.8350398,137.3261385,〒442-0854 愛知県豊川市国府町流霞６９−４,国府キリスト集会所
https://www.google.com/maps?cid=13063299876448484315,FALSE,34.8108476,137.72952,８１０６−１１ 都田町 北区 浜松市 静岡県 431-2102,Missão Evangélica Bereana
https://www.google.com/maps?cid=10704666211678513046,FALSE,34.7205036,137.8467394,〒438-0077 静岡県磐田市国府台 字桜新田２９−６,福音宣教 磐田教会
https://www.google.com/maps?cid=10559152071088756978,FALSE,34.6807355,137.6320493,〒431-0203 静岡県浜松市西区馬郡町４１６３,Igreja Missão Apoio Hamamatsu
https://www.google.com/maps?cid=9404649368933697949,FALSE,34.7633805,137.4029632,トップス ７３−４ 東新町 豊橋市 愛知県 440-0812,Assembleia de Deus Visao Missionaria Toyohashi
https://www.google.com/maps?cid=3901003207269032657,FALSE,34.8049801,137.6922647,８８８−９ 細江町中川 北区 浜松市 静岡県 431-1304,Igreja Avivamento da Fe Hamamatsu
https://www.google.com/maps?cid=1499264880149441866,FALSE,34.725244,137.486093,〒431-0424 静岡県湖西市新所原２丁目９−３,イエス福音新所原教会
https://www.google.com/maps?cid=15350164782560139297,FALSE,34.900165,137.497373,〒441-1374 愛知県新城市町並１０４−２,イエス福音教団新城第一教会
https://www.google.com/maps?cid=4060966594364446816,FALSE,34.6689421,137.9935394,〒437-1303 静岡県掛川市沖之須１７６５−１,掛川フォースクエア福音教会
https://www.google.com/maps?cid=6524696220373338648,FALSE,35.246297,139.153508,〒250-0013 神奈川県小田原市南町２丁目２−４５,聖公会小田原聖十字教会
https://www.google.com/maps?cid=7282282184408321238,FALSE,35.053162,138.9413646,〒410-2123 静岡県伊豆の国市四日町１０７４−９,韮山ホームチャペル
https://www.google.com/maps?cid=16209552820182726208,FALSE,35.114689,138.914096,〒411-0841 静岡県三島市南本町１０−２５,三島高台キリスト教会
https://www.google.com/maps?cid=3960342569247693773,FALSE,35.267507,139.684703,〒238-0014 神奈川県横須賀市三春町２丁目11 ＭＳビル 3階,エブリネイションチャーチ横須賀
https://www.google.com/maps?cid=4557483643359046335,FALSE,35.244864,139.155502,〒250-0012 神奈川県小田原市本町４丁目５−３５,ＳＤＡ小田原キリスト教会
https://www.google.com/maps?cid=8119598301283452992,FALSE,35.564098,139.696145,〒146-0093 東京都大田区矢口２丁目１−１８,東京ライトハウスチャーチ
https://www.google.com/maps?cid=2094269208464412187,FALSE,35.401477,139.185383,〒259-1307 神奈川県秦野市横野１７４−４,秦野クリスチャンセンター
https://www.google.com/maps?cid=8476252502608197911,FALSE,35.5039473,139.4265662,〒252-0001 神奈川県座間市相模が丘４丁目６０−２０,座間キリスト教会
https://www.google.com/maps?cid=15124897140575808339,FALSE,35.4992869,139.4072731,１丁目-３５-６ 相武台 座間市 神奈川県 252-0011,Church in Zama - Newlife Heart Of God
https://www.google.com/maps?cid=8348775450777985950,FALSE,35.45836,139.459559,〒242-0022 神奈川県大和市柳橋４丁目１９−８,単立純福音 大和あがないの丘キリスト教会
https://www.google.com/maps?cid=3242599761607053714,FALSE,35.3473245,139.6066344,〒236-0042 神奈川県横浜市金沢区釜利谷東５丁目５−１３,釜利谷キリスト集会
https://www.google.com/maps?cid=4211025253814360682,FALSE,35.3670675,139.241888,〒257-0031 神奈川県秦野市曽屋５７８９−６,ブロッサムチャーチ
https://www.google.com/maps?cid=1184635851694221310,FALSE,35.2527159,139.6821603,〒239-0807 神奈川県横須賀市根岸町４丁目３９−７,横須賀キリスト教会
https://www.google.com/maps?cid=2280253535939281656,FALSE,35.324971,139.623661,〒236-0026 神奈川県横浜市金沢区柳町２６−９,純福音金沢教会
https://www.google.com/maps?cid=13600438101769882154,FALSE,35.2639309,139.6887618,〒238-0014 神奈川県横須賀市三春町３丁目２０,日本福音ルーテル横須賀教会
https://www.google.com/maps?cid=7624128480022663743,FALSE,35.3110638,139.6245222,〒237-0064 神奈川県横須賀市追浜町２丁目,日本ペンテコス福音キリスト教会
https://www.google.com/maps?cid=11934190978462128525,FALSE,44.3499551,143.3502349,〒094-0015 北海道紋別市花園町２丁目１７,紋別聖マリヤ教会
https://www.google.com/maps?cid=549153868027799075,FALSE,42.998342,144.379619,〒085-0035 北海道釧路市共栄大通６丁目２−６,救世軍釧路小隊
https://www.google.com/maps?cid=11961255558851109419,FALSE,43.8235155,142.3334637,〒071-1224 北海道上川郡鷹栖町北野東４条１丁目７−１１,鷹栖キリスト教会
https://www.google.com/maps?cid=13595767779169185700,FALSE,43.2308584,143.2944745,〒080-1408 北海道河東郡上士幌町上士幌東３線２３５,日本メノナイト 上士幌キリスト教会
https://www.google.com/maps?cid=2438706696167681033,FALSE,43.805713,143.87065,〒090-0052 北海道北見市北進町２丁目９−１,北見栄光教会
https://www.google.com/maps?cid=17497173469191053859,FALSE,43.0478878,141.3313321,〒064-0808 北海道札幌市中央区南８条西１７丁目３−１１,순복음삿포로교회
https://www.google.com/maps?cid=13961146608781494069,FALSE,42.7274364,141.7727569,〒059-1433 北海道勇払郡安平町遠浅４２,日本キリスト教会遠浅教会
https://www.google.com/maps?cid=14853011574900235918,FALSE,40.8741102,140.8470011,〒039-3502 青森県青森市久栗坂山辺１−３,アメイジング・グレイス聖書教会
https://www.google.com/maps?cid=10960933920070822691,FALSE,40.646879,140.517435,〒038-1141 青森県南津軽郡田舎館村川部上西田１３０−１２,セブンスデー・アドベンチスト青森南キリスト教会
https://www.google.com/maps?cid=16501466832693534315,FALSE,39.611827,141.141591,〒028-3615 岩手県紫波郡矢巾町南矢幅第６地割１５−５０,盛岡チャペル
https://www.google.com/maps?cid=9521119324231034209,FALSE,37.6594844,139.0673768,〒959-1333 新潟県加茂市八幡３丁目２−２３,東加茂 聖書教会
https://www.google.com/maps?cid=15011551969763446817,FALSE,37.363823,138.544535,〒945-0852 新潟県柏崎市中浜１丁目２−１５,万国福音教団柏崎中浜教会
https://www.google.com/maps?cid=11848593366354577693,FALSE,36.6450044,138.31637,〒382-0028 長野県須坂市臥竜４丁目４−１１,須坂聖書教会
https://www.google.com/maps?cid=9082717506431940360,FALSE,36.395017,138.229487,384-1 中之条 上田市 長野県 386-0034,ADBelėm - Ueda
https://www.google.com/maps?cid=7929157193319319651,FALSE,36.515951,136.542938,〒924-0075 石川県白山市米永町２７９−１６,松任聖書教会
https://www.google.com/maps?cid=9932703219526893993,FALSE,36.0730796,136.2163801,〒910-0018 福井県福井市田原２丁目２５−２２,ブンキョーゴスペルセンター
https://www.google.com/maps?cid=3524002974592999158,FALSE,36.312336,138.232658,〒386-0413 長野県上田市東内２４９９−５,信濃チャペル
https://www.google.com/maps?cid=1677014179148605886,FALSE,36.5199782,136.5767714,〒924-0804 石川県白山市徳丸町４６７−１,松任キリスト教会
https://www.google.com/maps?cid=10274167838391083770,FALSE,36.528634,136.570735,〒924-0881 石川県白山市八ツ矢新町３９,キリスト教 松任教会
https://www.google.com/maps?cid=2507290695536436660,FALSE,36.3950012,138.229558,〒386-0034 長野県上田市中之条３８４−１,ベレン・アッセンブレイア・デ・デウス教会
https://www.google.com/maps?cid=1298270282490395798,FALSE,36.3721115,138.2933968,２４２−６ 大屋 上田市 長野県 386-0152,Igreja Evangélica Avivamento Japão Ueda Shi
https://www.google.com/maps?cid=8444316503340496816,FALSE,36.4028944,136.4704993,２−６ 糸町 小松市 石川県 923-0813,Igreja Evangelica Assembleia de Deus JMead Komatsu
https://www.google.com/maps?cid=9697327430526053184,FALSE,36.2285326,137.9493182,〒390-0852 長野県松本市島立３８−３,万国福音教団松本本部教会
https://www.google.com/maps?cid=16962118394852334569,FALSE,36.1968845,137.939568,〒399-0033 長野県松本市笹賀下二子,純福音松本恵み教会
https://www.google.com/maps?cid=1417762313763083921,FALSE,36.5199721,136.6248287,〒921-8142 石川県金沢市光が丘１丁目７８,キリストの福音光が丘教会
https://www.google.com/maps?cid=6923159909766837654,FALSE,36.7465428,137.0375023,〒933-0014 富山県高岡市野村５５７,日本アビバメント福音教会
https://www.google.com/maps?cid=11837099055882138689,FALSE,36.0480315,138.1166239,〒392-0004 長野県諏訪市諏訪１丁目１４−１０,アビバメント ダ フェ福音教会
https://www.google.com/maps?cid=13087529675815771778,FALSE,36.4072744,136.4554279,〒923-0806 石川県小松市小寺町 戊１２-１,小松ベタニヤ福音教会
https://www.google.com/maps?cid=12963582892963225705,FALSE,36.2651482,139.2131536,,伊勢崎聖書キリスト教会
https://www.google.com/maps?cid=18205316601579560191,FALSE,36.185467,139.268095,〒366-0801 埼玉県深谷市上野台３２５４,聖心教会
https://www.google.com/maps?cid=8075939194126836249,FALSE,36.215586,139.1003959,６９５−５ 植竹 神川町 児玉郡 埼玉県 367-0245,セブンスデー・アドベンチスト神川キリスト教会
https://www.google.com/maps?cid=17608463307013021948,FALSE,36.357542,138.344955,〒389-0515 長野県東御市常田１９８−１,大久保キリスト教会
https://www.google.com/maps?cid=8731117356108519473,FALSE,36.167229,139.362528,〒360-0811 埼玉県熊谷市原島１１９,熊谷イエス中心教会
https://www.google.com/maps?cid=13170622164031701583,FALSE,36.2530518,139.424176,３丁目-２-１ 朝日 大泉町 邑楽郡 群馬県 370-0514,ADOMJ Oizumi
https://www.google.com/maps?cid=3443266746241300999,FALSE,36.4250694,139.1083049,〒371-0131 群馬県前橋市鳥取町８２７−６,芳賀チャペル前橋キリスト教会
https://www.google.com/maps?cid=5542615710065748255,FALSE,36.413684,139.337223,〒376-0044 群馬県桐生市永楽町２−２８,桐生キリスト教会
https://www.google.com/maps?cid=5753773883233692209,FALSE,36.2698927,139.4596915,1593 中野 邑楽町 邑楽郡 群馬県 370-0603,Igreja Evangelica Tabernaculo Shammah
https://www.google.com/maps?cid=12574794165730372814,FALSE,36.3432235,139.4272412,〒326-0843 栃木県足利市五十部町１２２４−１１,キリスト福音集会所
https://www.google.com/maps?cid=4069526511364557633,FALSE,36.271272,139.258146,〒370-0123 群馬県伊勢崎市境東８６−８,福音伝道教団境キリスト教会
https://www.google.com/maps?cid=12883174040110111670,FALSE,36.407915,139.331171,〒376-0022 群馬県桐生市稲荷町５−８ 所,桐生キリスト福音集会
